[
    {
        "code": "A110110000011",
        "type": 16011,
        "name": "群馬大学共同教育学部附属幼稚園",
        "address": "前橋市若宮町2-5-3",
        "lat": 36.400075,
        "lng": 139.073674
    },
    {
        "code": "A110210000019",
        "type": 16011,
        "name": "まえばし幼稚園",
        "address": "前橋市若宮町4-32-4",
        "lat": 36.407557,
        "lng": 139.069851
    },
    {
        "code": "A110210000313",
        "type": 16011,
        "name": "おおご幼稚園",
        "address": "前橋市河原浜町491-1",
        "lat": 36.422221,
        "lng": 139.163453
    },
    {
        "code": "A110210000322",
        "type": 16011,
        "name": "宮城幼稚園",
        "address": "前橋市鼻毛石町1503-1",
        "lat": 36.439778,
        "lng": 139.178393
    },
    {
        "code": "A110310000017",
        "type": 16011,
        "name": "群馬医療福祉大学附属鈴蘭幼稚園",
        "address": "前橋市元総社町152",
        "lat": 36.382472,
        "lng": 139.047735
    },
    {
        "code": "A110310000026",
        "type": 16011,
        "name": "明星幼稚園",
        "address": "前橋市南町1-21-28",
        "lat": 36.380197,
        "lng": 139.06472
    },
    {
        "code": "A110310000035",
        "type": 16011,
        "name": "しょうび第一幼稚園",
        "address": "前橋市城東町1-2-7",
        "lat": 36.394325,
        "lng": 139.07279
    },
    {
        "code": "A110310000044",
        "type": 16011,
        "name": "江木幼稚園",
        "address": "前橋市堤町537-11",
        "lat": 36.402442,
        "lng": 139.131305
    },
    {
        "code": "A110310000053",
        "type": 16011,
        "name": "朝日が丘幼稚園",
        "address": "前橋市朝日が丘町5-1",
        "lat": 36.369539,
        "lng": 139.062759
    },
    {
        "code": "A110310000222",
        "type": 16011,
        "name": "ひろせ幼稚園",
        "address": "前橋市広瀬町3-32-1",
        "lat": 36.358351,
        "lng": 139.114079
    },
    {
        "code": "A110310000268",
        "type": 16011,
        "name": "たから幼稚園",
        "address": "前橋市田口町545-1",
        "lat": 36.446442,
        "lng": 139.051068
    },
    {
        "code": "A110310000348",
        "type": 16011,
        "name": "富士見幼稚園",
        "address": "前橋市富士見町時沢2120-8",
        "lat": 36.435532,
        "lng": 139.084977
    },
    {
        "code": "A110310000357",
        "type": 16011,
        "name": "粕川幼稚園",
        "address": "前橋市粕川町女渕446-4",
        "lat": 36.409465,
        "lng": 139.205063
    },
    {
        "code": "A210310000016",
        "type": 16013,
        "name": "いずみ幼稚園",
        "address": "前橋市女屋町1094-5",
        "lat": 36.377059,
        "lng": 139.132256
    },
    {
        "code": "A210310000025",
        "type": 16013,
        "name": "第二あさひ幼稚園",
        "address": "前橋市三俣町2-10-3",
        "lat": 36.398222,
        "lng": 139.087755
    },
    {
        "code": "A210310000034",
        "type": 16013,
        "name": "慈照幼稚園",
        "address": "前橋市二之宮町1812-7",
        "lat": 36.362783,
        "lng": 139.166682
    },
    {
        "code": "A210310000043",
        "type": 16013,
        "name": "元総社幼稚園",
        "address": "前橋市元総社町1372-1",
        "lat": 36.389961,
        "lng": 139.030878
    },
    {
        "code": "A210310000052",
        "type": 16013,
        "name": "清心幼稚園",
        "address": "前橋市大手町3-1-21",
        "lat": 36.393183,
        "lng": 139.062655
    },
    {
        "code": "A210310000061",
        "type": 16013,
        "name": "あおぞら総社",
        "address": "前橋市総社町植野511-1",
        "lat": 36.415185,
        "lng": 139.034029
    },
    {
        "code": "A210310000070",
        "type": 16013,
        "name": "あおぞら北",
        "address": "前橋市関根町3-6-1",
        "lat": 36.433369,
        "lng": 139.043164
    },
    {
        "code": "A210310000089",
        "type": 16013,
        "name": "二之宮保育園",
        "address": "前橋市二之宮町1810-1",
        "lat": 36.362069,
        "lng": 139.166485
    },
    {
        "code": "A210310000098",
        "type": 16013,
        "name": "もものき",
        "address": "前橋市上沖町731-4",
        "lat": 36.403877,
        "lng": 139.09183
    },
    {
        "code": "A210310000105",
        "type": 16013,
        "name": "赤城育心こども園",
        "address": "前橋市市之関町401",
        "lat": 36.453127,
        "lng": 139.148433
    },
    {
        "code": "A210310000114",
        "type": 16013,
        "name": "ろっくひよこプリスクール",
        "address": "前橋市六供町1-24-1",
        "lat": 36.37412,
        "lng": 139.074852
    },
    {
        "code": "A210310000123",
        "type": 16013,
        "name": "おりーぶの森",
        "address": "前橋市朝倉町138",
        "lat": 36.366765,
        "lng": 139.092159
    },
    {
        "code": "A210310000132",
        "type": 16013,
        "name": "たちばな",
        "address": "前橋市下大島町1055-93",
        "lat": 36.358667,
        "lng": 139.126384
    },
    {
        "code": "A210310000141",
        "type": 16013,
        "name": "駒形こども園",
        "address": "前橋市駒形町410-3",
        "lat": 36.341337,
        "lng": 139.137686
    },
    {
        "code": "A210310000150",
        "type": 16013,
        "name": "大胡第２こども園",
        "address": "前橋市堀越町1390-3",
        "lat": 36.423507,
        "lng": 139.155507
    },
    {
        "code": "A210310000169",
        "type": 16013,
        "name": "ぽらりすこども園",
        "address": "前橋市富士見町原之郷1268",
        "lat": 36.440988,
        "lng": 139.072633
    },
    {
        "code": "A210310000178",
        "type": 16013,
        "name": "共愛学園こども園",
        "address": "前橋市小屋原町1125-1",
        "lat": 36.359289,
        "lng": 139.142867
    },
    {
        "code": "A210310000187",
        "type": 16013,
        "name": "あさひ幼稚園",
        "address": "前橋市東片貝町1061-1",
        "lat": 36.385459,
        "lng": 139.110255
    },
    {
        "code": "A210310000196",
        "type": 16013,
        "name": "静和幼稚園",
        "address": "前橋市文京町1-29-18",
        "lat": 36.381095,
        "lng": 139.076695
    },
    {
        "code": "A210310000203",
        "type": 16013,
        "name": "相愛館",
        "address": "前橋市日吉町2-27-28",
        "lat": 36.396517,
        "lng": 139.081195
    },
    {
        "code": "A210310000212",
        "type": 16013,
        "name": "祝昌第二保育園",
        "address": "前橋市公田町556-1",
        "lat": 36.344818,
        "lng": 139.08075
    },
    {
        "code": "A210310000221",
        "type": 16013,
        "name": "ひまわりこども園",
        "address": "前橋市粕川町女渕1058-1",
        "lat": 36.40357,
        "lng": 139.207771
    },
    {
        "code": "A210310000230",
        "type": 16013,
        "name": "大利根育英幼稚園",
        "address": "前橋市川曲町529-1",
        "lat": 36.351975,
        "lng": 139.051613
    },
    {
        "code": "A210310000249",
        "type": 16013,
        "name": "明和幼稚園",
        "address": "前橋市勝沢町282",
        "lat": 36.425404,
        "lng": 139.093026
    },
    {
        "code": "A210310000258",
        "type": 16013,
        "name": "こまがた幼稚園",
        "address": "前橋市駒形町807-1",
        "lat": 36.342954,
        "lng": 139.138946
    },
    {
        "code": "A210310000267",
        "type": 16013,
        "name": "二子山幼稚園",
        "address": "前橋市朝倉町1-3-7",
        "lat": 36.374528,
        "lng": 139.092059
    },
    {
        "code": "A210310000276",
        "type": 16013,
        "name": "ふたばこども園",
        "address": "前橋市五代町1301-3",
        "lat": 36.417779,
        "lng": 139.11924
    },
    {
        "code": "A210310000285",
        "type": 16013,
        "name": "上陽保育園",
        "address": "前橋市西善町598-2",
        "lat": 36.345499,
        "lng": 139.118588
    },
    {
        "code": "A210310000294",
        "type": 16013,
        "name": "山王幼稚園",
        "address": "前橋市山王町2-9-5",
        "lat": 36.35258,
        "lng": 139.126668
    },
    {
        "code": "A210310000301",
        "type": 16013,
        "name": "しょうび第二幼稚園",
        "address": "前橋市新堀町1040",
        "lat": 36.329533,
        "lng": 139.091474
    },
    {
        "code": "A210310000310",
        "type": 16013,
        "name": "いしい幼稚園",
        "address": "前橋市富士見町石井896-1",
        "lat": 36.461908,
        "lng": 139.087692
    },
    {
        "code": "A210310000329",
        "type": 16013,
        "name": "まえばしこども園",
        "address": "前橋市平和町1-2-7",
        "lat": 36.396675,
        "lng": 139.063594
    },
    {
        "code": "A210310000338",
        "type": 16013,
        "name": "わかくさ幼稚園",
        "address": "前橋市嶺町1365-5",
        "lat": 36.451046,
        "lng": 139.117584
    },
    {
        "code": "A210310000347",
        "type": 16013,
        "name": "木の実幼稚園",
        "address": "前橋市粕川町室沢267-1",
        "lat": 36.4505,
        "lng": 139.20457
    },
    {
        "code": "A210310000356",
        "type": 16013,
        "name": "清華幼稚園",
        "address": "前橋市東大室町929-1",
        "lat": 36.376416,
        "lng": 139.197653
    },
    {
        "code": "A210310000365",
        "type": 16013,
        "name": "敷島幼稚園",
        "address": "前橋市川原町2-24-1",
        "lat": 36.428875,
        "lng": 139.039815
    },
    {
        "code": "A210310000374",
        "type": 16013,
        "name": "ポケット幼稚園",
        "address": "前橋市富士見町時沢2120-8",
        "lat": 36.435544,
        "lng": 139.084946
    },
    {
        "code": "A210310001809",
        "type": 16013,
        "name": "桃瀬幼稚園",
        "address": "前橋市西片貝町4-16-2",
        "lat": 36.386354,
        "lng": 139.09551
    },
    {
        "code": "A210310001818",
        "type": 16013,
        "name": "元景幼稚園",
        "address": "前橋市総社町植野150",
        "lat": 36.414811,
        "lng": 139.040202
    },
    {
        "code": "A210310001827",
        "type": 16013,
        "name": "大胡第３こども園",
        "address": "前橋市樋越町701-2",
        "lat": 36.408454,
        "lng": 139.174796
    },
    {
        "code": "B110110000019",
        "type": 16001,
        "name": "群馬大学共同教育学部附属小学校",
        "address": "前橋市若宮町2-8-1",
        "lat": 36.401226,
        "lng": 139.07459
    },
    {
        "code": "B110210000017",
        "type": 16001,
        "name": "桃井小学校",
        "address": "前橋市大手町2-16-4",
        "lat": 36.388776,
        "lng": 139.064447
    },
    {
        "code": "B110210000026",
        "type": 16001,
        "name": "中川小学校",
        "address": "前橋市三河町2-1-3",
        "lat": 36.386499,
        "lng": 139.078696
    },
    {
        "code": "B110210000035",
        "type": 16001,
        "name": "敷島小学校",
        "address": "前橋市昭和町1-22-8",
        "lat": 36.402829,
        "lng": 139.065696
    },
    {
        "code": "B110210000044",
        "type": 16001,
        "name": "城南小学校",
        "address": "前橋市六供町1-13-2",
        "lat": 36.375611,
        "lng": 139.074308
    },
    {
        "code": "B110210000053",
        "type": 16001,
        "name": "城東小学校",
        "address": "前橋市城東町1-35-7",
        "lat": 36.39463,
        "lng": 139.079863
    },
    {
        "code": "B110210000062",
        "type": 16001,
        "name": "若宮小学校",
        "address": "前橋市若宮町4-12-24",
        "lat": 36.405524,
        "lng": 139.070946
    },
    {
        "code": "B110210000071",
        "type": 16001,
        "name": "天川小学校",
        "address": "前橋市文京町3-18-4",
        "lat": 36.378694,
        "lng": 139.085445
    },
    {
        "code": "B110210000080",
        "type": 16001,
        "name": "岩神小学校",
        "address": "前橋市岩神町4-4-1",
        "lat": 36.407356,
        "lng": 139.056336
    },
    {
        "code": "B110210000099",
        "type": 16001,
        "name": "上川淵小学校",
        "address": "前橋市朝倉町466",
        "lat": 36.358252,
        "lng": 139.090307
    },
    {
        "code": "B110210000106",
        "type": 16001,
        "name": "下川淵小学校",
        "address": "前橋市鶴光路町38-1",
        "lat": 36.335949,
        "lng": 139.094556
    },
    {
        "code": "B110210000115",
        "type": 16001,
        "name": "桂萱小学校",
        "address": "前橋市上泉町178",
        "lat": 36.396137,
        "lng": 139.104776
    },
    {
        "code": "B110210000124",
        "type": 16001,
        "name": "桂萱東小学校",
        "address": "前橋市堤町471",
        "lat": 36.39761,
        "lng": 139.1298
    },
    {
        "code": "B110210000133",
        "type": 16001,
        "name": "芳賀小学校",
        "address": "前橋市勝沢町719",
        "lat": 36.423105,
        "lng": 139.104942
    },
    {
        "code": "B110210000142",
        "type": 16001,
        "name": "総社小学校",
        "address": "前橋市総社町総社1625",
        "lat": 36.409089,
        "lng": 139.037932
    },
    {
        "code": "B110210000151",
        "type": 16001,
        "name": "元総社小学校",
        "address": "前橋市元総社町1-33-11",
        "lat": 36.386382,
        "lng": 139.038925
    },
    {
        "code": "B110210000160",
        "type": 16001,
        "name": "東小学校",
        "address": "前橋市箱田町1452-1",
        "lat": 36.365293,
        "lng": 139.052474
    },
    {
        "code": "B110210000179",
        "type": 16001,
        "name": "細井小学校",
        "address": "前橋市下細井町67-1",
        "lat": 36.415605,
        "lng": 139.075889
    },
    {
        "code": "B110210000188",
        "type": 16001,
        "name": "桃川小学校",
        "address": "前橋市荒牧町1-46-11",
        "lat": 36.430564,
        "lng": 139.055019
    },
    {
        "code": "B110210000197",
        "type": 16001,
        "name": "清里小学校",
        "address": "前橋市青梨子町446",
        "lat": 36.417048,
        "lng": 139.012617
    },
    {
        "code": "B110210000204",
        "type": 16001,
        "name": "永明小学校",
        "address": "前橋市上大島町655",
        "lat": 36.368807,
        "lng": 139.122301
    },
    {
        "code": "B110210000213",
        "type": 16001,
        "name": "駒形小学校",
        "address": "前橋市駒形町1172",
        "lat": 36.347255,
        "lng": 139.136217
    },
    {
        "code": "B110210000222",
        "type": 16001,
        "name": "荒子小学校",
        "address": "前橋市荒子町1240",
        "lat": 36.388111,
        "lng": 139.1646
    },
    {
        "code": "B110210000231",
        "type": 16001,
        "name": "大室小学校",
        "address": "前橋市西大室町2817",
        "lat": 36.384084,
        "lng": 139.191904
    },
    {
        "code": "B110210000240",
        "type": 16001,
        "name": "二之宮小学校",
        "address": "前橋市二之宮町1841",
        "lat": 36.362447,
        "lng": 139.168101
    },
    {
        "code": "B110210000259",
        "type": 16001,
        "name": "笂井小学校",
        "address": "前橋市笂井町1160",
        "lat": 36.361031,
        "lng": 139.139077
    },
    {
        "code": "B110210000268",
        "type": 16001,
        "name": "広瀬小学校",
        "address": "前橋市広瀬町3-19",
        "lat": 36.357086,
        "lng": 139.113997
    },
    {
        "code": "B110210000277",
        "type": 16001,
        "name": "大利根小学校",
        "address": "前橋市大利根町2-12-1",
        "lat": 36.360141,
        "lng": 139.059337
    },
    {
        "code": "B110210000286",
        "type": 16001,
        "name": "桃瀬小学校",
        "address": "前橋市西片貝町3-343",
        "lat": 36.386221,
        "lng": 139.100971
    },
    {
        "code": "B110210000295",
        "type": 16001,
        "name": "荒牧小学校",
        "address": "前橋市荒牧町4-9-2",
        "lat": 36.42802,
        "lng": 139.04828
    },
    {
        "code": "B110210000302",
        "type": 16001,
        "name": "勝山小学校",
        "address": "前橋市総社町植野123",
        "lat": 36.414244,
        "lng": 139.041476
    },
    {
        "code": "B110210000311",
        "type": 16001,
        "name": "元総社南小学校",
        "address": "前橋市元総社町80-2",
        "lat": 36.382581,
        "lng": 139.04306
    },
    {
        "code": "B110210000320",
        "type": 16001,
        "name": "桃木小学校",
        "address": "前橋市上沖町732-1",
        "lat": 36.403302,
        "lng": 139.090694
    },
    {
        "code": "B110210000339",
        "type": 16001,
        "name": "山王小学校",
        "address": "前橋市山王町160-1",
        "lat": 36.349088,
        "lng": 139.124579
    },
    {
        "code": "B110210000348",
        "type": 16001,
        "name": "新田小学校",
        "address": "前橋市上新田町1160",
        "lat": 36.362085,
        "lng": 139.067448
    },
    {
        "code": "B110210000357",
        "type": 16001,
        "name": "元総社北小学校",
        "address": "前橋市総社町総社3149",
        "lat": 36.394975,
        "lng": 139.033871
    },
    {
        "code": "B110210001677",
        "type": 16001,
        "name": "原小学校",
        "address": "前橋市富士見町原ﾉ郷1933-1",
        "lat": 36.446512,
        "lng": 139.066559
    },
    {
        "code": "B110210001686",
        "type": 16001,
        "name": "石井小学校",
        "address": "前橋市富士見町石井546-1",
        "lat": 36.467803,
        "lng": 139.083457
    },
    {
        "code": "B110210001695",
        "type": 16001,
        "name": "時沢小学校",
        "address": "前橋市富士見町時沢3164-1",
        "lat": 36.4405,
        "lng": 139.093327
    },
    {
        "code": "B110210001702",
        "type": 16001,
        "name": "白川小学校",
        "address": "前橋市富士見町小暮2425-63",
        "lat": 36.468443,
        "lng": 139.108506
    },
    {
        "code": "B110210001711",
        "type": 16001,
        "name": "大胡小学校",
        "address": "前橋市堀越町1161",
        "lat": 36.417806,
        "lng": 139.156513
    },
    {
        "code": "B110210001720",
        "type": 16001,
        "name": "滝窪小学校",
        "address": "前橋市滝窪町185-1",
        "lat": 36.43525,
        "lng": 139.138205
    },
    {
        "code": "B110210001739",
        "type": 16001,
        "name": "滝窪小学校金丸分校",
        "address": "前橋市東金丸町136-1",
        "lat": 36.465715,
        "lng": 139.133713
    },
    {
        "code": "B110210001748",
        "type": 16001,
        "name": "大胡東小学校",
        "address": "前橋市河原浜町870-1",
        "lat": 36.419498,
        "lng": 139.165496
    },
    {
        "code": "B110210001757",
        "type": 16001,
        "name": "宮城小学校",
        "address": "前橋市鼻毛石町1507-1",
        "lat": 36.438897,
        "lng": 139.178727
    },
    {
        "code": "B110210001766",
        "type": 16001,
        "name": "粕川小学校",
        "address": "前橋市粕川町女渕521-2",
        "lat": 36.411037,
        "lng": 139.209632
    },
    {
        "code": "B110210001775",
        "type": 16001,
        "name": "月田小学校",
        "address": "前橋市粕川町月田273",
        "lat": 36.432823,
        "lng": 139.211292
    },
    {
        "code": "B110210001784",
        "type": 16001,
        "name": "わかば小学校",
        "address": "前橋市朝倉町165-1",
        "lat": 36.366822,
        "lng": 139.096195
    },
    {
        "code": "B110210003050",
        "type": 16001,
        "name": "荒牧小学校みやま分校",
        "address": "前橋市川原町826",
        "lat": 36.432818,
        "lng": 139.039045
    },
    {
        "code": "B110310000033",
        "type": 16001,
        "name": "共愛学園小学校",
        "address": "前橋市小屋原町1097-2",
        "lat": 36.354295,
        "lng": 139.142272
    },
    {
        "code": "C110110000017",
        "type": 16002,
        "name": "群馬大学共同教育学部附属中学校",
        "address": "前橋市上沖町612",
        "lat": 36.408551,
        "lng": 139.087611
    },
    {
        "code": "C110210000015",
        "type": 16002,
        "name": "第一中学校",
        "address": "前橋市南町1-20-5",
        "lat": 36.380777,
        "lng": 139.065558
    },
    {
        "code": "C110210000024",
        "type": 16002,
        "name": "第三中学校",
        "address": "前橋市平和町2-13-24",
        "lat": 36.400302,
        "lng": 139.062169
    },
    {
        "code": "C110210000033",
        "type": 16002,
        "name": "第五中学校",
        "address": "前橋市文京町3-20-5",
        "lat": 36.379305,
        "lng": 139.088306
    },
    {
        "code": "C110210000042",
        "type": 16002,
        "name": "第六中学校",
        "address": "前橋市総社町総社1762-1",
        "lat": 36.409891,
        "lng": 139.035042
    },
    {
        "code": "C110210000051",
        "type": 16002,
        "name": "第七中学校",
        "address": "前橋市宮地町260-1",
        "lat": 36.340406,
        "lng": 139.104022
    },
    {
        "code": "C110210000060",
        "type": 16002,
        "name": "桂萱中学校",
        "address": "前橋市上泉町175",
        "lat": 36.396192,
        "lng": 139.103609
    },
    {
        "code": "C110210000079",
        "type": 16002,
        "name": "芳賀中学校",
        "address": "前橋市鳥取町796",
        "lat": 36.425438,
        "lng": 139.110024
    },
    {
        "code": "C110210000088",
        "type": 16002,
        "name": "元総社中学校",
        "address": "前橋市総社町総社3060",
        "lat": 36.394802,
        "lng": 139.035227
    },
    {
        "code": "C110210000097",
        "type": 16002,
        "name": "東中学校",
        "address": "前橋市光が丘町3",
        "lat": 36.372111,
        "lng": 139.05592
    },
    {
        "code": "C110210000104",
        "type": 16002,
        "name": "南橘中学校",
        "address": "前橋市荒牧町975",
        "lat": 36.424298,
        "lng": 139.060529
    },
    {
        "code": "C110210000113",
        "type": 16002,
        "name": "木瀬中学校",
        "address": "前橋市小屋原町1811-1",
        "lat": 36.36269,
        "lng": 139.129174
    },
    {
        "code": "C110210000122",
        "type": 16002,
        "name": "荒砥中学校",
        "address": "前橋市荒子町1338",
        "lat": 36.381139,
        "lng": 139.164823
    },
    {
        "code": "C110210000159",
        "type": 16002,
        "name": "鎌倉中学校",
        "address": "前橋市上細井町2130",
        "lat": 36.415134,
        "lng": 139.083472
    },
    {
        "code": "C110210000168",
        "type": 16002,
        "name": "箱田中学校",
        "address": "前橋市前箱田町396-1",
        "lat": 36.360866,
        "lng": 139.047787
    },
    {
        "code": "C110210000177",
        "type": 16002,
        "name": "南橘中学校みやま分校",
        "address": "前橋市川原町826",
        "lat": 36.432948,
        "lng": 139.038605
    },
    {
        "code": "C110210000186",
        "type": 16002,
        "name": "みずき中学校",
        "address": "前橋市日吉町3-9-2",
        "lat": 36.400599,
        "lng": 139.076295
    },
    {
        "code": "C110210000907",
        "type": 16002,
        "name": "富士見中学校",
        "address": "前橋市富士見町田島954-1",
        "lat": 36.456158,
        "lng": 139.081759
    },
    {
        "code": "C110210000916",
        "type": 16002,
        "name": "大胡中学校",
        "address": "前橋市堀越町1152",
        "lat": 36.41863,
        "lng": 139.156659
    },
    {
        "code": "C110210000925",
        "type": 16002,
        "name": "宮城中学校",
        "address": "前橋市鼻毛石町1564-1",
        "lat": 36.442369,
        "lng": 139.177213
    },
    {
        "code": "C110210000934",
        "type": 16002,
        "name": "粕川中学校",
        "address": "前橋市粕川町西田面138",
        "lat": 36.410907,
        "lng": 139.214124
    },
    {
        "code": "C110210001620",
        "type": 16002,
        "name": "明桜中学校",
        "address": "前橋市後閑町50-4",
        "lat": 36.36274,
        "lng": 139.098948
    },
    {
        "code": "C110310000013",
        "type": 16002,
        "name": "共愛学園中学校",
        "address": "前橋市小屋原町1115-3",
        "lat": 36.359262,
        "lng": 139.141672
    },
    {
        "code": "D110210000013",
        "type": 16004,
        "name": "前橋高等学校",
        "address": "前橋市下沖町321-1",
        "lat": 36.397164,
        "lng": 139.096138
    },
    {
        "code": "D110210000193",
        "type": 16004,
        "name": "前橋清陵高等学校",
        "address": "前橋市文京町2-20-3",
        "lat": 36.376778,
        "lng": 139.082418
    },
    {
        "code": "D110210000219",
        "type": 16004,
        "name": "前橋女子高等学校",
        "address": "前橋市紅雲町2-19-1",
        "lat": 36.384249,
        "lng": 139.065058
    },
    {
        "code": "D110210000291",
        "type": 16004,
        "name": "前橋南高等学校",
        "address": "前橋市亀里町1",
        "lat": 36.351225,
        "lng": 139.083391
    },
    {
        "code": "D110210000335",
        "type": 16004,
        "name": "前橋東高等学校",
        "address": "前橋市江木町800",
        "lat": 36.376612,
        "lng": 139.137299
    },
    {
        "code": "D110210000353",
        "type": 16004,
        "name": "前橋西高等学校",
        "address": "前橋市清野町180",
        "lat": 36.418909,
        "lng": 139.007951
    },
    {
        "code": "D110210000424",
        "type": 16004,
        "name": "勢多農林高等学校",
        "address": "前橋市日吉町2-25-1",
        "lat": 36.394933,
        "lng": 139.081767
    },
    {
        "code": "D110210000497",
        "type": 16004,
        "name": "前橋工業高等学校",
        "address": "前橋市石関町137-1",
        "lat": 36.388815,
        "lng": 139.117895
    },
    {
        "code": "D110210000558",
        "type": 16004,
        "name": "前橋商業高等学校",
        "address": "前橋市南町4-35-1",
        "lat": 36.376972,
        "lng": 139.073808
    },
    {
        "code": "D110210000610",
        "type": 16004,
        "name": "前橋市立前橋高等学校",
        "address": "前橋市上細井町2211-3",
        "lat": 36.416284,
        "lng": 139.083915
    },
    {
        "code": "D110310000011",
        "type": 16004,
        "name": "共愛学園高等学校",
        "address": "前橋市小屋原町1115-3",
        "lat": 36.35917,
        "lng": 139.140716
    },
    {
        "code": "D110310000020",
        "type": 16004,
        "name": "前橋育英高等学校",
        "address": "前橋市朝日が丘町13",
        "lat": 36.36914,
        "lng": 139.064503
    },
    {
        "code": "E110110000012",
        "type": 16012,
        "name": "群馬大学共同教育学部附属特別支援学校",
        "address": "前橋市若宮町2-8-1",
        "lat": 36.400787,
        "lng": 139.075412
    },
    {
        "code": "E110210000010",
        "type": 16012,
        "name": "群馬県立盲学校",
        "address": "前橋市南町4-5-1",
        "lat": 36.377405,
        "lng": 139.068933
    },
    {
        "code": "E110210000029",
        "type": 16012,
        "name": "群馬県立聾学校",
        "address": "前橋市天川原町1-4",
        "lat": 36.374361,
        "lng": 139.07864
    },
    {
        "code": "E110210000074",
        "type": 16012,
        "name": "前橋特別支援学校",
        "address": "前橋市東上野町459-1",
        "lat": 36.387221,
        "lng": 139.116413
    },
    {
        "code": "E110210000145",
        "type": 16012,
        "name": "前橋高等特別支援学校",
        "address": "前橋市青梨子町233-1",
        "lat": 36.413605,
        "lng": 139.01995
    },
    {
        "code": "E110210000163",
        "type": 16012,
        "name": "赤城特別支援学校",
        "address": "前橋市上小出町1-5-15",
        "lat": 36.409204,
        "lng": 139.060164
    },
    {
        "code": "E110210000172",
        "type": 16012,
        "name": "しろがね特別支援学校",
        "address": "前橋市東大室町177-1",
        "lat": 36.366057,
        "lng": 139.189016
    },
    {
        "code": "E110310000018",
        "type": 16012,
        "name": "支援学校若葉高等学園",
        "address": "前橋市苗ヶ島町2258-4",
        "lat": 36.480775,
        "lng": 139.191909
    },
    {
        "code": "F110110101713",
        "type": 16007,
        "name": "群馬大学",
        "address": "前橋市荒牧町4-2",
        "lat": 36.430686,
        "lng": 139.043864
    },
    {
        "code": "F110210101739",
        "type": 16007,
        "name": "前橋工科大学",
        "address": "前橋市上佐鳥町460-1",
        "lat": 36.364338,
        "lng": 139.081524
    },
    {
        "code": "F110210101757",
        "type": 16007,
        "name": "県民健康科学大学",
        "address": "前橋市上沖町323-1",
        "lat": 36.403656,
        "lng": 139.0949
    },
    {
        "code": "F110310101791",
        "type": 16007,
        "name": "群馬医療福祉大学",
        "address": "前橋市川曲町191-1",
        "lat": 36.355832,
        "lng": 139.047543
    },
    {
        "code": "F110310101844",
        "type": 16007,
        "name": "共愛学園前橋国際大学",
        "address": "前橋市小屋原町1154-4",
        "lat": 36.359149,
        "lng": 139.144443
    },
    {
        "code": "F210310101861",
        "type": 16006,
        "name": "群馬医療福祉大学短期大学部",
        "address": "前橋市川曲町191-1",
        "lat": 36.356058,
        "lng": 139.047505
    },
    {
        "code": "F210310101914",
        "type": 16006,
        "name": "前橋国際大学短期大学部",
        "address": "前橋市昭和町3-7-27",
        "lat": 36.405707,
        "lng": 139.062948
    },
    {
        "code": "G110110101935",
        "type": 16005,
        "name": "群馬工業高等専門学校",
        "address": "前橋市鳥羽町580",
        "lat": 36.377443,
        "lng": 139.024145
    },
    {
        "code": "H110310000012",
        "type": 16016,
        "name": "白ゆりファッション専門学校",
        "address": "前橋市千代田町1-9-9",
        "lat": 36.393846,
        "lng": 139.067132
    },
    {
        "code": "H110310000049",
        "type": 16016,
        "name": "前橋文化服装専門学校",
        "address": "前橋市南町3-61-4",
        "lat": 36.379741,
        "lng": 139.069894
    },
    {
        "code": "H110310000058",
        "type": 16016,
        "name": "群馬調理師専門学校",
        "address": "前橋市小屋原町1145-1",
        "lat": 36.3574,
        "lng": 139.143912
    },
    {
        "code": "H110310000067",
        "type": 16016,
        "name": "群馬県高等歯科衛生士学院",
        "address": "前橋市大友町1-5-16",
        "lat": 36.386976,
        "lng": 139.046036
    },
    {
        "code": "H110310000076",
        "type": 16016,
        "name": "群馬法科ビジネス専門学校",
        "address": "前橋市古市町1-48-1",
        "lat": 36.376686,
        "lng": 139.048849
    },
    {
        "code": "H110310000085",
        "type": 16016,
        "name": "群馬県理容専門学校",
        "address": "前橋市南町3-61-5",
        "lat": 36.379397,
        "lng": 139.070105
    },
    {
        "code": "H110310000094",
        "type": 16016,
        "name": "群馬県美容専門学校",
        "address": "前橋市石関町136-1",
        "lat": 36.387443,
        "lng": 139.119216
    },
    {
        "code": "H110310000101",
        "type": 16016,
        "name": "東日本ブライダル・ホテル・トラベル専門学校",
        "address": "前橋市小屋原町1098-1",
        "lat": 36.354841,
        "lng": 139.142545
    },
    {
        "code": "H110310000110",
        "type": 16016,
        "name": "東日本デザイン＆コンピュータ専門学校",
        "address": "前橋市小屋原町1098-1",
        "lat": 36.354699,
        "lng": 139.142548
    },
    {
        "code": "H110310000129",
        "type": 16016,
        "name": "中央スポーツ医療専門学校",
        "address": "前橋市新前橋町21-16",
        "lat": 36.379754,
        "lng": 139.048568
    },
    {
        "code": "H110310000138",
        "type": 16016,
        "name": "中央情報経理専門学校",
        "address": "前橋市古市町1-49-4",
        "lat": 36.376791,
        "lng": 139.049213
    },
    {
        "code": "H110310000147",
        "type": 16016,
        "name": "群馬社会福祉専門学校",
        "address": "前橋市元総社町152",
        "lat": 36.382064,
        "lng": 139.04748
    },
    {
        "code": "H110310000156",
        "type": 16016,
        "name": "群馬日建工科専門学校",
        "address": "前橋市南町3-3-9",
        "lat": 36.38256,
        "lng": 139.068605
    },
    {
        "code": "H110310000165",
        "type": 16016,
        "name": "群ゼミＡＬＥＸ外語専門学校",
        "address": "前橋市南町3-3-9",
        "lat": 36.382523,
        "lng": 139.068589
    },
    {
        "code": "H110310000236",
        "type": 16016,
        "name": "前橋医療福祉専門学校",
        "address": "前橋市石関町122-6",
        "lat": 36.386533,
        "lng": 139.118279
    },
    {
        "code": "H110310000254",
        "type": 16016,
        "name": "東日本製菓技術専門学校",
        "address": "前橋市小屋原町1145-1",
        "lat": 36.357533,
        "lng": 139.143906
    },
    {
        "code": "H110310000414",
        "type": 16016,
        "name": "前橋東看護学校",
        "address": "前橋市江木町1241-5",
        "lat": 36.40705,
        "lng": 139.134983
    },
    {
        "code": "H110310000423",
        "type": 16016,
        "name": "フェリカ建築＆デザイン専門学校",
        "address": "前橋市南町2-38-2",
        "lat": 36.377047,
        "lng": 139.066803
    },
    {
        "code": "H110310000432",
        "type": 16016,
        "name": "中央工科デザイン専門学校",
        "address": "前橋市古市町1-48-1",
        "lat": 36.376538,
        "lng": 139.048635
    },
    {
        "code": "H110310000441",
        "type": 16016,
        "name": "東日本栄養医薬専門学校",
        "address": "前橋市小屋原町1098-1",
        "lat": 36.354959,
        "lng": 139.142531
    },
    {
        "code": "H110310000469",
        "type": 16016,
        "name": "中央動物看護専門学校",
        "address": "前橋市古市町1-43-27",
        "lat": 36.376479,
        "lng": 139.050494
    },
    {
        "code": "H110310000487",
        "type": 16016,
        "name": "育英メディカル専門学校",
        "address": "前橋市古市町1-35-6",
        "lat": 36.377127,
        "lng": 139.049649
    },
    {
        "code": "H110310000496",
        "type": 16016,
        "name": "群馬動物専門学校",
        "address": "前橋市元総社町108",
        "lat": 36.383556,
        "lng": 139.043663
    },
    {
        "code": "H110310000539",
        "type": 16016,
        "name": "ウェディング・ホテル＆ツーリズム専門学校",
        "address": "前橋市石関町136-1",
        "lat": 36.387121,
        "lng": 139.11922
    },
    {
        "code": "H110310000548",
        "type": 16016,
        "name": "中央農業大学校",
        "address": "前橋市南町2-31-1",
        "lat": 36.37638,
        "lng": 139.063703
    },
    {
        "code": "H110310000575",
        "type": 16016,
        "name": "ＮＩＰＰＯＮおもてなし専門学校",
        "address": "前橋市大手町1-11-4",
        "lat": 36.389294,
        "lng": 139.059622
    },
    {
        "code": "H110310000584",
        "type": 16016,
        "name": "中央高等専修学校前橋校",
        "address": "前橋市下石倉町31-20",
        "lat": 36.37868,
        "lng": 139.05577
    },
    {
        "code": "H110310000600",
        "type": 16016,
        "name": "前橋高等看護学院",
        "address": "前橋市岩神町2-3-5",
        "lat": 36.400859,
        "lng": 139.059725
    },
    {
        "code": "H110310000628",
        "type": 16016,
        "name": "アーツサウンドビジュアル専門学校",
        "address": "前橋市石関町136-1",
        "lat": 36.387232,
        "lng": 139.119204
    },
    {
        "code": "H110310000637",
        "type": 16016,
        "name": "国際産業技術専門学校",
        "address": "前橋市千代田町3-5-13",
        "lat": 36.393687,
        "lng": 139.070677
    },
    {
        "code": "H110310000664",
        "type": 16016,
        "name": "NIPPONアントレプレナー専門学校",
        "address": "前橋市大手町2-5-10",
        "lat": 36.391094,
        "lng": 139.065163
    },
    {
        "code": "H210310000011",
        "type": 16015,
        "name": "駒形珠算学校",
        "address": "前橋市駒形町816",
        "lat": 36.343355,
        "lng": 139.139267
    },
    {
        "code": "H210310000020",
        "type": 16015,
        "name": "前橋准看護学校",
        "address": "前橋市岩神町2-3-5",
        "lat": 36.400689,
        "lng": 139.059603
    },
    {
        "code": "H210310000039",
        "type": 16015,
        "name": "前橋ニュースタイル編物学院",
        "address": "前橋市本町1-13-2",
        "lat": 36.388803,
        "lng": 139.068043
    },
    {
        "code": "H210310000048",
        "type": 16015,
        "name": "ＮＩＰＰＯＮ文化学院",
        "address": "前橋市表町1-7-6",
        "lat": 36.387456,
        "lng": 139.069262
    },
    {
        "code": "H210310000057",
        "type": 16015,
        "name": "NIPPON語学院",
        "address": "前橋市大手町2-5-10",
        "lat": 36.391042,
        "lng": 139.065111
    },
    {
        "code": "H210310000066",
        "type": 16015,
        "name": "群馬朝鮮初中級学校",
        "address": "前橋市荒牧町2-2",
        "lat": 36.42186,
        "lng": 139.057685
    },
    {
        "code": "H210310000075",
        "type": 16015,
        "name": "ＮＩＰＰＯＮへいわ学院",
        "address": "前橋市表町1-7-6",
        "lat": 36.387423,
        "lng": 139.06935
    }
]