[
    {
        "code": "A110210000224",
        "type": 16011,
        "name": "北幼稚園",
        "address": "館林市台宿町9-1",
        "lat": 36.256135,
        "lng": 139.533092
    },
    {
        "code": "A110210000233",
        "type": 16011,
        "name": "南幼稚園",
        "address": "館林市本町3-6-1",
        "lat": 36.245173,
        "lng": 139.536027
    },
    {
        "code": "A110210000242",
        "type": 16011,
        "name": "東幼稚園",
        "address": "館林市大島町4364-1",
        "lat": 36.262328,
        "lng": 139.580923
    },
    {
        "code": "A110210000251",
        "type": 16011,
        "name": "杉並幼稚園",
        "address": "館林市新宿2-14-18",
        "lat": 36.237499,
        "lng": 139.526057
    },
    {
        "code": "A110210000260",
        "type": 16011,
        "name": "西幼稚園",
        "address": "館林市近藤町178-273",
        "lat": 36.415234,
        "lng": 139.333787
    },
    {
        "code": "A110310000160",
        "type": 16011,
        "name": "常楽幼稚園",
        "address": "館林市木戸町甲580",
        "lat": 36.277728,
        "lng": 139.51429
    },
    {
        "code": "A210310001266",
        "type": 16013,
        "name": "富士こども園",
        "address": "館林市富士見町5-1",
        "lat": 36.244975,
        "lng": 139.52448
    },
    {
        "code": "B110210001212",
        "type": 16001,
        "name": "第一小学校",
        "address": "館林市代官町9-1",
        "lat": 36.253105,
        "lng": 139.533821
    },
    {
        "code": "B110210001221",
        "type": 16001,
        "name": "第二小学校",
        "address": "館林市本町3-6-1",
        "lat": 36.245134,
        "lng": 139.536737
    },
    {
        "code": "B110210001230",
        "type": 16001,
        "name": "第三小学校",
        "address": "館林市尾曳町14-1",
        "lat": 36.247829,
        "lng": 139.54632
    },
    {
        "code": "B110210001249",
        "type": 16001,
        "name": "第四小学校",
        "address": "館林市大島町4355",
        "lat": 36.263133,
        "lng": 139.581039
    },
    {
        "code": "B110210001258",
        "type": 16001,
        "name": "第五小学校",
        "address": "館林市羽附町乙1565",
        "lat": 36.232498,
        "lng": 139.561347
    },
    {
        "code": "B110210001267",
        "type": 16001,
        "name": "第六小学校",
        "address": "館林市新宿2-15-1",
        "lat": 36.23746,
        "lng": 139.524786
    },
    {
        "code": "B110210001276",
        "type": 16001,
        "name": "第七小学校",
        "address": "館林市上三林町599",
        "lat": 36.218385,
        "lng": 139.487965
    },
    {
        "code": "B110210001285",
        "type": 16001,
        "name": "第八小学校",
        "address": "館林市西高根町45-1",
        "lat": 36.262742,
        "lng": 139.512128
    },
    {
        "code": "B110210001294",
        "type": 16001,
        "name": "第九小学校",
        "address": "館林市足次町172",
        "lat": 36.264103,
        "lng": 139.535793
    },
    {
        "code": "B110210001301",
        "type": 16001,
        "name": "第十小学校",
        "address": "館林市近藤町178-39",
        "lat": 36.241605,
        "lng": 139.507462
    },
    {
        "code": "B110210001310",
        "type": 16001,
        "name": "美園小学校",
        "address": "館林市美園町27-1",
        "lat": 36.231858,
        "lng": 139.531932
    },
    {
        "code": "C110210000676",
        "type": 16002,
        "name": "第一中学校",
        "address": "館林市台宿町9-1",
        "lat": 36.255716,
        "lng": 139.532904
    },
    {
        "code": "C110210000685",
        "type": 16002,
        "name": "第二中学校",
        "address": "館林市加法師町8-20",
        "lat": 36.250217,
        "lng": 139.550625
    },
    {
        "code": "C110210000694",
        "type": 16002,
        "name": "第四中学校",
        "address": "館林市上赤生田町3471-1",
        "lat": 36.227414,
        "lng": 139.543987
    },
    {
        "code": "C110210000701",
        "type": 16002,
        "name": "多々良中学校",
        "address": "館林市西高根町50-23",
        "lat": 36.260686,
        "lng": 139.509045
    },
    {
        "code": "C110210000710",
        "type": 16002,
        "name": "第三中学校",
        "address": "館林市青柳町1751-78",
        "lat": 36.224997,
        "lng": 139.514712
    },
    {
        "code": "D110210000077",
        "type": 16004,
        "name": "館林高等学校",
        "address": "館林市富士原町1241",
        "lat": 36.241828,
        "lng": 139.51335
    },
    {
        "code": "D110210000273",
        "type": 16004,
        "name": "館林女子高等学校",
        "address": "館林市尾曳町6-1",
        "lat": 36.245662,
        "lng": 139.544042
    },
    {
        "code": "D110310000084",
        "type": 16004,
        "name": "関東学園大学附属高等学校",
        "address": "館林市大谷町625",
        "lat": 36.244716,
        "lng": 139.499157
    },
    {
        "code": "E110210000225",
        "type": 16012,
        "name": "館林高等特別支援学校",
        "address": "館林市上三林町197",
        "lat": 36.218719,
        "lng": 139.485448
    },
    {
        "code": "E110210000243",
        "type": 16012,
        "name": "館林特別支援学校",
        "address": "館林市上三林町579-1",
        "lat": 36.218718,
        "lng": 139.485465
    },
    {
        "code": "F210310101898",
        "type": 16006,
        "name": "関東短期大学",
        "address": "館林市大谷町625",
        "lat": 36.245174,
        "lng": 139.498966
    },
    {
        "code": "H110210000023",
        "type": 16016,
        "name": "館林高等看護学院",
        "address": "館林市苗木町2497-1",
        "lat": 36.231632,
        "lng": 139.503182
    }
]