[
    {
        "code": "A110210000135",
        "type": 16011,
        "name": "第一幼稚園",
        "address": "伊勢崎市曲輪町24-26",
        "lat": 36.323627,
        "lng": 139.191753
    },
    {
        "code": "A110210000144",
        "type": 16011,
        "name": "南幼稚園",
        "address": "伊勢崎市上泉町116",
        "lat": 36.313735,
        "lng": 139.190104
    },
    {
        "code": "A110210000153",
        "type": 16011,
        "name": "殖蓮幼稚園",
        "address": "伊勢崎市上植木本町2740-2",
        "lat": 36.334341,
        "lng": 139.210595
    },
    {
        "code": "A110210000162",
        "type": 16011,
        "name": "茂呂幼稚園",
        "address": "伊勢崎市茂呂町2-2139-1",
        "lat": 36.304217,
        "lng": 139.209641
    },
    {
        "code": "A110210000171",
        "type": 16011,
        "name": "三郷幼稚園",
        "address": "伊勢崎市波志江町1067",
        "lat": 36.34382,
        "lng": 139.18302
    },
    {
        "code": "A110210000180",
        "type": 16011,
        "name": "宮郷幼稚園",
        "address": "伊勢崎市田中島町1486-8",
        "lat": 36.321867,
        "lng": 139.163375
    },
    {
        "code": "A110210000199",
        "type": 16011,
        "name": "名和幼稚園",
        "address": "伊勢崎市堀口町260",
        "lat": 36.291488,
        "lng": 139.185025
    },
    {
        "code": "A110210000563",
        "type": 16011,
        "name": "あかぼり幼稚園",
        "address": "伊勢崎市西久保町2-100",
        "lat": 36.380849,
        "lng": 139.231561
    },
    {
        "code": "A110210000572",
        "type": 16011,
        "name": "あずま幼稚園",
        "address": "伊勢崎市東町2672-1",
        "lat": 36.345353,
        "lng": 139.245999
    },
    {
        "code": "A110310000115",
        "type": 16011,
        "name": "すみよし幼稚園",
        "address": "伊勢崎市馬見塚町831-1",
        "lat": 36.281268,
        "lng": 139.214419
    },
    {
        "code": "A110310000302",
        "type": 16011,
        "name": "さくら幼稚園",
        "address": "伊勢崎市富塚町246-4",
        "lat": 36.275443,
        "lng": 139.194201
    },
    {
        "code": "A110310000311",
        "type": 16011,
        "name": "慈教幼稚園",
        "address": "伊勢崎市波志江町681",
        "lat": 36.34785,
        "lng": 139.183851
    },
    {
        "code": "A110310000419",
        "type": 16011,
        "name": "こひつじ幼稚園",
        "address": "伊勢崎市境百-221-1",
        "lat": 36.280618,
        "lng": 139.252633
    },
    {
        "code": "A110310000543",
        "type": 16011,
        "name": "田部井幼稚園",
        "address": "伊勢崎市田部井町2-458",
        "lat": 36.348341,
        "lng": 139.250129
    },
    {
        "code": "A110310000623",
        "type": 16011,
        "name": "愛の光幼稚園",
        "address": "伊勢崎市今井町367",
        "lat": 36.30505,
        "lng": 139.181899
    },
    {
        "code": "A210310000917",
        "type": 16013,
        "name": "ゆたか保育園",
        "address": "伊勢崎市馬見塚町1196-1",
        "lat": 36.272694,
        "lng": 139.212435
    },
    {
        "code": "A210310000926",
        "type": 16013,
        "name": "ゆたか第二保育園",
        "address": "伊勢崎市今泉町1-1430",
        "lat": 36.308658,
        "lng": 139.211487
    },
    {
        "code": "A210310000935",
        "type": 16013,
        "name": "島村めぐみ保育園",
        "address": "伊勢崎市境島村2509",
        "lat": 36.24498,
        "lng": 139.24567
    },
    {
        "code": "A210310000944",
        "type": 16013,
        "name": "西園こども園",
        "address": "伊勢崎市安堀町853",
        "lat": 36.333271,
        "lng": 139.17033
    },
    {
        "code": "A210310000953",
        "type": 16013,
        "name": "あずまの森こども園",
        "address": "伊勢崎市田部井町1-1092-1",
        "lat": 36.357804,
        "lng": 139.247298
    },
    {
        "code": "A210310000962",
        "type": 16013,
        "name": "伊勢崎あすか幼稚舎",
        "address": "伊勢崎市田中島町1509-1",
        "lat": 36.323375,
        "lng": 139.166358
    },
    {
        "code": "A210310000971",
        "type": 16013,
        "name": "茂呂こども園",
        "address": "伊勢崎市茂呂町2-2836-1",
        "lat": 36.300331,
        "lng": 139.208785
    },
    {
        "code": "A210310000980",
        "type": 16013,
        "name": "みやさと保育園",
        "address": "伊勢崎市田中島町489-1",
        "lat": 36.323275,
        "lng": 139.16685
    },
    {
        "code": "A210310000999",
        "type": 16013,
        "name": "二葉こども園",
        "address": "伊勢崎市茂呂南町3081-2",
        "lat": 36.292097,
        "lng": 139.209665
    },
    {
        "code": "A210310001006",
        "type": 16013,
        "name": "あかいしこども園",
        "address": "伊勢崎市曲輪町24-11",
        "lat": 36.324386,
        "lng": 139.191211
    },
    {
        "code": "A210310001015",
        "type": 16013,
        "name": "三郷こども園",
        "address": "伊勢崎市波志江町2381-7",
        "lat": 36.354163,
        "lng": 139.1928
    },
    {
        "code": "A210310001024",
        "type": 16013,
        "name": "すみれこども園",
        "address": "伊勢崎市境上武士983-3",
        "lat": 36.280953,
        "lng": 139.229661
    },
    {
        "code": "A210310001765",
        "type": 16013,
        "name": "はぐろこども園",
        "address": "伊勢崎市馬見塚町230-1",
        "lat": 36.285978,
        "lng": 139.208469
    },
    {
        "code": "B110210000810",
        "type": 16001,
        "name": "北小学校",
        "address": "伊勢崎市曲輪町28-24",
        "lat": 36.322922,
        "lng": 139.190822
    },
    {
        "code": "B110210000829",
        "type": 16001,
        "name": "南小学校",
        "address": "伊勢崎市上泉町310",
        "lat": 36.313535,
        "lng": 139.194628
    },
    {
        "code": "B110210000838",
        "type": 16001,
        "name": "殖蓮小学校",
        "address": "伊勢崎市上植木本町2763",
        "lat": 36.3337,
        "lng": 139.211681
    },
    {
        "code": "B110210000847",
        "type": 16001,
        "name": "茂呂小学校",
        "address": "伊勢崎市茂呂町2-2169-1",
        "lat": 36.302887,
        "lng": 139.208122
    },
    {
        "code": "B110210000856",
        "type": 16001,
        "name": "三郷小学校",
        "address": "伊勢崎市波志江町1620",
        "lat": 36.343281,
        "lng": 139.184184
    },
    {
        "code": "B110210000865",
        "type": 16001,
        "name": "宮郷小学校",
        "address": "伊勢崎市田中島町1475-4",
        "lat": 36.319561,
        "lng": 139.163604
    },
    {
        "code": "B110210000874",
        "type": 16001,
        "name": "名和小学校",
        "address": "伊勢崎市堀口町502-1",
        "lat": 36.290232,
        "lng": 139.181103
    },
    {
        "code": "B110210000883",
        "type": 16001,
        "name": "豊受小学校",
        "address": "伊勢崎市馬見塚町1130",
        "lat": 36.274457,
        "lng": 139.211239
    },
    {
        "code": "B110210000892",
        "type": 16001,
        "name": "北第二小学校",
        "address": "伊勢崎市宗高町125",
        "lat": 36.3287,
        "lng": 139.200349
    },
    {
        "code": "B110210000909",
        "type": 16001,
        "name": "殖蓮第二小学校",
        "address": "伊勢崎市下植木町1203",
        "lat": 36.323368,
        "lng": 139.215153
    },
    {
        "code": "B110210000918",
        "type": 16001,
        "name": "広瀬小学校",
        "address": "伊勢崎市新栄町4074-1",
        "lat": 36.303036,
        "lng": 139.192323
    },
    {
        "code": "B110210000927",
        "type": 16001,
        "name": "坂東小学校",
        "address": "伊勢崎市除ヶ町422",
        "lat": 36.279928,
        "lng": 139.189797
    },
    {
        "code": "B110210000936",
        "type": 16001,
        "name": "宮郷第二小学校",
        "address": "伊勢崎市連取町3069-1",
        "lat": 36.317251,
        "lng": 139.1758
    },
    {
        "code": "B110210002630",
        "type": 16001,
        "name": "赤堀小学校",
        "address": "伊勢崎市西久保町1-72",
        "lat": 36.379313,
        "lng": 139.228284
    },
    {
        "code": "B110210002649",
        "type": 16001,
        "name": "赤堀南小学校",
        "address": "伊勢崎市堀下町264-1",
        "lat": 36.3669,
        "lng": 139.212563
    },
    {
        "code": "B110210002658",
        "type": 16001,
        "name": "赤堀東小学校",
        "address": "伊勢崎市香林町1-260-2",
        "lat": 36.385128,
        "lng": 139.246397
    },
    {
        "code": "B110210002667",
        "type": 16001,
        "name": "あずま小学校",
        "address": "伊勢崎市東町2770",
        "lat": 36.344855,
        "lng": 139.241612
    },
    {
        "code": "B110210002676",
        "type": 16001,
        "name": "あずま南小学校",
        "address": "伊勢崎市三室町4290",
        "lat": 36.328667,
        "lng": 139.243957
    },
    {
        "code": "B110210002685",
        "type": 16001,
        "name": "あずま北小学校",
        "address": "伊勢崎市国定町2-1627",
        "lat": 36.359349,
        "lng": 139.245957
    },
    {
        "code": "B110210002694",
        "type": 16001,
        "name": "境采女小学校",
        "address": "伊勢崎市境下渕名2020",
        "lat": 36.300316,
        "lng": 139.238596
    },
    {
        "code": "B110210002701",
        "type": 16001,
        "name": "境剛志小学校",
        "address": "伊勢崎市境下武士831",
        "lat": 36.275513,
        "lng": 139.236597
    },
    {
        "code": "B110210002710",
        "type": 16001,
        "name": "境小学校",
        "address": "伊勢崎市境515",
        "lat": 36.272791,
        "lng": 139.252485
    },
    {
        "code": "B110210002729",
        "type": 16001,
        "name": "境東小学校",
        "address": "伊勢崎市境米岡253-2",
        "lat": 36.26757,
        "lng": 139.261457
    },
    {
        "code": "C110210000435",
        "type": 16002,
        "name": "第一中学校",
        "address": "伊勢崎市茂呂町1-24-1",
        "lat": 36.30727,
        "lng": 139.195916
    },
    {
        "code": "C110210000444",
        "type": 16002,
        "name": "第二中学校",
        "address": "伊勢崎市堀口町237-1",
        "lat": 36.290788,
        "lng": 139.186047
    },
    {
        "code": "C110210000453",
        "type": 16002,
        "name": "第三中学校",
        "address": "伊勢崎市波志江町1903-1",
        "lat": 36.343226,
        "lng": 139.190044
    },
    {
        "code": "C110210000462",
        "type": 16002,
        "name": "殖蓮中学校",
        "address": "伊勢崎市上植木本町2152-2",
        "lat": 36.330533,
        "lng": 139.214069
    },
    {
        "code": "C110210000471",
        "type": 16002,
        "name": "宮郷中学校",
        "address": "伊勢崎市田中島町1065",
        "lat": 36.322145,
        "lng": 139.156799
    },
    {
        "code": "C110210000480",
        "type": 16002,
        "name": "第四中学校",
        "address": "伊勢崎市下道寺町26",
        "lat": 36.278373,
        "lng": 139.204295
    },
    {
        "code": "C110210001381",
        "type": 16002,
        "name": "赤堀中学校",
        "address": "伊勢崎市西久保町2-329-1",
        "lat": 36.374958,
        "lng": 139.237384
    },
    {
        "code": "C110210001390",
        "type": 16002,
        "name": "あずま中学校",
        "address": "伊勢崎市東町2707-2",
        "lat": 36.343726,
        "lng": 139.242931
    },
    {
        "code": "C110210001407",
        "type": 16002,
        "name": "境北中学校",
        "address": "伊勢崎市境下渕名2011-1",
        "lat": 36.299288,
        "lng": 139.238707
    },
    {
        "code": "C110210001416",
        "type": 16002,
        "name": "境西中学校",
        "address": "伊勢崎市境下武士872-2",
        "lat": 36.27668,
        "lng": 139.235597
    },
    {
        "code": "C110210001425",
        "type": 16002,
        "name": "境南中学校",
        "address": "伊勢崎市境188",
        "lat": 36.267375,
        "lng": 139.255402
    },
    {
        "code": "D110210000246",
        "type": 16004,
        "name": "伊勢崎清明高等学校",
        "address": "伊勢崎市今泉町2-331-6",
        "lat": 36.310841,
        "lng": 139.195267
    },
    {
        "code": "D110210000399",
        "type": 16004,
        "name": "伊勢崎高等学校",
        "address": "伊勢崎市南千木町1670",
        "lat": 36.296682,
        "lng": 139.216568
    },
    {
        "code": "D110210000433",
        "type": 16004,
        "name": "伊勢崎興陽高等学校",
        "address": "伊勢崎市上泉町212",
        "lat": 36.313285,
        "lng": 139.192378
    },
    {
        "code": "D110210000521",
        "type": 16004,
        "name": "伊勢崎工業高等学校",
        "address": "伊勢崎市中央町3-8",
        "lat": 36.321839,
        "lng": 139.20171
    },
    {
        "code": "D110210000576",
        "type": 16004,
        "name": "伊勢崎商業高等学校",
        "address": "伊勢崎市波志江町1116",
        "lat": 36.340226,
        "lng": 139.181545
    },
    {
        "code": "D210210000021",
        "type": 16003,
        "name": "四ツ葉学園中等教育学校",
        "address": "伊勢崎市上植木本町1702-1",
        "lat": 36.332227,
        "lng": 139.208237
    },
    {
        "code": "E110210000216",
        "type": 16012,
        "name": "伊勢崎高等特別支援学校",
        "address": "伊勢崎市境492",
        "lat": 36.271214,
        "lng": 139.253872
    },
    {
        "code": "E110210000234",
        "type": 16012,
        "name": "伊勢崎特別支援学校",
        "address": "伊勢崎市粕川町1003",
        "lat": 36.308536,
        "lng": 139.21632
    },
    {
        "code": "F110310101826",
        "type": 16007,
        "name": "上武大学",
        "address": "伊勢崎市戸谷塚町634-1",
        "lat": 36.278627,
        "lng": 139.177121
    },
    {
        "code": "F210310101852",
        "type": 16006,
        "name": "東京福祉大学短期大学部",
        "address": "伊勢崎市山王町2020-1",
        "lat": 36.28683,
        "lng": 139.192939
    },
    {
        "code": "H110310000021",
        "type": 16016,
        "name": "群馬自動車大学校",
        "address": "伊勢崎市赤堀今井町1-581",
        "lat": 36.378269,
        "lng": 139.206608
    },
    {
        "code": "H110310000307",
        "type": 16016,
        "name": "伊勢崎美容専門学校",
        "address": "伊勢崎市三光町9-19",
        "lat": 36.317928,
        "lng": 139.193603
    },
    {
        "code": "H110310000316",
        "type": 16016,
        "name": "伊勢崎敬愛看護学院",
        "address": "伊勢崎市下植木町461-1",
        "lat": 36.316476,
        "lng": 139.208968
    },
    {
        "code": "H210310000128",
        "type": 16015,
        "name": "あけぼの珠算学校",
        "address": "伊勢崎市緑町1-3",
        "lat": 36.319353,
        "lng": 139.194422
    }
]