[
    {
        "code": "A110210000527",
        "type": 16011,
        "name": "東部こども園",
        "address": "吾妻郡嬬恋村鎌原1339",
        "lat": 36.508133,
        "lng": 138.551791
    },
    {
        "code": "A110210000536",
        "type": 16011,
        "name": "西部幼稚園",
        "address": "吾妻郡嬬恋村大字大笹176-1",
        "lat": 36.505807,
        "lng": 138.5111
    },
    {
        "code": "B110210002444",
        "type": 16001,
        "name": "西部小学校",
        "address": "吾妻郡嬬恋村大字大前805-1",
        "lat": 36.511721,
        "lng": 138.515297
    },
    {
        "code": "B110210002453",
        "type": 16001,
        "name": "東部小学校",
        "address": "吾妻郡嬬恋村三原679-3",
        "lat": 36.536416,
        "lng": 138.55171
    },
    {
        "code": "C110210001247",
        "type": 16002,
        "name": "嬬恋中学校",
        "address": "吾妻郡嬬恋村大字大笹1654-2",
        "lat": 36.507249,
        "lng": 138.513436
    },
    {
        "code": "D110210000148",
        "type": 16004,
        "name": "嬬恋高等学校",
        "address": "吾妻郡嬬恋村三原482-1",
        "lat": 36.535525,
        "lng": 138.551098
    }
]