[
    {
        "code": "A110210000634",
        "type": 16011,
        "name": "長柄幼稚園",
        "address": "邑楽郡邑楽町狸塚1256",
        "lat": 36.240895,
        "lng": 139.45947
    },
    {
        "code": "A110210000643",
        "type": 16011,
        "name": "中野幼稚園",
        "address": "邑楽郡邑楽町中野3176",
        "lat": 36.265835,
        "lng": 139.466004
    },
    {
        "code": "A210210000054",
        "type": 16013,
        "name": "おうらこども園",
        "address": "邑楽郡邑楽町藤川451-4",
        "lat": 36.273655,
        "lng": 139.452538
    },
    {
        "code": "B110210003014",
        "type": 16001,
        "name": "中野小学校",
        "address": "邑楽郡邑楽町中野3021",
        "lat": 36.264407,
        "lng": 139.46691
    },
    {
        "code": "B110210003023",
        "type": 16001,
        "name": "高島小学校",
        "address": "邑楽郡邑楽町大字藤川379",
        "lat": 36.273739,
        "lng": 139.453661
    },
    {
        "code": "B110210003032",
        "type": 16001,
        "name": "長柄小学校",
        "address": "邑楽郡邑楽町篠塚1278",
        "lat": 36.240076,
        "lng": 139.458912
    },
    {
        "code": "B110210003041",
        "type": 16001,
        "name": "中野東小学校",
        "address": "邑楽郡邑楽町明野51",
        "lat": 36.258991,
        "lng": 139.477465
    },
    {
        "code": "C110210001602",
        "type": 16002,
        "name": "邑楽中学校",
        "address": "邑楽郡邑楽町中野2371",
        "lat": 36.254547,
        "lng": 139.457411
    },
    {
        "code": "C110210001611",
        "type": 16002,
        "name": "邑楽南中学校",
        "address": "邑楽郡邑楽町篠塚1445",
        "lat": 36.242076,
        "lng": 139.462106
    }
]