[
    {
        "code": "A101210000010",
        "type": 16011,
        "name": "手稲中央幼稚園",
        "address": "札幌市手稲区手稲本町2条5-13-1",
        "lat": 43.120307,
        "lng": 141.238944
    },
    {
        "code": "A101210110017",
        "type": 16011,
        "name": "中央幼稚園",
        "address": "札幌市中央区北2条西11",
        "lat": 43.062554,
        "lng": 141.339893
    },
    {
        "code": "A101210220014",
        "type": 16011,
        "name": "白楊幼稚園",
        "address": "札幌市北区北24条西7-1-10",
        "lat": 43.0907,
        "lng": 141.338445
    },
    {
        "code": "A101210330020",
        "type": 16011,
        "name": "ひがしなえぼ幼稚園",
        "address": "札幌市東区東苗穂4条2-1-35",
        "lat": 43.087997,
        "lng": 141.405598
    },
    {
        "code": "A101210440027",
        "type": 16011,
        "name": "きくすいもとまち幼稚園",
        "address": "札幌市白石区菊水元町6条1-5-1",
        "lat": 43.073751,
        "lng": 141.407157
    },
    {
        "code": "A101210550103",
        "type": 16011,
        "name": "かっこう幼稚園",
        "address": "札幌市豊平区月寒東3条7-7-2",
        "lat": 43.032703,
        "lng": 141.404223
    },
    {
        "code": "A101210660011",
        "type": 16011,
        "name": "もいわ幼稚園",
        "address": "札幌市南区川沿18条2-1-13",
        "lat": 42.972893,
        "lng": 141.333233
    },
    {
        "code": "A101210770027",
        "type": 16011,
        "name": "はまなす幼稚園",
        "address": "札幌市西区発寒6条12-4-10",
        "lat": 43.093061,
        "lng": 141.27327
    },
    {
        "code": "A101210845028",
        "type": 16011,
        "name": "あつべつきた幼稚園",
        "address": "札幌市厚別区厚別北3条3-15-3",
        "lat": 43.056397,
        "lng": 141.47508
    },
    {
        "code": "A101310000027",
        "type": 16011,
        "name": "札幌ルンビニー幼稚園",
        "address": "札幌市西区二十四軒4条2-6-17",
        "lat": 43.076896,
        "lng": 141.31
    },
    {
        "code": "A101310100017",
        "type": 16011,
        "name": "札幌大谷第二幼稚園",
        "address": "札幌市中央区大通西21-3-18",
        "lat": 43.057411,
        "lng": 141.325112
    },
    {
        "code": "A101310100026",
        "type": 16011,
        "name": "桑園幼稚園",
        "address": "札幌市中央区北7条西13-2",
        "lat": 43.067879,
        "lng": 141.334989
    },
    {
        "code": "A101310100035",
        "type": 16011,
        "name": "大通幼稚園",
        "address": "札幌市中央区大通西16-3",
        "lat": 43.057825,
        "lng": 141.332478
    },
    {
        "code": "A101310100044",
        "type": 16011,
        "name": "ひかり幼稚園",
        "address": "札幌市中央区南21条西14-3-10",
        "lat": 43.030679,
        "lng": 141.338846
    },
    {
        "code": "A101310100053",
        "type": 16011,
        "name": "めばえ幼稚園",
        "address": "札幌市中央区南12条西12-2-27",
        "lat": 43.043475,
        "lng": 141.340434
    },
    {
        "code": "A101310100062",
        "type": 16011,
        "name": "こひつじ幼稚園",
        "address": "札幌市中央区南16条西12-1-5",
        "lat": 43.038292,
        "lng": 141.34209
    },
    {
        "code": "A101310100071",
        "type": 16011,
        "name": "さゆり幼稚園",
        "address": "札幌市中央区北4条西23-2-8",
        "lat": 43.061897,
        "lng": 141.320676
    },
    {
        "code": "A101310100080",
        "type": 16011,
        "name": "札幌ルーテル幼稚園",
        "address": "札幌市中央区南9条西21-2-20",
        "lat": 43.04616,
        "lng": 141.324813
    },
    {
        "code": "A101310100099",
        "type": 16011,
        "name": "札幌円山幼稚園",
        "address": "札幌市中央区北2条西23-1-10",
        "lat": 43.059294,
        "lng": 141.321173
    },
    {
        "code": "A101310100106",
        "type": 16011,
        "name": "宮の森幼稚園",
        "address": "札幌市中央区宮の森904-7",
        "lat": 43.048928,
        "lng": 141.291418
    },
    {
        "code": "A101310100115",
        "type": 16011,
        "name": "札幌いづみ幼稚園",
        "address": "札幌市中央区南17条西9-1-35",
        "lat": 43.037387,
        "lng": 141.346514
    },
    {
        "code": "A101310100124",
        "type": 16011,
        "name": "つぼみ幼稚園",
        "address": "札幌市中央区南7条西25-1-5",
        "lat": 43.04849,
        "lng": 141.321835
    },
    {
        "code": "A101310100133",
        "type": 16011,
        "name": "ばんけい幼稚園",
        "address": "札幌市中央区盤渓415-13",
        "lat": 43.029799,
        "lng": 141.280264
    },
    {
        "code": "A101310200016",
        "type": 16011,
        "name": "新琴似幼稚園",
        "address": "札幌市北区新琴似8条3-1-20",
        "lat": 43.114177,
        "lng": 141.33145
    },
    {
        "code": "A101310200025",
        "type": 16011,
        "name": "札幌北幼稚園",
        "address": "札幌市北区北33条西11-3-10",
        "lat": 43.101765,
        "lng": 141.330276
    },
    {
        "code": "A101310200034",
        "type": 16011,
        "name": "新琴似育英幼稚園",
        "address": "札幌市北区新琴似7条13-1-28",
        "lat": 43.120361,
        "lng": 141.31412
    },
    {
        "code": "A101310200043",
        "type": 16011,
        "name": "藤幼稚園",
        "address": "札幌市北区北16条西3-2-1",
        "lat": 43.080423,
        "lng": 141.348206
    },
    {
        "code": "A101310200052",
        "type": 16011,
        "name": "麻生明星幼稚園",
        "address": "札幌市北区麻生町4-11-14",
        "lat": 43.110658,
        "lng": 141.339435
    },
    {
        "code": "A101310200061",
        "type": 16011,
        "name": "新川幼稚園",
        "address": "札幌市北区新川2条4-8-43",
        "lat": 43.098359,
        "lng": 141.317115
    },
    {
        "code": "A101310200070",
        "type": 16011,
        "name": "篠路光真幼稚園",
        "address": "札幌市北区篠路町上篠路252",
        "lat": 43.14483,
        "lng": 141.377577
    },
    {
        "code": "A101310200089",
        "type": 16011,
        "name": "つよし幼稚園",
        "address": "札幌市北区屯田3条3-6-10",
        "lat": 43.126625,
        "lng": 141.337004
    },
    {
        "code": "A101310200105",
        "type": 16011,
        "name": "そうせい幼稚園",
        "address": "札幌市北区新川4条13-2-41",
        "lat": 43.111079,
        "lng": 141.303386
    },
    {
        "code": "A101310200114",
        "type": 16011,
        "name": "札幌三育幼稚園",
        "address": "札幌市北区北35条西2-1-15",
        "lat": 43.102393,
        "lng": 141.34338
    },
    {
        "code": "A101310200123",
        "type": 16011,
        "name": "百合が原幼稚園",
        "address": "札幌市北区百合が原11-185-6",
        "lat": 43.132987,
        "lng": 141.367783
    },
    {
        "code": "A101310200132",
        "type": 16011,
        "name": "茨戸メリー幼稚園",
        "address": "札幌市北区東茨戸37-3",
        "lat": 43.159458,
        "lng": 141.363511
    },
    {
        "code": "A101310300015",
        "type": 16011,
        "name": "札幌大谷大学附属幼稚園",
        "address": "札幌市東区北16条東8-2-1",
        "lat": 43.082499,
        "lng": 141.363649
    },
    {
        "code": "A101310300024",
        "type": 16011,
        "name": "札幌幼稚園",
        "address": "札幌市東区北24条東18-4-37",
        "lat": 43.094921,
        "lng": 141.378348
    },
    {
        "code": "A101310300033",
        "type": 16011,
        "name": "天使幼稚園",
        "address": "札幌市東区北11条東2",
        "lat": 43.075381,
        "lng": 141.355547
    },
    {
        "code": "A101310300042",
        "type": 16011,
        "name": "聖ミカエル幼稚園",
        "address": "札幌市東区北19条東3-4-5",
        "lat": 43.085373,
        "lng": 141.354863
    },
    {
        "code": "A101310300051",
        "type": 16011,
        "name": "北栄幼稚園",
        "address": "札幌市東区北31条東9-1-6",
        "lat": 43.100191,
        "lng": 141.360778
    },
    {
        "code": "A101310300060",
        "type": 16011,
        "name": "あゆみ幼稚園",
        "address": "札幌市東区伏古7条5-5-5",
        "lat": 43.088077,
        "lng": 141.398007
    },
    {
        "code": "A101310300079",
        "type": 16011,
        "name": "札幌あかしや幼稚園",
        "address": "札幌市東区北44条東12-2-1",
        "lat": 43.11551,
        "lng": 141.360255
    },
    {
        "code": "A101310300088",
        "type": 16011,
        "name": "あゆみ第二幼稚園",
        "address": "札幌市東区伏古9条3-2-19",
        "lat": 43.09274,
        "lng": 141.396465
    },
    {
        "code": "A101310400014",
        "type": 16011,
        "name": "白石幼稚園",
        "address": "札幌市白石区平和通1-南6-16",
        "lat": 43.054428,
        "lng": 141.407231
    },
    {
        "code": "A101310400032",
        "type": 16011,
        "name": "南郷札幌幼稚園",
        "address": "札幌市白石区栄通9-4-14",
        "lat": 43.035775,
        "lng": 141.412314
    },
    {
        "code": "A101310400041",
        "type": 16011,
        "name": "本郷幼稚園",
        "address": "札幌市白石区本郷通6-南4-17",
        "lat": 43.042502,
        "lng": 141.411139
    },
    {
        "code": "A101310400050",
        "type": 16011,
        "name": "あさひ幼稚園",
        "address": "札幌市白石区平和通10-北7-56",
        "lat": 43.046516,
        "lng": 141.427077
    },
    {
        "code": "A101310400069",
        "type": 16011,
        "name": "札幌白樺幼稚園",
        "address": "札幌市白石区南郷通18-北5-5",
        "lat": 43.031546,
        "lng": 141.435302
    },
    {
        "code": "A101310500013",
        "type": 16011,
        "name": "札幌若葉幼稚園",
        "address": "札幌市豊平区月寒東2条18-9-11",
        "lat": 43.016724,
        "lng": 141.421543
    },
    {
        "code": "A101310500022",
        "type": 16011,
        "name": "札幌ゆたか幼稚園",
        "address": "札幌市豊平区豊平1条4-2-19",
        "lat": 43.053269,
        "lng": 141.372417
    },
    {
        "code": "A101310500031",
        "type": 16011,
        "name": "札幌第一幼稚園",
        "address": "札幌市豊平区旭町7-3-7",
        "lat": 43.043562,
        "lng": 141.369354
    },
    {
        "code": "A101310500059",
        "type": 16011,
        "name": "美晴幼稚園",
        "address": "札幌市豊平区月寒西2条7-2-16",
        "lat": 43.029733,
        "lng": 141.392122
    },
    {
        "code": "A101310500068",
        "type": 16011,
        "name": "なかのしま幼稚園",
        "address": "札幌市豊平区中の島2条2-5-20",
        "lat": 43.035804,
        "lng": 141.361463
    },
    {
        "code": "A101310500077",
        "type": 16011,
        "name": "幌南学園幼稚園",
        "address": "札幌市豊平区月寒西1条3-1-16",
        "lat": 43.034879,
        "lng": 141.390994
    },
    {
        "code": "A101310500086",
        "type": 16011,
        "name": "西岡ふたば幼稚園",
        "address": "札幌市豊平区西岡4条10-8-1",
        "lat": 43.000722,
        "lng": 141.385393
    },
    {
        "code": "A101310500095",
        "type": 16011,
        "name": "札幌白ゆり幼稚園",
        "address": "札幌市豊平区平岸5条9-2-9",
        "lat": 43.032946,
        "lng": 141.378406
    },
    {
        "code": "A101310500102",
        "type": 16011,
        "name": "札幌くりのみ幼稚園",
        "address": "札幌市豊平区月寒西5条8-1-20",
        "lat": 43.025917,
        "lng": 141.3853
    },
    {
        "code": "A101310500111",
        "type": 16011,
        "name": "札幌創価幼稚園",
        "address": "札幌市豊平区福住2条3-10-1",
        "lat": 43.016274,
        "lng": 141.403455
    },
    {
        "code": "A101310500120",
        "type": 16011,
        "name": "ふくずみ幼稚園",
        "address": "札幌市豊平区福住2条6-6-12",
        "lat": 43.011391,
        "lng": 141.395511
    },
    {
        "code": "A101310500139",
        "type": 16011,
        "name": "つきさむ幼稚園",
        "address": "札幌市豊平区月寒東2条11-164-13",
        "lat": 43.02603,
        "lng": 141.40505
    },
    {
        "code": "A101310600012",
        "type": 16011,
        "name": "札幌わかくさ幼稚園",
        "address": "札幌市南区南34条西10-3-13",
        "lat": 43.012653,
        "lng": 141.348352
    },
    {
        "code": "A101310600021",
        "type": 16011,
        "name": "澄川幼稚園",
        "address": "札幌市南区澄川3条3-3-11",
        "lat": 43.015292,
        "lng": 141.365308
    },
    {
        "code": "A101310600030",
        "type": 16011,
        "name": "真駒内幼稚園",
        "address": "札幌市南区真駒内曙町3-4-1",
        "lat": 43.000396,
        "lng": 141.352785
    },
    {
        "code": "A101310600049",
        "type": 16011,
        "name": "真駒内聖母幼稚園",
        "address": "札幌市南区真駒内上町4-8-2",
        "lat": 42.996305,
        "lng": 141.354902
    },
    {
        "code": "A101310600058",
        "type": 16011,
        "name": "まこまない明星幼稚園",
        "address": "札幌市南区真駒内泉町2-1-6",
        "lat": 42.987767,
        "lng": 141.353877
    },
    {
        "code": "A101310600067",
        "type": 16011,
        "name": "もなみ幼稚園",
        "address": "札幌市南区川沿9条2-1-18",
        "lat": 42.985359,
        "lng": 141.334421
    },
    {
        "code": "A101310600085",
        "type": 16011,
        "name": "森の幼稚園",
        "address": "札幌市南区石山1132-1",
        "lat": 42.954182,
        "lng": 141.339113
    },
    {
        "code": "A101310600094",
        "type": 16011,
        "name": "第２もなみ幼稚園",
        "address": "札幌市南区川沿2条3-8-25",
        "lat": 42.99971,
        "lng": 141.329818
    },
    {
        "code": "A101310600101",
        "type": 16011,
        "name": "札幌梅香幼稚園",
        "address": "札幌市南区藤野2条7-14-1",
        "lat": 42.962943,
        "lng": 141.292841
    },
    {
        "code": "A101310600110",
        "type": 16011,
        "name": "札幌トモエ幼稚園",
        "address": "札幌市南区北の沢1963",
        "lat": 43.015046,
        "lng": 141.299461
    },
    {
        "code": "A101310600138",
        "type": 16011,
        "name": "藤ヶ丘幼稚園",
        "address": "札幌市南区藤野4条5-20-1",
        "lat": 42.957261,
        "lng": 141.297708
    },
    {
        "code": "A101310600147",
        "type": 16011,
        "name": "札幌みすまい幼稚園",
        "address": "札幌市南区簾舞2条4-3-15",
        "lat": 42.963089,
        "lng": 141.264802
    },
    {
        "code": "A101310700020",
        "type": 16011,
        "name": "琴似中央幼稚園",
        "address": "札幌市西区八軒9条西2-4-1",
        "lat": 43.091637,
        "lng": 141.315686
    },
    {
        "code": "A101310700039",
        "type": 16011,
        "name": "あづま幼稚園",
        "address": "札幌市西区発寒16条4-3-70",
        "lat": 43.108909,
        "lng": 141.292489
    },
    {
        "code": "A101310700048",
        "type": 16011,
        "name": "インターナショナル山の手幼稚園",
        "address": "札幌市西区山の手2条3-1-15",
        "lat": 43.069523,
        "lng": 141.301455
    },
    {
        "code": "A101310700057",
        "type": 16011,
        "name": "さくらの森幼稚園",
        "address": "札幌市西区琴似3条6-1-26",
        "lat": 43.076103,
        "lng": 141.299642
    },
    {
        "code": "A101310700066",
        "type": 16011,
        "name": "琴似教会幼稚園",
        "address": "札幌市西区八軒2条西1-3-1",
        "lat": 43.083308,
        "lng": 141.310781
    },
    {
        "code": "A101310700075",
        "type": 16011,
        "name": "西野札幌幼稚園",
        "address": "札幌市西区西野3条2-3-1",
        "lat": 43.072786,
        "lng": 141.282375
    },
    {
        "code": "A101310700084",
        "type": 16011,
        "name": "幸明幼稚園",
        "address": "札幌市西区八軒6条西7-2-30",
        "lat": 43.093384,
        "lng": 141.305445
    },
    {
        "code": "A101310700093",
        "type": 16011,
        "name": "西野桜幼稚園",
        "address": "札幌市西区西野4条6-11-15",
        "lat": 43.075105,
        "lng": 141.272357
    },
    {
        "code": "A101310700100",
        "type": 16011,
        "name": "西野第２桜幼稚園",
        "address": "札幌市西区西町北18-4-15",
        "lat": 43.087654,
        "lng": 141.279389
    },
    {
        "code": "A101310700119",
        "type": 16011,
        "name": "平和幼稚園",
        "address": "札幌市西区平和3条8-1-1",
        "lat": 43.054895,
        "lng": 141.251088
    },
    {
        "code": "A101310700128",
        "type": 16011,
        "name": "宮ノ丘幼稚園",
        "address": "札幌市西区宮の沢490-11",
        "lat": 43.086259,
        "lng": 141.257019
    },
    {
        "code": "A101310800010",
        "type": 16011,
        "name": "北光幼稚園",
        "address": "札幌市厚別区青葉町7-1-32",
        "lat": 43.030261,
        "lng": 141.477867
    },
    {
        "code": "A101310800029",
        "type": 16011,
        "name": "厚別幼稚園",
        "address": "札幌市厚別区厚別中央3条3-5-6",
        "lat": 43.039831,
        "lng": 141.462443
    },
    {
        "code": "A101310800038",
        "type": 16011,
        "name": "もみじ台幼稚園",
        "address": "札幌市厚別区もみじ台北5-6-1",
        "lat": 43.036547,
        "lng": 141.492935
    },
    {
        "code": "A101310800047",
        "type": 16011,
        "name": "札幌みづほ幼稚園",
        "address": "札幌市厚別区もみじ台東2-5",
        "lat": 43.034224,
        "lng": 141.496395
    },
    {
        "code": "A101310800056",
        "type": 16011,
        "name": "虹の森カトリック幼稚園",
        "address": "札幌市厚別区厚別東3条4-3-10",
        "lat": 43.047181,
        "lng": 141.483943
    },
    {
        "code": "A101310800074",
        "type": 16011,
        "name": "札幌あおば幼稚園",
        "address": "札幌市厚別区厚別北3条5-11-6",
        "lat": 43.059986,
        "lng": 141.48044
    },
    {
        "code": "A101310900019",
        "type": 16011,
        "name": "さわらび幼稚園",
        "address": "札幌市手稲区曙5条2-7-10",
        "lat": 43.133408,
        "lng": 141.238515
    },
    {
        "code": "A101310900028",
        "type": 16011,
        "name": "いなほガーデン星の子幼稚園",
        "address": "札幌市手稲区稲穂2条5-10-1",
        "lat": 43.126795,
        "lng": 141.220594
    },
    {
        "code": "A101310900037",
        "type": 16011,
        "name": "富丘つくし幼稚園",
        "address": "札幌市手稲区富丘2条4-7-6",
        "lat": 43.108525,
        "lng": 141.251946
    },
    {
        "code": "A101310900046",
        "type": 16011,
        "name": "おおぞら幼稚園",
        "address": "札幌市手稲区前田8条10-6-35",
        "lat": 43.129512,
        "lng": 141.260708
    },
    {
        "code": "A101310900055",
        "type": 16011,
        "name": "前田幼稚園",
        "address": "札幌市手稲区手稲前田555-3",
        "lat": 43.134326,
        "lng": 141.273882
    },
    {
        "code": "A101311000016",
        "type": 16011,
        "name": "清田幼稚園",
        "address": "札幌市清田区清田1条2-3-43",
        "lat": 43.00399,
        "lng": 141.440436
    },
    {
        "code": "A101311000025",
        "type": 16011,
        "name": "札幌きたの幼稚園",
        "address": "札幌市清田区北野6条5-3-12",
        "lat": 43.017098,
        "lng": 141.449884
    },
    {
        "code": "A101311000034",
        "type": 16011,
        "name": "光の泉幼稚園",
        "address": "札幌市清田区清田6条3-4-25",
        "lat": 42.993441,
        "lng": 141.432551
    },
    {
        "code": "A101311000043",
        "type": 16011,
        "name": "里塚幼稚園",
        "address": "札幌市清田区里塚2条6-1-8",
        "lat": 42.981477,
        "lng": 141.465901
    },
    {
        "code": "A101311000061",
        "type": 16011,
        "name": "平ヶ岡幼稚園",
        "address": "札幌市清田区平岡6条1-5-30",
        "lat": 43.011046,
        "lng": 141.451443
    },
    {
        "code": "A101311000089",
        "type": 16011,
        "name": "美しが丘幼稚園",
        "address": "札幌市清田区美しが丘5条5-8-20",
        "lat": 42.977782,
        "lng": 141.450008
    },
    {
        "code": "A201211000017",
        "type": 16013,
        "name": "認定こども園にじいろ",
        "address": "札幌市清田区真栄2条1-11-20",
        "lat": 42.993766,
        "lng": 141.440233
    },
    {
        "code": "A201310100016",
        "type": 16013,
        "name": "カトリック聖園こどもの家",
        "address": "札幌市中央区北1条東6-10-41",
        "lat": 43.064787,
        "lng": 141.364767
    },
    {
        "code": "A201310100025",
        "type": 16013,
        "name": "札幌大谷幼稚園",
        "address": "札幌市中央区南7条西7-290-2",
        "lat": 43.051091,
        "lng": 141.348427
    },
    {
        "code": "A201310100034",
        "type": 16013,
        "name": "大谷オアシス保育園",
        "address": "札幌市中央区大通西21-3-8",
        "lat": 43.057404,
        "lng": 141.324997
    },
    {
        "code": "A201310100043",
        "type": 16013,
        "name": "幌西そらいろ保育園",
        "address": "札幌市中央区南9条西20-2-22",
        "lat": 43.0465,
        "lng": 141.327365
    },
    {
        "code": "A201310100052",
        "type": 16013,
        "name": "宮の森メープル保育園",
        "address": "札幌市中央区宮の森4条10-1-7",
        "lat": 43.060048,
        "lng": 141.299977
    },
    {
        "code": "A201310200015",
        "type": 16013,
        "name": "太陽こころ幼稚園",
        "address": "札幌市北区屯田9条3-3-9",
        "lat": 43.142651,
        "lng": 141.341005
    },
    {
        "code": "A201310200024",
        "type": 16013,
        "name": "認定こども園ひまわり",
        "address": "札幌市北区拓北6条2-6-12､8-7",
        "lat": 43.156248,
        "lng": 141.37964
    },
    {
        "code": "A201310200033",
        "type": 16013,
        "name": "認定こども園こうほく",
        "address": "札幌市北区新琴似12条10-3-17",
        "lat": 43.125167,
        "lng": 141.327302
    },
    {
        "code": "A201310200042",
        "type": 16013,
        "name": "こども園ソレイユ",
        "address": "札幌市北区拓北3条2-7-12",
        "lat": 43.15096,
        "lng": 141.376743
    },
    {
        "code": "A201310200051",
        "type": 16013,
        "name": "認定こども園あいの里",
        "address": "札幌市北区あいの里4条6-2-5",
        "lat": 43.163896,
        "lng": 141.401238
    },
    {
        "code": "A201310200060",
        "type": 16013,
        "name": "あいの里大藤幼稚園",
        "address": "札幌市北区あいの里3条3-1-2",
        "lat": 43.162648,
        "lng": 141.390825
    },
    {
        "code": "A201310200079",
        "type": 16013,
        "name": "認定こども園はなぞの",
        "address": "札幌市北区新川1条2-8-10",
        "lat": 43.09469,
        "lng": 141.318077
    },
    {
        "code": "A201310200088",
        "type": 16013,
        "name": "しんことに清香こども園",
        "address": "札幌市北区新琴似11条5-1-30",
        "lat": 43.119948,
        "lng": 141.332974
    },
    {
        "code": "A201310200097",
        "type": 16013,
        "name": "新川西さくらこ認定こども園",
        "address": "札幌市北区新川西1条4-2-45",
        "lat": 43.124795,
        "lng": 141.278034
    },
    {
        "code": "A201310200104",
        "type": 16013,
        "name": "太平あずさ保育園",
        "address": "札幌市北区太平4条3-2-33",
        "lat": 43.128031,
        "lng": 141.349181
    },
    {
        "code": "A201310200113",
        "type": 16013,
        "name": "認定こども園メルシー学院",
        "address": "札幌市北区屯田5条9-1-46-6",
        "lat": 43.132362,
        "lng": 141.32355
    },
    {
        "code": "A201310200122",
        "type": 16013,
        "name": "創成札幌こども園",
        "address": "札幌市北区北15条西1-2-18",
        "lat": 43.079699,
        "lng": 141.351184
    },
    {
        "code": "A201310200131",
        "type": 16013,
        "name": "ＣｉｎｑＰｅｒｌｅｓ幼稚園",
        "address": "札幌市北区篠路7条6-3-8",
        "lat": 43.151723,
        "lng": 141.36432
    },
    {
        "code": "A201310300014",
        "type": 16013,
        "name": "認定こども園札幌愛珠",
        "address": "札幌市東区北38条東9-1-38",
        "lat": 43.107503,
        "lng": 141.359981
    },
    {
        "code": "A201310300023",
        "type": 16013,
        "name": "幼保連携型認定こども園さつなえのもり",
        "address": "札幌市東区東苗穂8条3-3-20､21",
        "lat": 43.09699,
        "lng": 141.415391
    },
    {
        "code": "A201310300032",
        "type": 16013,
        "name": "幼保連携型認定こども園せいめいのもり",
        "address": "札幌市東区北10条東14-2-8",
        "lat": 43.076886,
        "lng": 141.374915
    },
    {
        "code": "A201310300041",
        "type": 16013,
        "name": "幼保連携型認定こども園さっぽろ夢",
        "address": "札幌市東区北36条東17-1-30",
        "lat": 43.106923,
        "lng": 141.371585
    },
    {
        "code": "A201310300050",
        "type": 16013,
        "name": "幼保連携型認定こども園おかだまのもり",
        "address": "札幌市東区北37条東27-1-1",
        "lat": 43.103596,
        "lng": 141.389837
    },
    {
        "code": "A201310300069",
        "type": 16013,
        "name": "幼保連携型認定こども園しらゆき夢",
        "address": "札幌市東区北46条東14-2-10",
        "lat": 43.118193,
        "lng": 141.362966
    },
    {
        "code": "A201310300078",
        "type": 16013,
        "name": "ふしこ幼稚園",
        "address": "札幌市東区本町1条5-1-15",
        "lat": 43.076786,
        "lng": 141.388178
    },
    {
        "code": "A201310300087",
        "type": 16013,
        "name": "幼保連携型認定こども園もえれのもり",
        "address": "札幌市東区東苗穂11条2-7-1",
        "lat": 43.104038,
        "lng": 141.417235
    },
    {
        "code": "A201310300096",
        "type": 16013,
        "name": "東苗穂スパークル園",
        "address": "札幌市東区東苗穂12条4",
        "lat": 43.102981,
        "lng": 141.427106
    },
    {
        "code": "A201310300103",
        "type": 16013,
        "name": "栄光幼稚園",
        "address": "札幌市東区北44条東2",
        "lat": 43.112915,
        "lng": 141.347406
    },
    {
        "code": "A201310400013",
        "type": 16013,
        "name": "東橋いちい認定こども園",
        "address": "札幌市白石区菊水8条2-1-1",
        "lat": 43.061263,
        "lng": 141.380149
    },
    {
        "code": "A201310400022",
        "type": 16013,
        "name": "認定こども園幌東",
        "address": "札幌市白石区本郷通3-北3-10､11",
        "lat": 43.047739,
        "lng": 141.407266
    },
    {
        "code": "A201310400031",
        "type": 16013,
        "name": "菊水いちい認定こども園",
        "address": "札幌市白石区菊水元町1条1-4-18",
        "lat": 43.067529,
        "lng": 141.395447
    },
    {
        "code": "A201310400040",
        "type": 16013,
        "name": "認定こども園北都",
        "address": "札幌市白石区北郷4条11-20-7",
        "lat": 43.05331,
        "lng": 141.434731
    },
    {
        "code": "A201310400059",
        "type": 16013,
        "name": "北郷あゆみ幼稚園",
        "address": "札幌市白石区北郷3条3-8-15",
        "lat": 43.060956,
        "lng": 141.413477
    },
    {
        "code": "A201310400068",
        "type": 16013,
        "name": "北都幼稚園",
        "address": "札幌市白石区川下749-55",
        "lat": 43.056546,
        "lng": 141.44161
    },
    {
        "code": "A201310400077",
        "type": 16013,
        "name": "北郷ピノキオ認定こども園",
        "address": "札幌市白石区北郷2条6-5-12",
        "lat": 43.054565,
        "lng": 141.420971
    },
    {
        "code": "A201310400086",
        "type": 16013,
        "name": "飛翔認定こども園",
        "address": "札幌市白石区東札幌1条4-7-19",
        "lat": 43.045918,
        "lng": 141.389199
    },
    {
        "code": "A201310400095",
        "type": 16013,
        "name": "友愛北白石認定こども園",
        "address": "札幌市白石区米里2条4-2-16",
        "lat": 43.070155,
        "lng": 141.42425
    },
    {
        "code": "A201310400102",
        "type": 16013,
        "name": "認定こども園ピッコリーノ学院",
        "address": "札幌市白石区北郷1条6-1-25",
        "lat": 43.052399,
        "lng": 141.418846
    },
    {
        "code": "A201310400111",
        "type": 16013,
        "name": "認定こども園北郷すずらん",
        "address": "札幌市白石区北郷7条3-12-25",
        "lat": 43.065903,
        "lng": 141.418909
    },
    {
        "code": "A201310400120",
        "type": 16013,
        "name": "双葉こども園",
        "address": "札幌市白石区栄通15-15-18",
        "lat": 43.031841,
        "lng": 141.421489
    },
    {
        "code": "A201310500012",
        "type": 16013,
        "name": "認定こども園まなび",
        "address": "札幌市豊平区西岡3条5-1-1",
        "lat": 43.015946,
        "lng": 141.385651
    },
    {
        "code": "A201310500021",
        "type": 16013,
        "name": "こども園・ひかりのこさっぽろ",
        "address": "札幌市豊平区月寒東4条9-1-11",
        "lat": 43.032297,
        "lng": 141.408459
    },
    {
        "code": "A201310500030",
        "type": 16013,
        "name": "さっぽろこども園",
        "address": "札幌市豊平区豊平6条3-6-35",
        "lat": 43.050789,
        "lng": 141.36624
    },
    {
        "code": "A201310500049",
        "type": 16013,
        "name": "東月寒にれこども園",
        "address": "札幌市豊平区月寒東3条16-2-36",
        "lat": 43.023029,
        "lng": 141.416348
    },
    {
        "code": "A201310500058",
        "type": 16013,
        "name": "にれ第２こども園",
        "address": "札幌市豊平区月寒東5条16-8-14",
        "lat": 43.027226,
        "lng": 141.425788
    },
    {
        "code": "A201310500067",
        "type": 16013,
        "name": "ひらぎし幼稚園",
        "address": "札幌市豊平区平岸3条12-3-9",
        "lat": 43.028762,
        "lng": 141.371126
    },
    {
        "code": "A201310500076",
        "type": 16013,
        "name": "月寒そらいろ保育園",
        "address": "札幌市豊平区月寒西4条6-4-1",
        "lat": 43.029382,
        "lng": 141.388252
    },
    {
        "code": "A201310600011",
        "type": 16013,
        "name": "認定こども園そらいろ",
        "address": "札幌市南区澄川6条11-2-10",
        "lat": 42.999244,
        "lng": 141.373383
    },
    {
        "code": "A201310600020",
        "type": 16013,
        "name": "澄川ひろのぶ保育園",
        "address": "札幌市南区澄川2条1-3-1",
        "lat": 43.019092,
        "lng": 141.362361
    },
    {
        "code": "A201310600039",
        "type": 16013,
        "name": "光塩学園女子短期大学附属認定こども園",
        "address": "札幌市南区真駒内上町3-1-1",
        "lat": 42.997236,
        "lng": 141.353468
    },
    {
        "code": "A201310600048",
        "type": 16013,
        "name": "ときわみなみのこどもえん",
        "address": "札幌市南区真駒内380-18",
        "lat": 42.930446,
        "lng": 141.344797
    },
    {
        "code": "A201310700010",
        "type": 16013,
        "name": "発寒にこりんこども園",
        "address": "札幌市西区発寒5条3-8-12",
        "lat": 43.088487,
        "lng": 141.294243
    },
    {
        "code": "A201310700029",
        "type": 16013,
        "name": "西町さつき保育園",
        "address": "札幌市西区西町南19",
        "lat": 43.085634,
        "lng": 141.276284
    },
    {
        "code": "A201310700038",
        "type": 16013,
        "name": "西野そらいろ保育園",
        "address": "札幌市西区西野4条7-1-8",
        "lat": 43.077143,
        "lng": 141.272902
    },
    {
        "code": "A201310800019",
        "type": 16013,
        "name": "いちい幼稚園・保育園",
        "address": "札幌市厚別区もみじ台西5-3",
        "lat": 43.031504,
        "lng": 141.48776
    },
    {
        "code": "A201310800028",
        "type": 16013,
        "name": "新さっぽろ幼稚園・保育園",
        "address": "札幌市厚別区上野幌1条2-6-20､2条3-6-1",
        "lat": 43.020057,
        "lng": 141.470967
    },
    {
        "code": "A201310800037",
        "type": 16013,
        "name": "認定こども園おおやち",
        "address": "札幌市厚別区大谷地東3-5-11",
        "lat": 43.024203,
        "lng": 141.455487
    },
    {
        "code": "A201310800046",
        "type": 16013,
        "name": "桜台いちい幼稚園・保育園",
        "address": "札幌市厚別区厚別西611-520",
        "lat": 43.055295,
        "lng": 141.453223
    },
    {
        "code": "A201310800055",
        "type": 16013,
        "name": "厚別さくら木保育園",
        "address": "札幌市厚別区厚別東3条1-2-8",
        "lat": 43.043162,
        "lng": 141.479602
    },
    {
        "code": "A201310800064",
        "type": 16013,
        "name": "ひばりが丘明星幼稚園",
        "address": "札幌市厚別区厚別中央2条4-1-10",
        "lat": 43.03504,
        "lng": 141.466084
    },
    {
        "code": "A201310900018",
        "type": 16013,
        "name": "星置ピノキオ認定こども園",
        "address": "札幌市手稲区星置1条1-20-1",
        "lat": 43.134332,
        "lng": 141.213802
    },
    {
        "code": "A201310900027",
        "type": 16013,
        "name": "まえだ認定こども園",
        "address": "札幌市手稲区前田5条7-2-15",
        "lat": 43.121405,
        "lng": 141.259573
    },
    {
        "code": "A201310900036",
        "type": 16013,
        "name": "ていねあすなろ認定こども園",
        "address": "札幌市手稲区曙5条3-2-25",
        "lat": 43.132522,
        "lng": 141.233657
    },
    {
        "code": "A201310900045",
        "type": 16013,
        "name": "山王幼稚園",
        "address": "札幌市手稲区曙9条1-9-15",
        "lat": 43.144156,
        "lng": 141.24013
    },
    {
        "code": "A201310900054",
        "type": 16013,
        "name": "認定こども園まつばの杜",
        "address": "札幌市手稲区新発寒5条9-3-24",
        "lat": 43.121379,
        "lng": 141.267303
    },
    {
        "code": "A201310900063",
        "type": 16013,
        "name": "ほしおきガーデン星の子幼稚園",
        "address": "札幌市手稲区星置3条8-1-10",
        "lat": 43.138057,
        "lng": 141.196338
    },
    {
        "code": "A201311000024",
        "type": 16013,
        "name": "北野しらかば幼稚園・保育園",
        "address": "札幌市清田区北野5条2-2-20",
        "lat": 43.020558,
        "lng": 141.433369
    },
    {
        "code": "A201311000033",
        "type": 16013,
        "name": "アルプス認定こども園",
        "address": "札幌市清田区平岡4条3-6-43",
        "lat": 43.00351,
        "lng": 141.453439
    },
    {
        "code": "A201311000042",
        "type": 16013,
        "name": "花山認定こども園",
        "address": "札幌市清田区里塚緑ヶ丘3-8-1",
        "lat": 42.999243,
        "lng": 141.472468
    },
    {
        "code": "A201311000051",
        "type": 16013,
        "name": "からまつ保育園",
        "address": "札幌市清田区里塚2条2-4-12",
        "lat": 42.988987,
        "lng": 141.46182
    },
    {
        "code": "A201311000060",
        "type": 16013,
        "name": "札幌国際大学付属認定こども園",
        "address": "札幌市清田区清田4条2",
        "lat": 42.999442,
        "lng": 141.426984
    },
    {
        "code": "A201311000079",
        "type": 16013,
        "name": "認定こども園つみき",
        "address": "札幌市清田区里塚1条1-14-8",
        "lat": 42.989117,
        "lng": 141.454604
    },
    {
        "code": "B101110000010",
        "type": 16001,
        "name": "北海道教育大学附属札幌小学校",
        "address": "札幌市北区あいの里5-3-1-10",
        "lat": 43.168656,
        "lng": 141.393108
    },
    {
        "code": "B101210110042",
        "type": 16001,
        "name": "中央小学校",
        "address": "札幌市中央区大通東6-12",
        "lat": 43.062445,
        "lng": 141.3659
    },
    {
        "code": "B101210110051",
        "type": 16001,
        "name": "山鼻小学校",
        "address": "札幌市中央区南14条西10-1",
        "lat": 43.04138,
        "lng": 141.344689
    },
    {
        "code": "B101210110060",
        "type": 16001,
        "name": "幌西小学校",
        "address": "札幌市中央区南10条西17-1-1",
        "lat": 43.045853,
        "lng": 141.331418
    },
    {
        "code": "B101210110079",
        "type": 16001,
        "name": "桑園小学校",
        "address": "札幌市中央区北8条西17-1",
        "lat": 43.067832,
        "lng": 141.328842
    },
    {
        "code": "B101210110088",
        "type": 16001,
        "name": "幌南小学校",
        "address": "札幌市中央区南21条西5-1-1",
        "lat": 43.032125,
        "lng": 141.35369
    },
    {
        "code": "B101210110097",
        "type": 16001,
        "name": "円山小学校",
        "address": "札幌市中央区北1条西25-1-8",
        "lat": 43.057782,
        "lng": 141.319511
    },
    {
        "code": "B101210110104",
        "type": 16001,
        "name": "二条小学校",
        "address": "札幌市中央区南2条西15",
        "lat": 43.05531,
        "lng": 141.335523
    },
    {
        "code": "B101210110122",
        "type": 16001,
        "name": "日新小学校",
        "address": "札幌市中央区北8条西25-2-1",
        "lat": 43.066807,
        "lng": 141.317539
    },
    {
        "code": "B101210110131",
        "type": 16001,
        "name": "緑丘小学校",
        "address": "札幌市中央区南十条西22-3‐1",
        "lat": 43.043092,
        "lng": 141.323438
    },
    {
        "code": "B101210110140",
        "type": 16001,
        "name": "盤渓小学校",
        "address": "札幌市中央区盤渓226",
        "lat": 43.031613,
        "lng": 141.279653
    },
    {
        "code": "B101210110159",
        "type": 16001,
        "name": "宮の森小学校",
        "address": "札幌市中央区宮の森4条6-1-1",
        "lat": 43.064009,
        "lng": 141.3026
    },
    {
        "code": "B101210110168",
        "type": 16001,
        "name": "伏見小学校",
        "address": "札幌市中央区南18条西15-1-1",
        "lat": 43.034872,
        "lng": 141.336407
    },
    {
        "code": "B101210110177",
        "type": 16001,
        "name": "大倉山小学校",
        "address": "札幌市中央区宮の森3条13-6-20",
        "lat": 43.051259,
        "lng": 141.297215
    },
    {
        "code": "B101210110186",
        "type": 16001,
        "name": "三角山小学校",
        "address": "札幌市中央区宮の森4条11-4-1",
        "lat": 43.05714,
        "lng": 141.295738
    },
    {
        "code": "B101210110195",
        "type": 16001,
        "name": "山鼻南小学校",
        "address": "札幌市中央区南29条西12-11",
        "lat": 43.021058,
        "lng": 141.344144
    },
    {
        "code": "B101210110202",
        "type": 16001,
        "name": "資生館小学校",
        "address": "札幌市中央区南3条西7",
        "lat": 43.055335,
        "lng": 141.34773
    },
    {
        "code": "B101210220012",
        "type": 16001,
        "name": "北九条小学校",
        "address": "札幌市北区北9条西1-1",
        "lat": 43.07265,
        "lng": 141.353133
    },
    {
        "code": "B101210220021",
        "type": 16001,
        "name": "幌北小学校",
        "address": "札幌市北区北19条西2-1-1",
        "lat": 43.083575,
        "lng": 141.348663
    },
    {
        "code": "B101210220030",
        "type": 16001,
        "name": "白楊小学校",
        "address": "札幌市北区北24条西7-1-1",
        "lat": 43.089936,
        "lng": 141.339038
    },
    {
        "code": "B101210220049",
        "type": 16001,
        "name": "新琴似小学校",
        "address": "札幌市北区新琴似7条3-2-1",
        "lat": 43.112941,
        "lng": 141.330529
    },
    {
        "code": "B101210220058",
        "type": 16001,
        "name": "屯田小学校",
        "address": "札幌市北区屯田7条6-2-2",
        "lat": 43.137175,
        "lng": 141.332325
    },
    {
        "code": "B101210220067",
        "type": 16001,
        "name": "新川小学校",
        "address": "札幌市北区新川5条15-1-1",
        "lat": 43.114511,
        "lng": 141.299072
    },
    {
        "code": "B101210220076",
        "type": 16001,
        "name": "篠路小学校",
        "address": "札幌市北区篠路4条9-3-1",
        "lat": 43.14599,
        "lng": 141.370815
    },
    {
        "code": "B101210220085",
        "type": 16001,
        "name": "茨戸小学校",
        "address": "札幌市北区東茨戸1条2-314-15",
        "lat": 43.160042,
        "lng": 141.356642
    },
    {
        "code": "B101210220094",
        "type": 16001,
        "name": "鴻城小学校",
        "address": "札幌市北区あいの里3条6-2-1",
        "lat": 43.162742,
        "lng": 141.402022
    },
    {
        "code": "B101210220101",
        "type": 16001,
        "name": "和光小学校",
        "address": "札幌市北区北34条西7-3-2",
        "lat": 43.102292,
        "lng": 141.33571
    },
    {
        "code": "B101210220110",
        "type": 16001,
        "name": "光陽小学校",
        "address": "札幌市北区新琴似5条11-4-1",
        "lat": 43.116354,
        "lng": 141.31551
    },
    {
        "code": "B101210220129",
        "type": 16001,
        "name": "新陽小学校",
        "address": "札幌市北区北27条西14-1-1",
        "lat": 43.094474,
        "lng": 141.32708
    },
    {
        "code": "B101210220138",
        "type": 16001,
        "name": "新琴似北小学校",
        "address": "札幌市北区新琴似11条6-1-1",
        "lat": 43.119965,
        "lng": 141.33074
    },
    {
        "code": "B101210220147",
        "type": 16001,
        "name": "新川中央小学校",
        "address": "札幌市北区新川3条3-2-1",
        "lat": 43.098427,
        "lng": 141.32126
    },
    {
        "code": "B101210220156",
        "type": 16001,
        "name": "新琴似西小学校",
        "address": "札幌市北区新琴似11条15-1-5",
        "lat": 43.128528,
        "lng": 141.315929
    },
    {
        "code": "B101210220165",
        "type": 16001,
        "name": "太平小学校",
        "address": "札幌市北区篠路1条2-6-20",
        "lat": 43.141425,
        "lng": 141.352945
    },
    {
        "code": "B101210220174",
        "type": 16001,
        "name": "新琴似南小学校",
        "address": "札幌市北区新琴似1条3-1-1",
        "lat": 43.104226,
        "lng": 141.323225
    },
    {
        "code": "B101210220183",
        "type": 16001,
        "name": "篠路西小学校",
        "address": "札幌市北区篠路5条2-2-1",
        "lat": 43.149167,
        "lng": 141.354403
    },
    {
        "code": "B101210220192",
        "type": 16001,
        "name": "新光小学校",
        "address": "札幌市北区新琴似1条12-1-1",
        "lat": 43.109908,
        "lng": 141.306672
    },
    {
        "code": "B101210220209",
        "type": 16001,
        "name": "拓北小学校",
        "address": "札幌市北区あいの里2条1-24-1",
        "lat": 43.16039,
        "lng": 141.382404
    },
    {
        "code": "B101210220218",
        "type": 16001,
        "name": "屯田南小学校",
        "address": "札幌市北区屯田5条4-6-1",
        "lat": 43.132029,
        "lng": 141.336709
    },
    {
        "code": "B101210220227",
        "type": 16001,
        "name": "北陽小学校",
        "address": "札幌市北区北31条西9-2-1",
        "lat": 43.097422,
        "lng": 141.333837
    },
    {
        "code": "B101210220236",
        "type": 16001,
        "name": "新琴似緑小学校",
        "address": "札幌市北区新琴似10条11-5-1",
        "lat": 43.123117,
        "lng": 141.322224
    },
    {
        "code": "B101210220245",
        "type": 16001,
        "name": "太平南小学校",
        "address": "札幌市北区太平1条1-2-1",
        "lat": 43.123806,
        "lng": 141.347264
    },
    {
        "code": "B101210220254",
        "type": 16001,
        "name": "あいの里西小学校",
        "address": "札幌市北区あいの里2条3-9-1",
        "lat": 43.161139,
        "lng": 141.391545
    },
    {
        "code": "B101210220263",
        "type": 16001,
        "name": "屯田西小学校",
        "address": "札幌市北区屯田6条10-3-1",
        "lat": 43.13572,
        "lng": 141.319854
    },
    {
        "code": "B101210220272",
        "type": 16001,
        "name": "あいの里東小学校",
        "address": "札幌市北区あいの里3条7-11-1",
        "lat": 43.162228,
        "lng": 141.409387
    },
    {
        "code": "B101210220281",
        "type": 16001,
        "name": "百合が原小学校",
        "address": "札幌市北区百合が原6-5-1",
        "lat": 43.134325,
        "lng": 141.365994
    },
    {
        "code": "B101210220290",
        "type": 16001,
        "name": "屯田北小学校",
        "address": "札幌市北区屯田9条3-4-1",
        "lat": 43.143251,
        "lng": 141.342564
    },
    {
        "code": "B101210220815",
        "type": 16001,
        "name": "幌北小学校ひまわり分校",
        "address": "札幌市北区北14条西5",
        "lat": 43.077106,
        "lng": 141.344151
    },
    {
        "code": "B101210330019",
        "type": 16001,
        "name": "苗穂小学校",
        "address": "札幌市東区北9条東13-1-1",
        "lat": 43.075228,
        "lng": 141.373905
    },
    {
        "code": "B101210330028",
        "type": 16001,
        "name": "北光小学校",
        "address": "札幌市東区北12条東6-1-1",
        "lat": 43.077538,
        "lng": 141.362052
    },
    {
        "code": "B101210330037",
        "type": 16001,
        "name": "美香保小学校",
        "address": "札幌市東区北18条東6-1-10",
        "lat": 43.084505,
        "lng": 141.359824
    },
    {
        "code": "B101210330046",
        "type": 16001,
        "name": "札幌小学校",
        "address": "札幌市東区伏古1条2-1-31",
        "lat": 43.082813,
        "lng": 141.387877
    },
    {
        "code": "B101210330055",
        "type": 16001,
        "name": "丘珠小学校",
        "address": "札幌市東区丘珠町593",
        "lat": 43.121797,
        "lng": 141.404702
    },
    {
        "code": "B101210330064",
        "type": 16001,
        "name": "札苗小学校",
        "address": "札幌市東区東苗穂7条2-3-1",
        "lat": 43.093946,
        "lng": 141.411304
    },
    {
        "code": "B101210330073",
        "type": 16001,
        "name": "栄小学校",
        "address": "札幌市東区北42条東10-2-3",
        "lat": 43.113116,
        "lng": 141.35998
    },
    {
        "code": "B101210330082",
        "type": 16001,
        "name": "福移小学校",
        "address": "札幌市東区中沼町240",
        "lat": 43.151731,
        "lng": 141.437871
    },
    {
        "code": "B101210330091",
        "type": 16001,
        "name": "中沼小学校",
        "address": "札幌市東区中沼町73-10",
        "lat": 43.132293,
        "lng": 141.432422
    },
    {
        "code": "B101210330108",
        "type": 16001,
        "name": "北園小学校",
        "address": "札幌市東区北25条東4-3-1",
        "lat": 43.092586,
        "lng": 141.355471
    },
    {
        "code": "B101210330117",
        "type": 16001,
        "name": "元町小学校",
        "address": "札幌市東区北25条東17-1-1",
        "lat": 43.095634,
        "lng": 141.374398
    },
    {
        "code": "B101210330126",
        "type": 16001,
        "name": "北小学校",
        "address": "札幌市東区北33条東4-1-1",
        "lat": 43.10128,
        "lng": 141.352788
    },
    {
        "code": "B101210330135",
        "type": 16001,
        "name": "明園小学校",
        "address": "札幌市東区北19条東14-1-1",
        "lat": 43.086352,
        "lng": 141.37157
    },
    {
        "code": "B101210330144",
        "type": 16001,
        "name": "本町小学校",
        "address": "札幌市東区本町2条7-1-30",
        "lat": 43.076553,
        "lng": 141.393464
    },
    {
        "code": "B101210330153",
        "type": 16001,
        "name": "栄西小学校",
        "address": "札幌市東区北39条東4-1-1",
        "lat": 43.107325,
        "lng": 141.351292
    },
    {
        "code": "B101210330162",
        "type": 16001,
        "name": "栄北小学校",
        "address": "札幌市東区北47条東6-1-1",
        "lat": 43.117705,
        "lng": 141.351855
    },
    {
        "code": "B101210330171",
        "type": 16001,
        "name": "元町北小学校",
        "address": "札幌市東区北31条東14-1",
        "lat": 43.100819,
        "lng": 141.366914
    },
    {
        "code": "B101210330180",
        "type": 16001,
        "name": "栄東小学校",
        "address": "札幌市東区北46条東13-1-1",
        "lat": 43.117354,
        "lng": 141.361493
    },
    {
        "code": "B101210330199",
        "type": 16001,
        "name": "札苗北小学校",
        "address": "札幌市東区東苗穂9条3-2-3",
        "lat": 43.098518,
        "lng": 141.416707
    },
    {
        "code": "B101210330206",
        "type": 16001,
        "name": "東光小学校",
        "address": "札幌市東区本町2条1-2-32",
        "lat": 43.081397,
        "lng": 141.380413
    },
    {
        "code": "B101210330215",
        "type": 16001,
        "name": "栄南小学校",
        "address": "札幌市東区北37条東20-3-1",
        "lat": 43.108722,
        "lng": 141.376693
    },
    {
        "code": "B101210330224",
        "type": 16001,
        "name": "伏古小学校",
        "address": "札幌市東区伏古8条5-2-1",
        "lat": 43.090158,
        "lng": 141.398967
    },
    {
        "code": "B101210330233",
        "type": 16001,
        "name": "開成小学校",
        "address": "札幌市東区北21条東21-3-1",
        "lat": 43.089629,
        "lng": 141.383191
    },
    {
        "code": "B101210330242",
        "type": 16001,
        "name": "栄町小学校",
        "address": "札幌市東区北36条東13-3-1",
        "lat": 43.106121,
        "lng": 141.364624
    },
    {
        "code": "B101210330251",
        "type": 16001,
        "name": "栄緑小学校",
        "address": "札幌市東区北51条東10-1-1",
        "lat": 43.123397,
        "lng": 141.358549
    },
    {
        "code": "B101210330260",
        "type": 16001,
        "name": "東苗穂小学校",
        "address": "札幌市東区東苗穂5条2-3-1",
        "lat": 43.090228,
        "lng": 141.405234
    },
    {
        "code": "B101210330279",
        "type": 16001,
        "name": "伏古北小学校",
        "address": "札幌市東区伏古11条1-2-10",
        "lat": 43.099303,
        "lng": 141.393954
    },
    {
        "code": "B101210330288",
        "type": 16001,
        "name": "札苗緑小学校",
        "address": "札幌市東区東苗穂13条4-9-30",
        "lat": 43.105509,
        "lng": 141.429589
    },
    {
        "code": "B101210440016",
        "type": 16001,
        "name": "東橋小学校",
        "address": "札幌市白石区菊水8条1-3-25",
        "lat": 43.062163,
        "lng": 141.38082
    },
    {
        "code": "B101210440025",
        "type": 16001,
        "name": "白石小学校",
        "address": "札幌市白石区本通1-北4-1",
        "lat": 43.052437,
        "lng": 141.405648
    },
    {
        "code": "B101210440034",
        "type": 16001,
        "name": "上白石小学校",
        "address": "札幌市白石区菊水上町1条3-52",
        "lat": 43.061861,
        "lng": 141.386734
    },
    {
        "code": "B101210440043",
        "type": 16001,
        "name": "大谷地小学校",
        "address": "札幌市白石区本通18-南1-1",
        "lat": 43.032289,
        "lng": 141.436288
    },
    {
        "code": "B101210440061",
        "type": 16001,
        "name": "本郷小学校",
        "address": "札幌市白石区南郷通10-南3-1",
        "lat": 43.037235,
        "lng": 141.416547
    },
    {
        "code": "B101210440070",
        "type": 16001,
        "name": "南郷小学校",
        "address": "札幌市白石区本郷通4-南3-1",
        "lat": 43.044813,
        "lng": 141.4071
    },
    {
        "code": "B101210440089",
        "type": 16001,
        "name": "本通小学校",
        "address": "札幌市白石区平和通9-南1-1",
        "lat": 43.045334,
        "lng": 141.420863
    },
    {
        "code": "B101210440098",
        "type": 16001,
        "name": "東札幌小学校",
        "address": "札幌市白石区東札幌4条5-4-20",
        "lat": 43.048147,
        "lng": 141.395323
    },
    {
        "code": "B101210440105",
        "type": 16001,
        "name": "北郷小学校",
        "address": "札幌市白石区北郷4条5-1-1",
        "lat": 43.058627,
        "lng": 141.419325
    },
    {
        "code": "B101210440114",
        "type": 16001,
        "name": "東白石小学校",
        "address": "札幌市白石区本通14-南6-1",
        "lat": 43.03692,
        "lng": 141.426797
    },
    {
        "code": "B101210440123",
        "type": 16001,
        "name": "北白石小学校",
        "address": "札幌市白石区北郷6条3-5-2",
        "lat": 43.063903,
        "lng": 141.417425
    },
    {
        "code": "B101210440132",
        "type": 16001,
        "name": "西白石小学校",
        "address": "札幌市白石区中央3条5-2-22",
        "lat": 43.058529,
        "lng": 141.40287
    },
    {
        "code": "B101210440141",
        "type": 16001,
        "name": "北都小学校",
        "address": "札幌市白石区北郷3条11-7-1",
        "lat": 43.051309,
        "lng": 141.434974
    },
    {
        "code": "B101210440150",
        "type": 16001,
        "name": "幌東小学校",
        "address": "札幌市白石区菊水6条3-2-65",
        "lat": 43.05798,
        "lng": 141.379195
    },
    {
        "code": "B101210440169",
        "type": 16001,
        "name": "平和通小学校",
        "address": "札幌市白石区本通15-北3-1",
        "lat": 43.038957,
        "lng": 141.432505
    },
    {
        "code": "B101210440178",
        "type": 16001,
        "name": "南白石小学校",
        "address": "札幌市白石区南郷通2-南6-35",
        "lat": 43.042475,
        "lng": 141.399948
    },
    {
        "code": "B101210440187",
        "type": 16001,
        "name": "菊水小学校",
        "address": "札幌市白石区菊水元町2条3-2-14",
        "lat": 43.065901,
        "lng": 141.401328
    },
    {
        "code": "B101210440196",
        "type": 16001,
        "name": "川北小学校",
        "address": "札幌市白石区川北4条2-2-1",
        "lat": 43.06366,
        "lng": 141.43644
    },
    {
        "code": "B101210440203",
        "type": 16001,
        "name": "東川下小学校",
        "address": "札幌市白石区川下4条3-1-1",
        "lat": 43.051023,
        "lng": 141.443877
    },
    {
        "code": "B101210440212",
        "type": 16001,
        "name": "米里小学校",
        "address": "札幌市白石区米里1条3-8-1",
        "lat": 43.073832,
        "lng": 141.418242
    },
    {
        "code": "B101210550012",
        "type": 16001,
        "name": "豊平小学校",
        "address": "札幌市豊平区豊平5条7-1-2",
        "lat": 43.04865,
        "lng": 141.372615
    },
    {
        "code": "B101210550021",
        "type": 16001,
        "name": "東園小学校",
        "address": "札幌市豊平区豊平1条12-1-1",
        "lat": 43.048125,
        "lng": 141.38157
    },
    {
        "code": "B101210550030",
        "type": 16001,
        "name": "旭小学校",
        "address": "札幌市豊平区水車町3-1-22",
        "lat": 43.047502,
        "lng": 141.362843
    },
    {
        "code": "B101210550049",
        "type": 16001,
        "name": "月寒小学校",
        "address": "札幌市豊平区月寒西2条5-1-1",
        "lat": 43.032007,
        "lng": 141.390509
    },
    {
        "code": "B101210550058",
        "type": 16001,
        "name": "平岸小学校",
        "address": "札幌市豊平区平岸2条14-1-28",
        "lat": 43.026027,
        "lng": 141.366871
    },
    {
        "code": "B101210550067",
        "type": 16001,
        "name": "美園小学校",
        "address": "札幌市豊平区平岸5条7-2-21",
        "lat": 43.035913,
        "lng": 141.379007
    },
    {
        "code": "B101210550076",
        "type": 16001,
        "name": "豊園小学校",
        "address": "札幌市豊平区美園1条4-1-1",
        "lat": 43.04443,
        "lng": 141.389054
    },
    {
        "code": "B101210550085",
        "type": 16001,
        "name": "西岡小学校",
        "address": "札幌市豊平区西岡2条9-1-1",
        "lat": 43.006927,
        "lng": 141.381996
    },
    {
        "code": "B101210550094",
        "type": 16001,
        "name": "中の島小学校",
        "address": "札幌市豊平区中の島2条1-1-22",
        "lat": 43.038002,
        "lng": 141.362983
    },
    {
        "code": "B101210550101",
        "type": 16001,
        "name": "月寒東小学校",
        "address": "札幌市豊平区月寒東3条10-1-1",
        "lat": 43.029949,
        "lng": 141.406614
    },
    {
        "code": "B101210550110",
        "type": 16001,
        "name": "羊丘小学校",
        "address": "札幌市豊平区月寒東1条16-3-1",
        "lat": 43.018399,
        "lng": 141.411435
    },
    {
        "code": "B101210550129",
        "type": 16001,
        "name": "東山小学校",
        "address": "札幌市豊平区平岸4条11-6-1",
        "lat": 43.029898,
        "lng": 141.373778
    },
    {
        "code": "B101210550138",
        "type": 16001,
        "name": "平岸西小学校",
        "address": "札幌市豊平区平岸1条15-2",
        "lat": 43.024558,
        "lng": 141.361608
    },
    {
        "code": "B101210550147",
        "type": 16001,
        "name": "しらかば台小学校",
        "address": "札幌市豊平区月寒東4条18-10-43",
        "lat": 43.023128,
        "lng": 141.427683
    },
    {
        "code": "B101210550156",
        "type": 16001,
        "name": "南月寒小学校",
        "address": "札幌市豊平区月寒西4条8-2-1",
        "lat": 43.02667,
        "lng": 141.389625
    },
    {
        "code": "B101210550165",
        "type": 16001,
        "name": "みどり小学校",
        "address": "札幌市豊平区美園5条2-2-1",
        "lat": 43.041816,
        "lng": 141.381503
    },
    {
        "code": "B101210550174",
        "type": 16001,
        "name": "福住小学校",
        "address": "札幌市豊平区福住3条5-1-1",
        "lat": 43.013008,
        "lng": 141.40179
    },
    {
        "code": "B101210550183",
        "type": 16001,
        "name": "西岡南小学校",
        "address": "札幌市豊平区西岡4条12-7-1",
        "lat": 42.996536,
        "lng": 141.379869
    },
    {
        "code": "B101210550192",
        "type": 16001,
        "name": "平岸高台小学校",
        "address": "札幌市豊平区平岸5条18-1-1",
        "lat": 43.0174,
        "lng": 141.372891
    },
    {
        "code": "B101210550209",
        "type": 16001,
        "name": "あやめ野小学校",
        "address": "札幌市豊平区月寒東1条11-7-32",
        "lat": 43.025205,
        "lng": 141.403922
    },
    {
        "code": "B101210550218",
        "type": 16001,
        "name": "西岡北小学校",
        "address": "札幌市豊平区西岡3条6-7-20",
        "lat": 43.012935,
        "lng": 141.386101
    },
    {
        "code": "B101210550815",
        "type": 16001,
        "name": "平岸高台小学校のぞみ分校",
        "address": "札幌市豊平区平岸4条18-1-25",
        "lat": 43.01992,
        "lng": 141.370804
    },
    {
        "code": "B101210660019",
        "type": 16001,
        "name": "藻岩小学校",
        "address": "札幌市南区川沿7条2-3-1",
        "lat": 42.988536,
        "lng": 141.333382
    },
    {
        "code": "B101210660028",
        "type": 16001,
        "name": "南小学校",
        "address": "札幌市南区南31条西9-2-1",
        "lat": 43.016774,
        "lng": 141.349139
    },
    {
        "code": "B101210660037",
        "type": 16001,
        "name": "定山渓小学校",
        "address": "札幌市南区定山渓温泉東4-308",
        "lat": 42.96227,
        "lng": 141.158797
    },
    {
        "code": "B101210660055",
        "type": 16001,
        "name": "簾舞小学校",
        "address": "札幌市南区簾舞1条4-2-1",
        "lat": 42.964423,
        "lng": 141.264681
    },
    {
        "code": "B101210660082",
        "type": 16001,
        "name": "藤の沢小学校",
        "address": "札幌市南区石山528",
        "lat": 42.958372,
        "lng": 141.312431
    },
    {
        "code": "B101210660108",
        "type": 16001,
        "name": "駒岡小学校",
        "address": "札幌市南区真駒内143",
        "lat": 42.958124,
        "lng": 141.358706
    },
    {
        "code": "B101210660135",
        "type": 16001,
        "name": "澄川小学校",
        "address": "札幌市南区澄川5条4-1-1",
        "lat": 43.012689,
        "lng": 141.37089
    },
    {
        "code": "B101210660162",
        "type": 16001,
        "name": "澄川西小学校",
        "address": "札幌市南区澄川2条5-7-2",
        "lat": 43.010413,
        "lng": 141.362177
    },
    {
        "code": "B101210660171",
        "type": 16001,
        "name": "藻岩北小学校",
        "address": "札幌市南区川沿2条3-7-1",
        "lat": 42.999154,
        "lng": 141.330093
    },
    {
        "code": "B101210660180",
        "type": 16001,
        "name": "藤野小学校",
        "address": "札幌市南区藤野2条7-7-1",
        "lat": 42.964046,
        "lng": 141.292732
    },
    {
        "code": "B101210660199",
        "type": 16001,
        "name": "南の沢小学校",
        "address": "札幌市南区南沢3条2-18-1",
        "lat": 42.987356,
        "lng": 141.319082
    },
    {
        "code": "B101210660215",
        "type": 16001,
        "name": "北の沢小学校",
        "address": "札幌市南区北ﾉ沢1727-5",
        "lat": 43.004034,
        "lng": 141.317096
    },
    {
        "code": "B101210660224",
        "type": 16001,
        "name": "藻岩南小学校",
        "address": "札幌市南区川沿18条2-1-15",
        "lat": 42.973123,
        "lng": 141.332234
    },
    {
        "code": "B101210660233",
        "type": 16001,
        "name": "澄川南小学校",
        "address": "札幌市南区澄川5条13-7-1",
        "lat": 42.993285,
        "lng": 141.368555
    },
    {
        "code": "B101210660251",
        "type": 16001,
        "name": "藤野南小学校",
        "address": "札幌市南区藤野4条6-26-1",
        "lat": 42.957174,
        "lng": 141.295656
    },
    {
        "code": "B101210660260",
        "type": 16001,
        "name": "真駒内公園小学校",
        "address": "札幌市南区真駒内曙町2",
        "lat": 43.000486,
        "lng": 141.349724
    },
    {
        "code": "B101210660279",
        "type": 16001,
        "name": "真駒内桜山小学校",
        "address": "札幌市南区真駒内泉町3",
        "lat": 42.984882,
        "lng": 141.355227
    },
    {
        "code": "B101210660288",
        "type": 16001,
        "name": "石山緑小学校",
        "address": "札幌市南区石山1条1-1-1",
        "lat": 42.96651,
        "lng": 141.330588
    },
    {
        "code": "B101210660297",
        "type": 16001,
        "name": "芸術の森小学校",
        "address": "札幌市南区常盤2条3",
        "lat": 42.94654,
        "lng": 141.350233
    },
    {
        "code": "B101210770016",
        "type": 16001,
        "name": "琴似小学校",
        "address": "札幌市西区琴似2条7-1-30",
        "lat": 43.075205,
        "lng": 141.299273
    },
    {
        "code": "B101210770025",
        "type": 16001,
        "name": "琴似中央小学校",
        "address": "札幌市西区八軒7条東1-1-1",
        "lat": 43.086805,
        "lng": 141.317947
    },
    {
        "code": "B101210770034",
        "type": 16001,
        "name": "発寒小学校",
        "address": "札幌市西区発寒10条4-1-62",
        "lat": 43.091476,
        "lng": 141.292892
    },
    {
        "code": "B101210770043",
        "type": 16001,
        "name": "山の手小学校",
        "address": "札幌市西区山の手5条6-1-1",
        "lat": 43.070505,
        "lng": 141.290627
    },
    {
        "code": "B101210770052",
        "type": 16001,
        "name": "手稲東小学校",
        "address": "札幌市西区西野4条3-7-1",
        "lat": 43.071926,
        "lng": 141.278716
    },
    {
        "code": "B101210770061",
        "type": 16001,
        "name": "手稲宮丘小学校",
        "address": "札幌市西区宮の沢3条2-1-1",
        "lat": 43.08473,
        "lng": 141.266326
    },
    {
        "code": "B101210770070",
        "type": 16001,
        "name": "発寒西小学校",
        "address": "札幌市西区発寒5条7-1-2",
        "lat": 43.085733,
        "lng": 141.285164
    },
    {
        "code": "B101210770089",
        "type": 16001,
        "name": "八軒小学校",
        "address": "札幌市西区八軒4条西1-1-8",
        "lat": 43.085806,
        "lng": 141.3121
    },
    {
        "code": "B101210770098",
        "type": 16001,
        "name": "二十四軒小学校",
        "address": "札幌市西区二十四軒2条3-1-37",
        "lat": 43.073,
        "lng": 141.313081
    },
    {
        "code": "B101210770105",
        "type": 16001,
        "name": "発寒南小学校",
        "address": "札幌市西区発寒2条4-1-1",
        "lat": 43.08184,
        "lng": 141.293416
    },
    {
        "code": "B101210770114",
        "type": 16001,
        "name": "西小学校",
        "address": "札幌市西区発寒7条13-2-1",
        "lat": 43.096421,
        "lng": 141.273207
    },
    {
        "code": "B101210770123",
        "type": 16001,
        "name": "西野小学校",
        "address": "札幌市西区西野8条4-4-1",
        "lat": 43.063502,
        "lng": 141.269556
    },
    {
        "code": "B101210770132",
        "type": 16001,
        "name": "発寒東小学校",
        "address": "札幌市西区発寒15条2-2-1",
        "lat": 43.10219,
        "lng": 141.297107
    },
    {
        "code": "B101210770141",
        "type": 16001,
        "name": "西野第二小学校",
        "address": "札幌市西区西野8条7-1-1",
        "lat": 43.067634,
        "lng": 141.26312
    },
    {
        "code": "B101210770150",
        "type": 16001,
        "name": "八軒西小学校",
        "address": "札幌市西区八軒3条西5-1-1",
        "lat": 43.088437,
        "lng": 141.306392
    },
    {
        "code": "B101210770169",
        "type": 16001,
        "name": "福井野小学校",
        "address": "札幌市西区福井6-11-1",
        "lat": 43.055223,
        "lng": 141.266054
    },
    {
        "code": "B101210770178",
        "type": 16001,
        "name": "山の手南小学校",
        "address": "札幌市西区山の手1条9-6-1",
        "lat": 43.06346,
        "lng": 141.29593
    },
    {
        "code": "B101210770187",
        "type": 16001,
        "name": "西園小学校",
        "address": "札幌市西区西野1条7-4-1",
        "lat": 43.081354,
        "lng": 141.27703
    },
    {
        "code": "B101210770196",
        "type": 16001,
        "name": "八軒北小学校",
        "address": "札幌市西区八軒8条西6-1-1",
        "lat": 43.093521,
        "lng": 141.309601
    },
    {
        "code": "B101210770203",
        "type": 16001,
        "name": "平和小学校",
        "address": "札幌市西区平和3条8-2-1",
        "lat": 43.054302,
        "lng": 141.250749
    },
    {
        "code": "B101210845017",
        "type": 16001,
        "name": "信濃小学校",
        "address": "札幌市厚別区厚別中央4条3-6-1",
        "lat": 43.042244,
        "lng": 141.463557
    },
    {
        "code": "B101210845026",
        "type": 16001,
        "name": "小野幌小学校",
        "address": "札幌市厚別区厚別東2条4-5-1",
        "lat": 43.044303,
        "lng": 141.485355
    },
    {
        "code": "B101210845062",
        "type": 16001,
        "name": "共栄小学校",
        "address": "札幌市厚別区厚別南2-21-22",
        "lat": 43.029788,
        "lng": 141.470686
    },
    {
        "code": "B101210845080",
        "type": 16001,
        "name": "ひばりが丘小学校",
        "address": "札幌市厚別区厚別中央2条4-3-1",
        "lat": 43.036552,
        "lng": 141.466266
    },
    {
        "code": "B101210845115",
        "type": 16001,
        "name": "厚別西小学校",
        "address": "札幌市厚別区厚別西3条1-3-1",
        "lat": 43.048163,
        "lng": 141.457813
    },
    {
        "code": "B101210845124",
        "type": 16001,
        "name": "厚別北小学校",
        "address": "札幌市厚別区厚別北2条3-3-1",
        "lat": 43.055079,
        "lng": 141.475604
    },
    {
        "code": "B101210845133",
        "type": 16001,
        "name": "大谷地東小学校",
        "address": "札幌市厚別区大谷地東5-8-1",
        "lat": 43.023941,
        "lng": 141.458693
    },
    {
        "code": "B101210845151",
        "type": 16001,
        "name": "厚別通小学校",
        "address": "札幌市厚別区厚別西4条3-10-30",
        "lat": 43.052477,
        "lng": 141.461802
    },
    {
        "code": "B101210845179",
        "type": 16001,
        "name": "厚別東小学校",
        "address": "札幌市厚別区厚別東4条8-1-1",
        "lat": 43.055138,
        "lng": 141.48659
    },
    {
        "code": "B101210845188",
        "type": 16001,
        "name": "もみじの丘小学校",
        "address": "札幌市厚別区もみじ台東4",
        "lat": 43.029744,
        "lng": 141.497623
    },
    {
        "code": "B101210845197",
        "type": 16001,
        "name": "もみじの森小学校",
        "address": "札幌市厚別区もみじ台西3",
        "lat": 43.031745,
        "lng": 141.486546
    },
    {
        "code": "B101210845204",
        "type": 16001,
        "name": "ノホロの丘小学校",
        "address": "札幌市厚別区上野幌2条4-5-1",
        "lat": 43.014288,
        "lng": 141.475375
    },
    {
        "code": "B101210845213",
        "type": 16001,
        "name": "新札幌わかば小学校",
        "address": "札幌市厚別区厚別南7",
        "lat": 43.022495,
        "lng": 141.479246
    },
    {
        "code": "B101210975019",
        "type": 16001,
        "name": "手稲中央小学校",
        "address": "札幌市手稲区手稲本町3条2-6-1",
        "lat": 43.115538,
        "lng": 141.240789
    },
    {
        "code": "B101210975028",
        "type": 16001,
        "name": "手稲西小学校",
        "address": "札幌市手稲区金山3条2-8-60",
        "lat": 43.12344,
        "lng": 141.20283
    },
    {
        "code": "B101210975037",
        "type": 16001,
        "name": "手稲北小学校",
        "address": "札幌市手稲区手稲山口653-2",
        "lat": 43.142172,
        "lng": 141.208277
    },
    {
        "code": "B101210975046",
        "type": 16001,
        "name": "手稲鉄北小学校",
        "address": "札幌市手稲区前田2条12-1-2",
        "lat": 43.124458,
        "lng": 141.245719
    },
    {
        "code": "B101210975055",
        "type": 16001,
        "name": "手稲山口小学校",
        "address": "札幌市手稲区曙11条2-7-1",
        "lat": 43.145867,
        "lng": 141.235799
    },
    {
        "code": "B101210975064",
        "type": 16001,
        "name": "富丘小学校",
        "address": "札幌市手稲区富丘1条6-4-1",
        "lat": 43.114498,
        "lng": 141.252301
    },
    {
        "code": "B101210975073",
        "type": 16001,
        "name": "前田小学校",
        "address": "札幌市手稲区前田6条11-3-1",
        "lat": 43.127423,
        "lng": 141.25365
    },
    {
        "code": "B101210975082",
        "type": 16001,
        "name": "前田北小学校",
        "address": "札幌市手稲区前田10条18-4-1",
        "lat": 43.143411,
        "lng": 141.24782
    },
    {
        "code": "B101210975091",
        "type": 16001,
        "name": "新陵小学校",
        "address": "札幌市手稲区新発寒6条6-3-1",
        "lat": 43.119749,
        "lng": 141.272513
    },
    {
        "code": "B101210975108",
        "type": 16001,
        "name": "稲穂小学校",
        "address": "札幌市手稲区稲穂4条5-12-5",
        "lat": 43.123252,
        "lng": 141.218674
    },
    {
        "code": "B101210975117",
        "type": 16001,
        "name": "前田中央小学校",
        "address": "札幌市手稲区前田8条12-2-1",
        "lat": 43.131602,
        "lng": 141.255998
    },
    {
        "code": "B101210975126",
        "type": 16001,
        "name": "稲積小学校",
        "address": "札幌市手稲区前田5条7-1-1",
        "lat": 43.120876,
        "lng": 141.259294
    },
    {
        "code": "B101210975135",
        "type": 16001,
        "name": "新発寒小学校",
        "address": "札幌市手稲区新発寒2条2-1115-307",
        "lat": 43.107465,
        "lng": 141.270345
    },
    {
        "code": "B101210975144",
        "type": 16001,
        "name": "西宮の沢小学校",
        "address": "札幌市手稲区西宮の沢2条4-15-1",
        "lat": 43.10622,
        "lng": 141.25968
    },
    {
        "code": "B101210975153",
        "type": 16001,
        "name": "新陵東小学校",
        "address": "札幌市手稲区新発寒5条4-2-1",
        "lat": 43.11423,
        "lng": 141.272627
    },
    {
        "code": "B101210975162",
        "type": 16001,
        "name": "星置東小学校",
        "address": "札幌市手稲区星置2条1-6-1",
        "lat": 43.135171,
        "lng": 141.217103
    },
    {
        "code": "B101211055010",
        "type": 16001,
        "name": "清田小学校",
        "address": "札幌市清田区清田1条4-3-30",
        "lat": 43.001312,
        "lng": 141.440302
    },
    {
        "code": "B101211055029",
        "type": 16001,
        "name": "有明小学校",
        "address": "札幌市清田区有明141-2",
        "lat": 42.950127,
        "lng": 141.451172
    },
    {
        "code": "B101211055038",
        "type": 16001,
        "name": "三里塚小学校",
        "address": "札幌市清田区里塚2条6-7-1",
        "lat": 42.980799,
        "lng": 141.469328
    },
    {
        "code": "B101211055047",
        "type": 16001,
        "name": "北野小学校",
        "address": "札幌市清田区北野3条2-10-1",
        "lat": 43.015122,
        "lng": 141.43325
    },
    {
        "code": "B101211055056",
        "type": 16001,
        "name": "清田南小学校",
        "address": "札幌市清田区清田5条2-18-1",
        "lat": 42.996801,
        "lng": 141.430417
    },
    {
        "code": "B101211055065",
        "type": 16001,
        "name": "北野台小学校",
        "address": "札幌市清田区北野4条5-4-80",
        "lat": 43.011936,
        "lng": 141.44718
    },
    {
        "code": "B101211055074",
        "type": 16001,
        "name": "北野平小学校",
        "address": "札幌市清田区北野2条3-7-1",
        "lat": 43.009798,
        "lng": 141.434998
    },
    {
        "code": "B101211055083",
        "type": 16001,
        "name": "清田緑小学校",
        "address": "札幌市清田区清田7条3-12-30",
        "lat": 42.987928,
        "lng": 141.434393
    },
    {
        "code": "B101211055092",
        "type": 16001,
        "name": "平岡小学校",
        "address": "札幌市清田区平岡9条2-5-1",
        "lat": 43.015262,
        "lng": 141.458832
    },
    {
        "code": "B101211055109",
        "type": 16001,
        "name": "真栄小学校",
        "address": "札幌市清田区美しが丘1条1-1-10",
        "lat": 42.989821,
        "lng": 141.4482
    },
    {
        "code": "B101211055118",
        "type": 16001,
        "name": "平岡南小学校",
        "address": "札幌市清田区平岡2条6-2-1",
        "lat": 42.992684,
        "lng": 141.456814
    },
    {
        "code": "B101211055127",
        "type": 16001,
        "name": "平岡中央小学校",
        "address": "札幌市清田区平岡5条3",
        "lat": 43.006095,
        "lng": 141.457035
    },
    {
        "code": "B101211055136",
        "type": 16001,
        "name": "美しが丘小学校",
        "address": "札幌市清田区美しが丘2条5-1-1",
        "lat": 42.983796,
        "lng": 141.454473
    },
    {
        "code": "B101211055145",
        "type": 16001,
        "name": "平岡公園小学校",
        "address": "札幌市清田区平岡公園東5-9-1",
        "lat": 43.004485,
        "lng": 141.474281
    },
    {
        "code": "B101211055154",
        "type": 16001,
        "name": "美しが丘緑小学校",
        "address": "札幌市清田区美しが丘4条5-8-1",
        "lat": 42.978112,
        "lng": 141.452442
    },
    {
        "code": "B101310200014",
        "type": 16001,
        "name": "札幌三育小学校",
        "address": "札幌市北区拓北4条1-14-1",
        "lat": 43.153851,
        "lng": 141.373749
    },
    {
        "code": "C101110000018",
        "type": 16002,
        "name": "北海道教育大学附属札幌中学校",
        "address": "札幌市北区あいの里5-3-1-11",
        "lat": 43.168906,
        "lng": 141.391497
    },
    {
        "code": "C101210110013",
        "type": 16002,
        "name": "柏中学校",
        "address": "札幌市中央区南21条西5-1-2",
        "lat": 43.031394,
        "lng": 141.35329
    },
    {
        "code": "C101210110022",
        "type": 16002,
        "name": "中央中学校",
        "address": "札幌市中央区北4条東3",
        "lat": 43.067695,
        "lng": 141.359617
    },
    {
        "code": "C101210110031",
        "type": 16002,
        "name": "中島中学校",
        "address": "札幌市中央区南12条西7-2-1",
        "lat": 43.043788,
        "lng": 141.349493
    },
    {
        "code": "C101210110040",
        "type": 16002,
        "name": "啓明中学校",
        "address": "札幌市中央区南9条西22-2-1",
        "lat": 43.044305,
        "lng": 141.322663
    },
    {
        "code": "C101210110059",
        "type": 16002,
        "name": "向陵中学校",
        "address": "札幌市中央区北4条西28-1-30",
        "lat": 43.060463,
        "lng": 141.313868
    },
    {
        "code": "C101210110068",
        "type": 16002,
        "name": "伏見中学校",
        "address": "札幌市中央区南16条西17-1-35",
        "lat": 43.037266,
        "lng": 141.333321
    },
    {
        "code": "C101210110077",
        "type": 16002,
        "name": "宮の森中学校",
        "address": "札幌市中央区宮の森1条16-5-1",
        "lat": 43.04664,
        "lng": 141.295456
    },
    {
        "code": "C101210110086",
        "type": 16002,
        "name": "山鼻中学校",
        "address": "札幌市中央区南23条西13-1-1",
        "lat": 43.028805,
        "lng": 141.340646
    },
    {
        "code": "C101210220010",
        "type": 16002,
        "name": "北辰中学校",
        "address": "札幌市北区北18条西2-2-1",
        "lat": 43.08267,
        "lng": 141.348501
    },
    {
        "code": "C101210220029",
        "type": 16002,
        "name": "新琴似中学校",
        "address": "札幌市北区新琴似7条4-1-1",
        "lat": 43.112886,
        "lng": 141.329514
    },
    {
        "code": "C101210220038",
        "type": 16002,
        "name": "篠路中学校",
        "address": "札幌市北区篠路町篠路368",
        "lat": 43.156934,
        "lng": 141.372943
    },
    {
        "code": "C101210220047",
        "type": 16002,
        "name": "北陽中学校",
        "address": "札幌市北区北34条西7-3-1",
        "lat": 43.101118,
        "lng": 141.334848
    },
    {
        "code": "C101210220056",
        "type": 16002,
        "name": "新琴似北中学校",
        "address": "札幌市北区新琴似10条10-2-46",
        "lat": 43.121918,
        "lng": 141.324997
    },
    {
        "code": "C101210220065",
        "type": 16002,
        "name": "新川中学校",
        "address": "札幌市北区新川4条3-1-1",
        "lat": 43.099046,
        "lng": 141.321878
    },
    {
        "code": "C101210220074",
        "type": 16002,
        "name": "光陽中学校",
        "address": "札幌市北区新琴似4条11-7-1",
        "lat": 43.115113,
        "lng": 141.313449
    },
    {
        "code": "C101210220083",
        "type": 16002,
        "name": "太平中学校",
        "address": "札幌市北区太平8条2-1-1",
        "lat": 43.133934,
        "lng": 141.350183
    },
    {
        "code": "C101210220092",
        "type": 16002,
        "name": "屯田中央中学校",
        "address": "札幌市北区屯田6条8-1-1",
        "lat": 43.134459,
        "lng": 141.326876
    },
    {
        "code": "C101210220109",
        "type": 16002,
        "name": "篠路西中学校",
        "address": "札幌市北区篠路6条2-1-50",
        "lat": 43.150659,
        "lng": 141.354598
    },
    {
        "code": "C101210220118",
        "type": 16002,
        "name": "新川西中学校",
        "address": "札幌市北区新川4条15-1-1",
        "lat": 43.113004,
        "lng": 141.299654
    },
    {
        "code": "C101210220127",
        "type": 16002,
        "name": "上篠路中学校",
        "address": "札幌市北区篠路町上篠路116-14",
        "lat": 43.134908,
        "lng": 141.370917
    },
    {
        "code": "C101210220136",
        "type": 16002,
        "name": "あいの里東中学校",
        "address": "札幌市北区あいの里2条7-14-1",
        "lat": 43.159915,
        "lng": 141.409752
    },
    {
        "code": "C101210220145",
        "type": 16002,
        "name": "屯田北中学校",
        "address": "札幌市北区屯田9条4-2-1",
        "lat": 43.143135,
        "lng": 141.339075
    },
    {
        "code": "C101210220813",
        "type": 16002,
        "name": "北辰中学校ひまわり分校",
        "address": "札幌市北区北14条西5",
        "lat": 43.077103,
        "lng": 141.344154
    },
    {
        "code": "C101210330017",
        "type": 16002,
        "name": "美香保中学校",
        "address": "札幌市東区北17条東6-1-1",
        "lat": 43.083262,
        "lng": 141.360616
    },
    {
        "code": "C101210330026",
        "type": 16002,
        "name": "北栄中学校",
        "address": "札幌市東区北33条東2-1-1",
        "lat": 43.10084,
        "lng": 141.350015
    },
    {
        "code": "C101210330035",
        "type": 16002,
        "name": "札幌中学校",
        "address": "札幌市東区伏古8条1-1-28",
        "lat": 43.095311,
        "lng": 141.389038
    },
    {
        "code": "C101210330044",
        "type": 16002,
        "name": "福移中学校",
        "address": "札幌市東区中沼町240",
        "lat": 43.15166,
        "lng": 141.437855
    },
    {
        "code": "C101210330053",
        "type": 16002,
        "name": "東栄中学校",
        "address": "札幌市東区本町1条7-2-7",
        "lat": 43.075718,
        "lng": 141.392888
    },
    {
        "code": "C101210330062",
        "type": 16002,
        "name": "明園中学校",
        "address": "札幌市東区北22条東12-1-1",
        "lat": 43.090517,
        "lng": 141.366562
    },
    {
        "code": "C101210330071",
        "type": 16002,
        "name": "栄中学校",
        "address": "札幌市東区北46条東6-1-1",
        "lat": 43.116265,
        "lng": 141.352234
    },
    {
        "code": "C101210330080",
        "type": 16002,
        "name": "札苗中学校",
        "address": "札幌市東区東苗穂7条1-1-1",
        "lat": 43.097007,
        "lng": 141.405806
    },
    {
        "code": "C101210330099",
        "type": 16002,
        "name": "栄南中学校",
        "address": "札幌市東区北36条東16-1-1",
        "lat": 43.106368,
        "lng": 141.369694
    },
    {
        "code": "C101210330106",
        "type": 16002,
        "name": "元町中学校",
        "address": "札幌市東区北28条東20-1-1",
        "lat": 43.100081,
        "lng": 141.380723
    },
    {
        "code": "C101210330115",
        "type": 16002,
        "name": "丘珠中学校",
        "address": "札幌市東区丘珠町674",
        "lat": 43.120621,
        "lng": 141.400991
    },
    {
        "code": "C101210330124",
        "type": 16002,
        "name": "栄町中学校",
        "address": "札幌市東区北36条東14-1-1",
        "lat": 43.105616,
        "lng": 141.365801
    },
    {
        "code": "C101210330133",
        "type": 16002,
        "name": "札苗北中学校",
        "address": "札幌市東区東苗穂10条3-16-20",
        "lat": 43.100352,
        "lng": 141.421298
    },
    {
        "code": "C101210440014",
        "type": 16002,
        "name": "幌東中学校",
        "address": "札幌市白石区菊水6条3-2-51",
        "lat": 43.057001,
        "lng": 141.380505
    },
    {
        "code": "C101210440023",
        "type": 16002,
        "name": "白石中学校",
        "address": "札幌市白石区本郷通6-南1-1",
        "lat": 43.043345,
        "lng": 141.410257
    },
    {
        "code": "C101210440041",
        "type": 16002,
        "name": "日章中学校",
        "address": "札幌市白石区東札幌4条5-1-1",
        "lat": 43.04828,
        "lng": 141.393057
    },
    {
        "code": "C101210440050",
        "type": 16002,
        "name": "柏丘中学校",
        "address": "札幌市白石区平和通8-北3-1",
        "lat": 43.047957,
        "lng": 141.420437
    },
    {
        "code": "C101210440069",
        "type": 16002,
        "name": "東白石中学校",
        "address": "札幌市白石区南郷通15-北4-1",
        "lat": 43.035277,
        "lng": 141.42855
    },
    {
        "code": "C101210440078",
        "type": 16002,
        "name": "北白石中学校",
        "address": "札幌市白石区北郷6条3-5-1",
        "lat": 43.064473,
        "lng": 141.418267
    },
    {
        "code": "C101210440087",
        "type": 16002,
        "name": "北都中学校",
        "address": "札幌市白石区川下749-56",
        "lat": 43.057198,
        "lng": 141.441444
    },
    {
        "code": "C101210440096",
        "type": 16002,
        "name": "米里中学校",
        "address": "札幌市白石区米里1条4-5-1",
        "lat": 43.07097,
        "lng": 141.419396
    },
    {
        "code": "C101210550010",
        "type": 16002,
        "name": "八条中学校",
        "address": "札幌市豊平区豊平8条13-2-1",
        "lat": 43.040849,
        "lng": 141.377114
    },
    {
        "code": "C101210550029",
        "type": 16002,
        "name": "月寒中学校",
        "address": "札幌市豊平区月寒東2条2-4-54",
        "lat": 43.038742,
        "lng": 141.398616
    },
    {
        "code": "C101210550038",
        "type": 16002,
        "name": "平岸中学校",
        "address": "札幌市豊平区平岸1条21-3-1",
        "lat": 43.017784,
        "lng": 141.35796
    },
    {
        "code": "C101210550047",
        "type": 16002,
        "name": "陵陽中学校",
        "address": "札幌市豊平区平岸6条11-1-25",
        "lat": 43.029716,
        "lng": 141.380706
    },
    {
        "code": "C101210550056",
        "type": 16002,
        "name": "羊丘中学校",
        "address": "札幌市豊平区福住1条3-16-1",
        "lat": 43.018348,
        "lng": 141.397104
    },
    {
        "code": "C101210550065",
        "type": 16002,
        "name": "東月寒中学校",
        "address": "札幌市豊平区月寒東3条18-1-72",
        "lat": 43.019367,
        "lng": 141.421439
    },
    {
        "code": "C101210550074",
        "type": 16002,
        "name": "西岡中学校",
        "address": "札幌市豊平区西岡3条12-1-1",
        "lat": 42.997189,
        "lng": 141.377453
    },
    {
        "code": "C101210550083",
        "type": 16002,
        "name": "中の島中学校",
        "address": "札幌市豊平区中の島2条3-9-1",
        "lat": 43.034437,
        "lng": 141.361494
    },
    {
        "code": "C101210550092",
        "type": 16002,
        "name": "西岡北中学校",
        "address": "札幌市豊平区西岡3条8-1-1",
        "lat": 43.008293,
        "lng": 141.383669
    },
    {
        "code": "C101210550109",
        "type": 16002,
        "name": "あやめ野中学校",
        "address": "札幌市豊平区月寒東3条11-15-1",
        "lat": 43.029698,
        "lng": 141.41706
    },
    {
        "code": "C101210550813",
        "type": 16002,
        "name": "平岸中学校のぞみ分校",
        "address": "札幌市豊平区平岸4条18-1-25",
        "lat": 43.019773,
        "lng": 141.370813
    },
    {
        "code": "C101210660017",
        "type": 16002,
        "name": "藻岩中学校",
        "address": "札幌市南区川沿7条3-4-1",
        "lat": 42.988296,
        "lng": 141.330844
    },
    {
        "code": "C101210660026",
        "type": 16002,
        "name": "石山中学校",
        "address": "札幌市南区石山2条8-7-1",
        "lat": 42.959183,
        "lng": 141.317523
    },
    {
        "code": "C101210660035",
        "type": 16002,
        "name": "定山渓中学校",
        "address": "札幌市南区定山渓温泉西1-31",
        "lat": 42.9721,
        "lng": 141.170773
    },
    {
        "code": "C101210660044",
        "type": 16002,
        "name": "簾舞中学校",
        "address": "札幌市南区簾舞3条3-3-33",
        "lat": 42.9607,
        "lng": 141.266882
    },
    {
        "code": "C101210660062",
        "type": 16002,
        "name": "常盤中学校",
        "address": "札幌市南区常盤2条2-21-1",
        "lat": 42.946884,
        "lng": 141.348218
    },
    {
        "code": "C101210660071",
        "type": 16002,
        "name": "真駒内中学校",
        "address": "札幌市南区真駒内幸町3-1-1",
        "lat": 42.98937,
        "lng": 141.356316
    },
    {
        "code": "C101210660080",
        "type": 16002,
        "name": "澄川中学校",
        "address": "札幌市南区澄川6条6-1-10",
        "lat": 43.007656,
        "lng": 141.372893
    },
    {
        "code": "C101210660099",
        "type": 16002,
        "name": "真駒内曙中学校",
        "address": "札幌市南区真駒内曙町2-1-2",
        "lat": 42.999523,
        "lng": 141.350117
    },
    {
        "code": "C101210660106",
        "type": 16002,
        "name": "藤野中学校",
        "address": "札幌市南区藤野5条6-3-1",
        "lat": 42.9559,
        "lng": 141.291574
    },
    {
        "code": "C101210660115",
        "type": 16002,
        "name": "南が丘中学校",
        "address": "札幌市南区南沢2条1-17-1",
        "lat": 42.984965,
        "lng": 141.325251
    },
    {
        "code": "C101210770014",
        "type": 16002,
        "name": "琴似中学校",
        "address": "札幌市西区山の手4条2-1-1",
        "lat": 43.071599,
        "lng": 141.296611
    },
    {
        "code": "C101210770023",
        "type": 16002,
        "name": "陵北中学校",
        "address": "札幌市西区二十四軒2条3-1-23",
        "lat": 43.072467,
        "lng": 141.314101
    },
    {
        "code": "C101210770032",
        "type": 16002,
        "name": "八軒中学校",
        "address": "札幌市西区八軒8条西8-1-1",
        "lat": 43.095304,
        "lng": 141.306092
    },
    {
        "code": "C101210770041",
        "type": 16002,
        "name": "手稲東中学校",
        "address": "札幌市西区西野2条5-3-1",
        "lat": 43.078023,
        "lng": 141.280631
    },
    {
        "code": "C101210770050",
        "type": 16002,
        "name": "発寒中学校",
        "address": "札幌市西区発寒5条7-1-1",
        "lat": 43.085952,
        "lng": 141.286308
    },
    {
        "code": "C101210770069",
        "type": 16002,
        "name": "西陵中学校",
        "address": "札幌市西区発寒15条2-5-1",
        "lat": 43.103277,
        "lng": 141.297088
    },
    {
        "code": "C101210770078",
        "type": 16002,
        "name": "西野中学校",
        "address": "札幌市西区西野8条7-5-1",
        "lat": 43.066069,
        "lng": 141.262192
    },
    {
        "code": "C101210770087",
        "type": 16002,
        "name": "八軒東中学校",
        "address": "札幌市西区八軒2条東3-1-20",
        "lat": 43.08004,
        "lng": 141.315551
    },
    {
        "code": "C101210770096",
        "type": 16002,
        "name": "宮の丘中学校",
        "address": "札幌市西区西野3条10-9-1",
        "lat": 43.081288,
        "lng": 141.268419
    },
    {
        "code": "C101210770103",
        "type": 16002,
        "name": "福井野中学校",
        "address": "札幌市西区福井6-12-10",
        "lat": 43.056443,
        "lng": 141.264903
    },
    {
        "code": "C101210845015",
        "type": 16002,
        "name": "信濃中学校",
        "address": "札幌市厚別区厚別中央3条2-3-1",
        "lat": 43.036543,
        "lng": 141.459805
    },
    {
        "code": "C101210845024",
        "type": 16002,
        "name": "もみじ台中学校",
        "address": "札幌市厚別区もみじ台西1-1",
        "lat": 43.038172,
        "lng": 141.484534
    },
    {
        "code": "C101210845033",
        "type": 16002,
        "name": "もみじ台南中学校",
        "address": "札幌市厚別区もみじ台南7-3",
        "lat": 43.02239,
        "lng": 141.504009
    },
    {
        "code": "C101210845042",
        "type": 16002,
        "name": "青葉中学校",
        "address": "札幌市厚別区青葉町10-1-1",
        "lat": 43.024535,
        "lng": 141.480253
    },
    {
        "code": "C101210845051",
        "type": 16002,
        "name": "厚別中学校",
        "address": "札幌市厚別区厚別東3条5-1-1",
        "lat": 43.047156,
        "lng": 141.487508
    },
    {
        "code": "C101210845060",
        "type": 16002,
        "name": "厚別南中学校",
        "address": "札幌市厚別区大谷地東7-1-1",
        "lat": 43.028983,
        "lng": 141.460568
    },
    {
        "code": "C101210845079",
        "type": 16002,
        "name": "上野幌中学校",
        "address": "札幌市厚別区上野幌2条3-10-1",
        "lat": 43.015917,
        "lng": 141.472046
    },
    {
        "code": "C101210845088",
        "type": 16002,
        "name": "厚別北中学校",
        "address": "札幌市厚別区厚別町小野幌774-5",
        "lat": 43.059094,
        "lng": 141.470098
    },
    {
        "code": "C101210975017",
        "type": 16002,
        "name": "手稲中学校",
        "address": "札幌市手稲区富丘3条5-2-1",
        "lat": 43.107964,
        "lng": 141.247881
    },
    {
        "code": "C101210975026",
        "type": 16002,
        "name": "手稲西中学校",
        "address": "札幌市手稲区金山3条2-8-7",
        "lat": 43.123659,
        "lng": 141.20392
    },
    {
        "code": "C101210975035",
        "type": 16002,
        "name": "稲陵中学校",
        "address": "札幌市手稲区曙7条2-6-50",
        "lat": 43.139336,
        "lng": 141.236488
    },
    {
        "code": "C101210975044",
        "type": 16002,
        "name": "前田中学校",
        "address": "札幌市手稲区前田7条13-1-1",
        "lat": 43.130862,
        "lng": 141.25153
    },
    {
        "code": "C101210975053",
        "type": 16002,
        "name": "稲積中学校",
        "address": "札幌市手稲区前田4条5-2-1",
        "lat": 43.117358,
        "lng": 141.262204
    },
    {
        "code": "C101210975062",
        "type": 16002,
        "name": "稲穂中学校",
        "address": "札幌市手稲区稲穂4条2-18-10",
        "lat": 43.119118,
        "lng": 141.2272
    },
    {
        "code": "C101210975071",
        "type": 16002,
        "name": "新陵中学校",
        "address": "札幌市手稲区新発寒5条4-4-1",
        "lat": 43.11526,
        "lng": 141.273962
    },
    {
        "code": "C101210975080",
        "type": 16002,
        "name": "前田北中学校",
        "address": "札幌市手稲区前田10条15-8-1",
        "lat": 43.13885,
        "lng": 141.252159
    },
    {
        "code": "C101210975099",
        "type": 16002,
        "name": "星置中学校",
        "address": "札幌市手稲区星置3条5-13-1",
        "lat": 43.139923,
        "lng": 141.203882
    },
    {
        "code": "C101211055018",
        "type": 16002,
        "name": "清田中学校",
        "address": "札幌市清田区清田3条3-7-1",
        "lat": 42.997175,
        "lng": 141.434661
    },
    {
        "code": "C101211055027",
        "type": 16002,
        "name": "北野中学校",
        "address": "札幌市清田区北野2条3-7-30",
        "lat": 43.008761,
        "lng": 141.436585
    },
    {
        "code": "C101211055036",
        "type": 16002,
        "name": "平岡中学校",
        "address": "札幌市清田区平岡2条5-4-10",
        "lat": 42.993595,
        "lng": 141.455178
    },
    {
        "code": "C101211055045",
        "type": 16002,
        "name": "北野台中学校",
        "address": "札幌市清田区北野4条4-13-1",
        "lat": 43.012748,
        "lng": 141.443507
    },
    {
        "code": "C101211055054",
        "type": 16002,
        "name": "真栄中学校",
        "address": "札幌市清田区美しが丘1条1-2-10",
        "lat": 42.989004,
        "lng": 141.4488
    },
    {
        "code": "C101211055063",
        "type": 16002,
        "name": "平岡中央中学校",
        "address": "札幌市清田区平岡5条4-7-1",
        "lat": 43.004488,
        "lng": 141.457863
    },
    {
        "code": "C101211055072",
        "type": 16002,
        "name": "平岡緑中学校",
        "address": "札幌市清田区平岡公園東9-11-1",
        "lat": 43.001108,
        "lng": 141.475749
    },
    {
        "code": "C101310100013",
        "type": 16002,
        "name": "北星学園女子中学校",
        "address": "札幌市中央区南4条西17-2-2",
        "lat": 43.053068,
        "lng": 141.330633
    },
    {
        "code": "C101310100022",
        "type": 16002,
        "name": "札幌聖心女子学院中学校",
        "address": "札幌市中央区宮の森2条16-10-1",
        "lat": 43.047306,
        "lng": 141.290374
    },
    {
        "code": "C101310200012",
        "type": 16002,
        "name": "藤女子中学校",
        "address": "札幌市北区北16条西2-1-2",
        "lat": 43.080007,
        "lng": 141.349901
    },
    {
        "code": "C101310300011",
        "type": 16002,
        "name": "札幌光星中学校",
        "address": "札幌市東区北13条東9-1-1",
        "lat": 43.07855,
        "lng": 141.366032
    },
    {
        "code": "C101310300020",
        "type": 16002,
        "name": "札幌大谷中学校",
        "address": "札幌市東区北16条東9",
        "lat": 43.081985,
        "lng": 141.365369
    },
    {
        "code": "C101310800016",
        "type": 16002,
        "name": "星槎もみじ中学校",
        "address": "札幌市厚別区もみじ台北5-12-1",
        "lat": 43.035946,
        "lng": 141.492257
    },
    {
        "code": "C101311000012",
        "type": 16002,
        "name": "北嶺中学校",
        "address": "札幌市清田区真栄448-1",
        "lat": 42.970896,
        "lng": 141.426366
    },
    {
        "code": "D101210100013",
        "type": 16004,
        "name": "札幌西高等学校",
        "address": "札幌市中央区宮の森4条8-1",
        "lat": 43.062276,
        "lng": 141.299317
    },
    {
        "code": "D101210100022",
        "type": 16004,
        "name": "札幌南高等学校",
        "address": "札幌市中央区南18条西6-1-1",
        "lat": 43.036337,
        "lng": 141.353203
    },
    {
        "code": "D101210100031",
        "type": 16004,
        "name": "札幌旭丘高等学校",
        "address": "札幌市中央区旭ヶ丘6-5-18",
        "lat": 43.03778,
        "lng": 141.319206
    },
    {
        "code": "D101210100040",
        "type": 16004,
        "name": "札幌大通高等学校",
        "address": "札幌市中央区北2条西11",
        "lat": 43.062403,
        "lng": 141.339677
    },
    {
        "code": "D101210200012",
        "type": 16004,
        "name": "札幌北高等学校",
        "address": "札幌市北区北25条西11-1-1",
        "lat": 43.091417,
        "lng": 141.333617
    },
    {
        "code": "D101210200021",
        "type": 16004,
        "name": "札幌工業高等学校",
        "address": "札幌市北区北20条西13",
        "lat": 43.082942,
        "lng": 141.33134
    },
    {
        "code": "D101210200030",
        "type": 16004,
        "name": "札幌北陵高等学校",
        "address": "札幌市北区屯田7条8-5-1",
        "lat": 43.138379,
        "lng": 141.328698
    },
    {
        "code": "D101210200049",
        "type": 16004,
        "name": "札幌英藍高等学校",
        "address": "札幌市北区篠路町篠路372-67",
        "lat": 43.159714,
        "lng": 141.370026
    },
    {
        "code": "D101210200058",
        "type": 16004,
        "name": "札幌国際情報高等学校",
        "address": "札幌市北区新川717-1",
        "lat": 43.120075,
        "lng": 141.297619
    },
    {
        "code": "D101210200067",
        "type": 16004,
        "name": "有朋高等学校",
        "address": "札幌市北区屯田9条7-5",
        "lat": 43.143863,
        "lng": 141.330713
    },
    {
        "code": "D101210200076",
        "type": 16004,
        "name": "札幌新川高等学校",
        "address": "札幌市北区新川5条14-1-1",
        "lat": 43.112965,
        "lng": 141.301063
    },
    {
        "code": "D101210300011",
        "type": 16004,
        "name": "札幌丘珠高等学校",
        "address": "札幌市東区北丘珠1条2-589-1",
        "lat": 43.121384,
        "lng": 141.409054
    },
    {
        "code": "D101210300020",
        "type": 16004,
        "name": "札幌東陵高等学校",
        "address": "札幌市東区東苗穂10条1-2-21",
        "lat": 43.102803,
        "lng": 141.412416
    },
    {
        "code": "D101210300039",
        "type": 16004,
        "name": "札幌東豊高等学校",
        "address": "札幌市東区東雁来町376-1",
        "lat": 43.110081,
        "lng": 141.434497
    },
    {
        "code": "D101210400010",
        "type": 16004,
        "name": "札幌東高等学校",
        "address": "札幌市白石区菊水9条3-1-5",
        "lat": 43.060432,
        "lng": 141.385128
    },
    {
        "code": "D101210400029",
        "type": 16004,
        "name": "札幌白石高等学校",
        "address": "札幌市白石区川北2261",
        "lat": 43.064809,
        "lng": 141.439832
    },
    {
        "code": "D101210400038",
        "type": 16004,
        "name": "札幌白陵高等学校",
        "address": "札幌市白石区東米里2062-10",
        "lat": 43.08128,
        "lng": 141.456246
    },
    {
        "code": "D101210500019",
        "type": 16004,
        "name": "札幌月寒高等学校",
        "address": "札幌市豊平区月寒東1条3-4-54",
        "lat": 43.035392,
        "lng": 141.395285
    },
    {
        "code": "D101210500028",
        "type": 16004,
        "name": "札幌平岸高等学校",
        "address": "札幌市豊平区平岸5条18-1-2",
        "lat": 43.017701,
        "lng": 141.374646
    },
    {
        "code": "D101210600018",
        "type": 16004,
        "name": "札幌南陵高等学校",
        "address": "札幌市南区藤野5条10-1-1",
        "lat": 42.95563,
        "lng": 141.282672
    },
    {
        "code": "D101210600027",
        "type": 16004,
        "name": "札幌啓北商業高等学校",
        "address": "札幌市南区石山1条2-15-1",
        "lat": 42.974204,
        "lng": 141.340846
    },
    {
        "code": "D101210600036",
        "type": 16004,
        "name": "札幌藻岩高等学校",
        "address": "札幌市南区川沿3条2-1-1",
        "lat": 42.997257,
        "lng": 141.335179
    },
    {
        "code": "D101210700017",
        "type": 16004,
        "name": "札幌西陵高等学校",
        "address": "札幌市西区平和3-4-2-1",
        "lat": 43.055276,
        "lng": 141.257765
    },
    {
        "code": "D101210700026",
        "type": 16004,
        "name": "札幌琴似工業高等学校",
        "address": "札幌市西区発寒13条11-3-1",
        "lat": 43.101022,
        "lng": 141.288315
    },
    {
        "code": "D101210800016",
        "type": 16004,
        "name": "札幌啓成高等学校",
        "address": "札幌市厚別区厚別東4条8-6-1",
        "lat": 43.055867,
        "lng": 141.490189
    },
    {
        "code": "D101210800025",
        "type": 16004,
        "name": "札幌東商業高等学校",
        "address": "札幌市厚別区厚別中央3条5-6-10",
        "lat": 43.041506,
        "lng": 141.470831
    },
    {
        "code": "D101210800034",
        "type": 16004,
        "name": "札幌厚別高等学校",
        "address": "札幌市厚別区厚別町山本750-15",
        "lat": 43.055755,
        "lng": 141.458553
    },
    {
        "code": "D101210900015",
        "type": 16004,
        "name": "札幌手稲高等学校",
        "address": "札幌市手稲区手稲前田497-2",
        "lat": 43.136461,
        "lng": 141.263371
    },
    {
        "code": "D101210900024",
        "type": 16004,
        "name": "札幌あすかぜ高等学校",
        "address": "札幌市手稲区手稲山口254",
        "lat": 43.146653,
        "lng": 141.224457
    },
    {
        "code": "D101210900033",
        "type": 16004,
        "name": "札幌稲雲高等学校",
        "address": "札幌市手稲区手稲本町6条4-1-1",
        "lat": 43.11563,
        "lng": 141.232041
    },
    {
        "code": "D101211000012",
        "type": 16004,
        "name": "札幌真栄高等学校",
        "address": "札幌市清田区真栄236-1",
        "lat": 42.972264,
        "lng": 141.452336
    },
    {
        "code": "D101211000021",
        "type": 16004,
        "name": "札幌平岡高等学校",
        "address": "札幌市清田区平岡4条6-13-1",
        "lat": 42.997316,
        "lng": 141.461667
    },
    {
        "code": "D101211000030",
        "type": 16004,
        "name": "札幌清田高等学校",
        "address": "札幌市清田区北野3条4-6-1",
        "lat": 43.010315,
        "lng": 141.44128
    },
    {
        "code": "D101310100100",
        "type": 16004,
        "name": "北星学園女子高等学校",
        "address": "札幌市中央区南4条西17-2-2",
        "lat": 43.052973,
        "lng": 141.33062
    },
    {
        "code": "D101310100119",
        "type": 16004,
        "name": "札幌静修高等学校",
        "address": "札幌市中央区南16条西6-2-1",
        "lat": 43.038448,
        "lng": 141.351953
    },
    {
        "code": "D101310100128",
        "type": 16004,
        "name": "札幌龍谷学園高等学校",
        "address": "札幌市中央区北4条西19-1-2",
        "lat": 43.062305,
        "lng": 141.326425
    },
    {
        "code": "D101310100137",
        "type": 16004,
        "name": "札幌聖心女子学院高等学校",
        "address": "札幌市中央区宮の森2条16-10-1",
        "lat": 43.047417,
        "lng": 141.290374
    },
    {
        "code": "D101310200109",
        "type": 16004,
        "name": "藤女子高等学校",
        "address": "札幌市北区北16条西2-1-2",
        "lat": 43.080007,
        "lng": 141.349898
    },
    {
        "code": "D101310200118",
        "type": 16004,
        "name": "札幌創成高等学校",
        "address": "札幌市北区北29条西2-1-1",
        "lat": 43.096272,
        "lng": 141.345197
    },
    {
        "code": "D101310300108",
        "type": 16004,
        "name": "札幌大谷高等学校",
        "address": "札幌市東区北16条東9-1-1",
        "lat": 43.081881,
        "lng": 141.365366
    },
    {
        "code": "D101310300117",
        "type": 16004,
        "name": "札幌北斗高等学校",
        "address": "札幌市東区北15条東2-1-10",
        "lat": 43.080138,
        "lng": 141.354755
    },
    {
        "code": "D101310300126",
        "type": 16004,
        "name": "札幌光星高等学校",
        "address": "札幌市東区北13条東9-1-1",
        "lat": 43.079484,
        "lng": 141.36672
    },
    {
        "code": "D101310500106",
        "type": 16004,
        "name": "北海高等学校",
        "address": "札幌市豊平区旭町4-1-41",
        "lat": 43.045614,
        "lng": 141.367923
    },
    {
        "code": "D101310500115",
        "type": 16004,
        "name": "北海学園札幌高等学校",
        "address": "札幌市豊平区旭町4-1-42",
        "lat": 43.044114,
        "lng": 141.367979
    },
    {
        "code": "D101310500124",
        "type": 16004,
        "name": "北海道科学大学高等学校",
        "address": "札幌市豊平区中の島2条6-2-3",
        "lat": 43.028144,
        "lng": 141.360034
    },
    {
        "code": "D101310500133",
        "type": 16004,
        "name": "札幌第一高等学校",
        "address": "札幌市豊平区月寒西1条9-10-15",
        "lat": 43.017702,
        "lng": 141.421031
    },
    {
        "code": "D101310500204",
        "type": 16004,
        "name": "池上学院高等学校",
        "address": "札幌市豊平区豊平3条5-1-38",
        "lat": 43.051796,
        "lng": 141.371653
    },
    {
        "code": "D101310600105",
        "type": 16004,
        "name": "札幌新陽高等学校",
        "address": "札幌市南区澄川5条7-1-1",
        "lat": 43.006924,
        "lng": 141.37023
    },
    {
        "code": "D101310600123",
        "type": 16004,
        "name": "東海大学付属札幌高等学校",
        "address": "札幌市南区南沢5条1-1-1",
        "lat": 42.991295,
        "lng": 141.319764
    },
    {
        "code": "D101310700104",
        "type": 16004,
        "name": "札幌山の手高等学校",
        "address": "札幌市西区山の手2条8-5-12",
        "lat": 43.066387,
        "lng": 141.294095
    },
    {
        "code": "D101310800103",
        "type": 16004,
        "name": "北星学園大学附属高等学校",
        "address": "札幌市厚別区厚別町下野幌38",
        "lat": 43.039147,
        "lng": 141.500356
    },
    {
        "code": "D101310800201",
        "type": 16004,
        "name": "星槎国際高等学校",
        "address": "札幌市厚別区もみじ台北5-12-1",
        "lat": 43.460706,
        "lng": 142.168772
    },
    {
        "code": "D101311000109",
        "type": 16004,
        "name": "北嶺高等学校",
        "address": "札幌市清田区真栄448-1",
        "lat": 42.970817,
        "lng": 141.426341
    },
    {
        "code": "D201210300010",
        "type": 16003,
        "name": "札幌開成中等教育学校",
        "address": "札幌市東区北22条東21-1-1",
        "lat": 43.092366,
        "lng": 141.383514
    },
    {
        "code": "E101210100010",
        "type": 16012,
        "name": "札幌視覚支援学校",
        "address": "札幌市中央区南14条西12-1-1",
        "lat": 43.041356,
        "lng": 141.341109
    },
    {
        "code": "E101210100029",
        "type": 16012,
        "name": "札幌伏見支援学校",
        "address": "札幌市中央区伏見4-4-21",
        "lat": 43.033492,
        "lng": 141.331776
    },