[
    {
        "code": "A111220700010",
        "type": 16011,
        "name": "久那幼稚園",
        "address": "秩父市久那2183-1",
        "lat": 35.972562,
        "lng": 139.052375
    },
    {
        "code": "A111320700018",
        "type": 16011,
        "name": "秩父国際幼稚園",
        "address": "秩父市上町2-17-34",
        "lat": 35.991777,
        "lng": 139.077597
    },
    {
        "code": "A211220700019",
        "type": 16013,
        "name": "吉田こども園",
        "address": "秩父市下吉田3912-3",
        "lat": 36.040812,
        "lng": 139.033179
    },
    {
        "code": "A211320700017",
        "type": 16013,
        "name": "秩父こども園",
        "address": "秩父市下宮地町17-6",
        "lat": 36.013377,
        "lng": 139.093589
    },
    {
        "code": "A211320700026",
        "type": 16013,
        "name": "大畑こども園",
        "address": "秩父市大畑町4-64",
        "lat": 36.014905,
        "lng": 139.088902
    },
    {
        "code": "A211320700035",
        "type": 16013,
        "name": "秩父ふたばこども園",
        "address": "秩父市中宮地町26-21",
        "lat": 36.008355,
        "lng": 139.090828
    },
    {
        "code": "A211320700044",
        "type": 16013,
        "name": "秩父さくら幼稚園",
        "address": "秩父市上町3-10-10",
        "lat": 35.987705,
        "lng": 139.07536
    },
    {
        "code": "A211320700053",
        "type": 16013,
        "name": "秩父こども園（分園）",
        "address": "秩父市東町26-7",
        "lat": 35.992359,
        "lng": 139.082398
    },
    {
        "code": "A211320700062",
        "type": 16013,
        "name": "緑ガ丘認定こども園",
        "address": "秩父市寺尾1548-1",
        "lat": 36.02487,
        "lng": 139.084101
    },
    {
        "code": "A211320700071",
        "type": 16013,
        "name": "かみたのこども園",
        "address": "秩父市荒川上田野993-1",
        "lat": 35.958917,
        "lng": 139.037508
    },
    {
        "code": "B111220700018",
        "type": 16001,
        "name": "秩父第一小学校",
        "address": "秩父市上宮地36-11",
        "lat": 36.002598,
        "lng": 139.092678
    },
    {
        "code": "B111220700027",
        "type": 16001,
        "name": "花の木小学校",
        "address": "秩父市上町2-21-37",
        "lat": 35.990379,
        "lng": 139.075775
    },
    {
        "code": "B111220700036",
        "type": 16001,
        "name": "西小学校",
        "address": "秩父市金室町9-46",
        "lat": 36.006819,
        "lng": 139.081874
    },
    {
        "code": "B111220700045",
        "type": 16001,
        "name": "南小学校",
        "address": "秩父市野坂町2-14-29",
        "lat": 35.985933,
        "lng": 139.084097
    },
    {
        "code": "B111220700054",
        "type": 16001,
        "name": "尾田蒔小学校",
        "address": "秩父市寺尾2375",
        "lat": 36.018124,
        "lng": 139.078958
    },
    {
        "code": "B111220700063",
        "type": 16001,
        "name": "原谷小学校",
        "address": "秩父市大野原2991",
        "lat": 36.032261,
        "lng": 139.100954
    },
    {
        "code": "B111220700072",
        "type": 16001,
        "name": "久那小学校",
        "address": "秩父市久那2183-1",
        "lat": 35.972518,
        "lng": 139.052378
    },
    {
        "code": "B111220700081",
        "type": 16001,
        "name": "高篠小学校",
        "address": "秩父市山田2619",
        "lat": 36.021207,
        "lng": 139.114064
    },
    {
        "code": "B111220700090",
        "type": 16001,
        "name": "大田小学校",
        "address": "秩父市太田1661",
        "lat": 36.053305,
        "lng": 139.065961
    },
    {
        "code": "B111220700107",
        "type": 16001,
        "name": "影森小学校",
        "address": "秩父市下影森1104",
        "lat": 35.973518,
        "lng": 139.068349
    },
    {
        "code": "B111220700116",
        "type": 16001,
        "name": "吉田小学校",
        "address": "秩父市下吉田3833",
        "lat": 36.041815,
        "lng": 139.034907
    },
    {
        "code": "B111220700125",
        "type": 16001,
        "name": "荒川東小学校",
        "address": "秩父市荒川上田野1755",
        "lat": 35.957526,
        "lng": 139.031298
    },
    {
        "code": "B111220700134",
        "type": 16001,
        "name": "荒川西小学校",
        "address": "秩父市荒川贄川840",
        "lat": 35.966553,
        "lng": 138.977837
    },
    {
        "code": "C111220700016",
        "type": 16002,
        "name": "秩父第一中学校",
        "address": "秩父市滝の上町9-22",
        "lat": 36.013652,
        "lng": 139.089956
    },
    {
        "code": "C111220700025",
        "type": 16002,
        "name": "秩父第二中学校",
        "address": "秩父市上町3-13-48",
        "lat": 35.987016,
        "lng": 139.074292
    },
    {
        "code": "C111220700034",
        "type": 16002,
        "name": "尾田蒔中学校",
        "address": "秩父市寺尾2006",
        "lat": 36.018901,
        "lng": 139.079763
    },
    {
        "code": "C111220700043",
        "type": 16002,
        "name": "高篠中学校",
        "address": "秩父市山田2647",
        "lat": 36.018596,
        "lng": 139.111759
    },
    {
        "code": "C111220700052",
        "type": 16002,
        "name": "大田中学校",
        "address": "秩父市太田1661",
        "lat": 36.052698,
        "lng": 139.064935
    },
    {
        "code": "C111220700061",
        "type": 16002,
        "name": "影森中学校",
        "address": "秩父市上影森53",
        "lat": 35.975601,
        "lng": 139.067849
    },
    {
        "code": "C111220700070",
        "type": 16002,
        "name": "吉田中学校",
        "address": "秩父市下吉田6402",
        "lat": 36.040898,
        "lng": 139.02213
    },
    {
        "code": "C111220700089",
        "type": 16002,
        "name": "荒川中学校",
        "address": "秩父市荒川日野23",
        "lat": 35.955053,
        "lng": 139.025976
    },
    {
        "code": "D111210000138",
        "type": 16004,
        "name": "秩父農工科学高等学校",
        "address": "秩父市大野原2000",
        "lat": 36.022401,
        "lng": 139.091317
    },
    {
        "code": "D111210000209",
        "type": 16004,
        "name": "秩父高等学校",
        "address": "秩父市上町2-23-45",
        "lat": 35.992349,
        "lng": 139.074987
    },
    {
        "code": "E111230000179",
        "type": 16012,
        "name": "秩父特別支援学校",
        "address": "秩父市大宮5676-1",
        "lat": 36.005681,
        "lng": 139.099205
    },
    {
        "code": "E111320700028",
        "type": 16012,
        "name": "光の村養護学校秩父自然学園",
        "address": "秩父市大滝4783",
        "lat": 35.94665,
        "lng": 138.968757
    },
    {
        "code": "H111320700013",
        "type": 16016,
        "name": "秩父家政専門学校",
        "address": "秩父市熊木町1-6",
        "lat": 35.992645,
        "lng": 139.085368
    },
    {
        "code": "H111320700022",
        "type": 16016,
        "name": "秩父看護専門学校",
        "address": "秩父市熊木町3-9",
        "lat": 35.992652,
        "lng": 139.085341
    }
]