[
    {
        "code": "A111220300014",
        "type": 16011,
        "name": "南平幼稚園",
        "address": "川口市東領家1-16-19",
        "lat": 35.798412,
        "lng": 139.748536
    },
    {
        "code": "A111220300130",
        "type": 16011,
        "name": "舟戸幼稚園",
        "address": "川口市舟戸町2-2",
        "lat": 35.793642,
        "lng": 139.723688
    },
    {
        "code": "A111320300012",
        "type": 16011,
        "name": "川口南幼稚園",
        "address": "川口市川口6-1-41",
        "lat": 35.803165,
        "lng": 139.7118
    },
    {
        "code": "A111320300021",
        "type": 16011,
        "name": "川口文化幼稚園",
        "address": "川口市幸町3-5-33",
        "lat": 35.806531,
        "lng": 139.715639
    },
    {
        "code": "A111320300030",
        "type": 16011,
        "name": "松葉幼稚園",
        "address": "川口市領家2-14-11",
        "lat": 35.79504,
        "lng": 139.742134
    },
    {
        "code": "A111320300049",
        "type": 16011,
        "name": "西川口幼稚園",
        "address": "川口市西川口3-34-5",
        "lat": 35.810703,
        "lng": 139.702976
    },
    {
        "code": "A111320300058",
        "type": 16011,
        "name": "小鳩幼稚園",
        "address": "川口市東本郷1185",
        "lat": 35.827107,
        "lng": 139.762507
    },
    {
        "code": "A111320300067",
        "type": 16011,
        "name": "清月幼稚園",
        "address": "川口市芝5222",
        "lat": 35.837749,
        "lng": 139.692875
    },
    {
        "code": "A111320300076",
        "type": 16011,
        "name": "松原幼稚園",
        "address": "川口市安行領根岸2143-1",
        "lat": 35.843541,
        "lng": 139.721491
    },
    {
        "code": "A111320300085",
        "type": 16011,
        "name": "共生幼稚園",
        "address": "川口市飯塚2-9-4",
        "lat": 35.799774,
        "lng": 139.712825
    },
    {
        "code": "A111320300094",
        "type": 16011,
        "name": "川口アソカ幼稚園",
        "address": "川口市青木4-20-13",
        "lat": 35.816888,
        "lng": 139.725924
    },
    {
        "code": "A111320300101",
        "type": 16011,
        "name": "いずみ幼稚園",
        "address": "川口市芝西2-16-3",
        "lat": 35.840855,
        "lng": 139.685466
    },
    {
        "code": "A111320300110",
        "type": 16011,
        "name": "ふじみ幼稚園",
        "address": "川口市本前川2-12-15",
        "lat": 35.841728,
        "lng": 139.703977
    },
    {
        "code": "A111320300129",
        "type": 16011,
        "name": "翠ケ丘幼稚園",
        "address": "川口市大字安行慈林880",
        "lat": 35.83823,
        "lng": 139.749035
    },
    {
        "code": "A111320300138",
        "type": 16011,
        "name": "青木錦生幼稚園",
        "address": "川口市中青木4-6-25",
        "lat": 35.817752,
        "lng": 139.716563
    },
    {
        "code": "A111320300147",
        "type": 16011,
        "name": "小桜幼稚園",
        "address": "川口市石神1340",
        "lat": 35.851427,
        "lng": 139.739151
    },
    {
        "code": "A111320300156",
        "type": 16011,
        "name": "北川口幼稚園",
        "address": "川口市道合1221",
        "lat": 35.849198,
        "lng": 139.721503
    },
    {
        "code": "A111320300165",
        "type": 16011,
        "name": "旭幼稚園",
        "address": "川口市前野宿50",
        "lat": 35.8332,
        "lng": 139.758404
    },
    {
        "code": "A111320300174",
        "type": 16011,
        "name": "清泉幼稚園",
        "address": "川口市前川1-6-19",
        "lat": 35.835358,
        "lng": 139.709616
    },
    {
        "code": "A111320300183",
        "type": 16011,
        "name": "西光院マヤ幼稚園",
        "address": "川口市戸塚2-6-29",
        "lat": 35.871449,
        "lng": 139.746361
    },
    {
        "code": "A111320300192",
        "type": 16011,
        "name": "川口しらぎく幼稚園",
        "address": "川口市芝西2-7-35",
        "lat": 35.840789,
        "lng": 139.687487
    },
    {
        "code": "A111320300209",
        "type": 16011,
        "name": "芝みずほ幼稚園",
        "address": "川口市小谷場199-1",
        "lat": 35.841493,
        "lng": 139.681132
    },
    {
        "code": "A111320300218",
        "type": 16011,
        "name": "きぞろ幼稚園",
        "address": "川口市木曽呂838",
        "lat": 35.860882,
        "lng": 139.723767
    },
    {
        "code": "A111320300227",
        "type": 16011,
        "name": "安行東光幼稚園",
        "address": "川口市安行原1625",
        "lat": 35.837337,
        "lng": 139.770838
    },
    {
        "code": "A111320300236",
        "type": 16011,
        "name": "川口あけぼの幼稚園",
        "address": "川口市元郷5-25-10",
        "lat": 35.7983,
        "lng": 139.740253
    },
    {
        "code": "A111320300245",
        "type": 16011,
        "name": "しば幼稚園",
        "address": "川口市芝下1-2-26",
        "lat": 35.835491,
        "lng": 139.701267
    },
    {
        "code": "A111320300254",
        "type": 16011,
        "name": "川口さかえ幼稚園",
        "address": "川口市芝下3-21-31",
        "lat": 35.839421,
        "lng": 139.701808
    },
    {
        "code": "A111320300263",
        "type": 16011,
        "name": "ひのつめ幼稚園",
        "address": "川口市芝樋ﾉ爪2-8-25",
        "lat": 35.83321,
        "lng": 139.686921
    },
    {
        "code": "A111320300272",
        "type": 16011,
        "name": "赤芝幼稚園",
        "address": "川口市赤芝新田540-1",
        "lat": 35.850643,
        "lng": 139.750265
    },
    {
        "code": "A111320300281",
        "type": 16011,
        "name": "川口幼稚園",
        "address": "川口市木曽呂1425",
        "lat": 35.856516,
        "lng": 139.714445
    },
    {
        "code": "A111320300290",
        "type": 16011,
        "name": "東川口幼稚園",
        "address": "川口市戸塚東3-8-25",
        "lat": 35.867383,
        "lng": 139.754675
    },
    {
        "code": "A111320300307",
        "type": 16011,
        "name": "新郷松原幼稚園",
        "address": "川口市東本郷709-3",
        "lat": 35.82447,
        "lng": 139.765533
    },
    {
        "code": "A111320300316",
        "type": 16011,
        "name": "川口くるみ幼稚園",
        "address": "川口市末広3-9-19",
        "lat": 35.804999,
        "lng": 139.742625
    },
    {
        "code": "A111320300325",
        "type": 16011,
        "name": "芝園幼稚園",
        "address": "川口市芝園町3-16-1",
        "lat": 35.832841,
        "lng": 139.682186
    },
    {
        "code": "A111320300334",
        "type": 16011,
        "name": "安行幼稚園",
        "address": "川口市大字安行領家1193",
        "lat": 35.849513,
        "lng": 139.760903
    },
    {
        "code": "A111320300343",
        "type": 16011,
        "name": "新郷南幼稚園",
        "address": "川口市本蓮3-2-15",
        "lat": 35.815188,
        "lng": 139.760145
    },
    {
        "code": "A111320300352",
        "type": 16011,
        "name": "ゆりかご幼稚園",
        "address": "川口市坂下町3-17-20",
        "lat": 35.828272,
        "lng": 139.744268
    },
    {
        "code": "A111320300361",
        "type": 16011,
        "name": "たちばな幼稚園",
        "address": "川口市辻705",
        "lat": 35.825356,
        "lng": 139.729584
    },
    {
        "code": "A111320300389",
        "type": 16011,
        "name": "みつわ幼稚園",
        "address": "川口市八幡木1-16-11",
        "lat": 35.820047,
        "lng": 139.747016
    },
    {
        "code": "A111320300398",
        "type": 16011,
        "name": "やはぎ幼稚園",
        "address": "川口市南鳩ヶ谷3-9-1",
        "lat": 35.817777,
        "lng": 139.738511
    },
    {
        "code": "A111320300405",
        "type": 16011,
        "name": "さと幼稚園",
        "address": "川口市里1155-5",
        "lat": 35.832492,
        "lng": 139.72977
    },
    {
        "code": "A211320300011",
        "type": 16013,
        "name": "川口ふたばこども園",
        "address": "川口市柳根町2-11",
        "lat": 35.849829,
        "lng": 139.704923
    },
    {
        "code": "A211320300020",
        "type": 16013,
        "name": "みのりこども園",
        "address": "川口市鳩ヶ谷本町4-8-28",
        "lat": 35.831937,
        "lng": 139.746231
    },
    {
        "code": "B111220300012",
        "type": 16001,
        "name": "本町小学校",
        "address": "川口市本町2-4-6",
        "lat": 35.799721,
        "lng": 139.725182
    },
    {
        "code": "B111220300021",
        "type": 16001,
        "name": "幸町小学校",
        "address": "川口市幸町3-8-33",
        "lat": 35.806026,
        "lng": 139.717711
    },
    {
        "code": "B111220300030",
        "type": 16001,
        "name": "仲町小学校",
        "address": "川口市西川口5-6-1",
        "lat": 35.807359,
        "lng": 139.703601
    },
    {
        "code": "B111220300049",
        "type": 16001,
        "name": "上青木小学校",
        "address": "川口市上青木西3-8-25",
        "lat": 35.828606,
        "lng": 139.716571
    },
    {
        "code": "B111220300058",
        "type": 16001,
        "name": "元郷小学校",
        "address": "川口市元郷6-2-1",
        "lat": 35.800556,
        "lng": 139.741931
    },
    {
        "code": "B111220300067",
        "type": 16001,
        "name": "飯塚小学校",
        "address": "川口市飯塚2-11-1",
        "lat": 35.798527,
        "lng": 139.711406
    },
    {
        "code": "B111220300076",
        "type": 16001,
        "name": "芝小学校",
        "address": "川口市大字芝5218",
        "lat": 35.837604,
        "lng": 139.692767
    },
    {
        "code": "B111220300085",
        "type": 16001,
        "name": "新郷小学校",
        "address": "川口市東本郷1313",
        "lat": 35.828496,
        "lng": 139.764761
    },
    {
        "code": "B111220300094",
        "type": 16001,
        "name": "神根小学校",
        "address": "川口市大字道合1111",
        "lat": 35.847159,
        "lng": 139.724986
    },
    {
        "code": "B111220300101",
        "type": 16001,
        "name": "神根東小学校",
        "address": "川口市大字石神1440",
        "lat": 35.854492,
        "lng": 139.740818
    },
    {
        "code": "B111220300110",
        "type": 16001,
        "name": "青木北小学校",
        "address": "川口市西青木1-1-1",
        "lat": 35.813997,
        "lng": 139.715488
    },
    {
        "code": "B111220300129",
        "type": 16001,
        "name": "領家小学校",
        "address": "川口市領家3-14-1",
        "lat": 35.791669,
        "lng": 139.748986
    },
    {
        "code": "B111220300138",
        "type": 16001,
        "name": "舟戸小学校",
        "address": "川口市舟戸町2-1",
        "lat": 35.793457,
        "lng": 139.723035
    },
    {
        "code": "B111220300147",
        "type": 16001,
        "name": "十二月田小学校",
        "address": "川口市朝日1-11-1",
        "lat": 35.806304,
        "lng": 139.734404
    },
    {
        "code": "B111220300156",
        "type": 16001,
        "name": "飯仲小学校",
        "address": "川口市南町2-3-1",
        "lat": 35.804443,
        "lng": 139.707156
    },
    {
        "code": "B111220300165",
        "type": 16001,
        "name": "並木小学校",
        "address": "川口市並木1-24-1",
        "lat": 35.81233,
        "lng": 139.711544
    },
    {
        "code": "B111220300174",
        "type": 16001,
        "name": "安行小学校",
        "address": "川口市大字安行原2020",
        "lat": 35.839411,
        "lng": 139.765733
    },
    {
        "code": "B111220300183",
        "type": 16001,
        "name": "原町小学校",
        "address": "川口市飯原町6-50",
        "lat": 35.799305,
        "lng": 139.704628
    },
    {
        "code": "B111220300192",
        "type": 16001,
        "name": "前川小学校",
        "address": "川口市本前川2-11-1",
        "lat": 35.842431,
        "lng": 139.705205
    },
    {
        "code": "B111220300209",
        "type": 16001,
        "name": "戸塚小学校",
        "address": "川口市戸塚3-13-55",
        "lat": 35.869185,
        "lng": 139.746956
    },
    {
        "code": "B111220300218",
        "type": 16001,
        "name": "青木中央小学校",
        "address": "川口市中青木2-21-5",
        "lat": 35.810692,
        "lng": 139.722377
    },
    {
        "code": "B111220300227",
        "type": 16001,
        "name": "元郷南小学校",
        "address": "川口市元郷2-15-20",
        "lat": 35.797648,
        "lng": 139.730597
    },
    {
        "code": "B111220300236",
        "type": 16001,
        "name": "芝西小学校",
        "address": "川口市芝西2-20-3",
        "lat": 35.841381,
        "lng": 139.683518
    },
    {
        "code": "B111220300245",
        "type": 16001,
        "name": "芝南小学校",
        "address": "川口市芝3-17-1",
        "lat": 35.834521,
        "lng": 139.698684
    },
    {
        "code": "B111220300254",
        "type": 16001,
        "name": "朝日東小学校",
        "address": "川口市朝日5-15-1",
        "lat": 35.806833,
        "lng": 139.749207
    },
    {
        "code": "B111220300263",
        "type": 16001,
        "name": "芝富士小学校",
        "address": "川口市芝富士2-17-1",
        "lat": 35.83616,
        "lng": 139.677352
    },
    {
        "code": "B111220300272",
        "type": 16001,
        "name": "前川東小学校",
        "address": "川口市前上町10-1",
        "lat": 35.835549,
        "lng": 139.714599
    },
    {
        "code": "B111220300281",
        "type": 16001,
        "name": "柳崎小学校",
        "address": "川口市柳崎4-4-1",
        "lat": 35.856435,
        "lng": 139.700738
    },
    {
        "code": "B111220300290",
        "type": 16001,
        "name": "芝樋ノ爪小学校",
        "address": "川口市芝樋ﾉ爪2-10-48",
        "lat": 35.834577,
        "lng": 139.687101
    },
    {
        "code": "B111220300307",
        "type": 16001,
        "name": "新郷南小学校",
        "address": "川口市江戸3-12-1",
        "lat": 35.820192,
        "lng": 139.753735
    },
    {
        "code": "B111220300316",
        "type": 16001,
        "name": "上青木南小学校",
        "address": "川口市上青木1-6-43",
        "lat": 35.822107,
        "lng": 139.718571
    },
    {
        "code": "B111220300325",
        "type": 16001,
        "name": "根岸小学校",
        "address": "川口市安行領根岸113",
        "lat": 35.842965,
        "lng": 139.715876
    },
    {
        "code": "B111220300334",
        "type": 16001,
        "name": "芝中央小学校",
        "address": "川口市芝高木2-9-1",
        "lat": 35.843096,
        "lng": 139.69753
    },
    {
        "code": "B111220300343",
        "type": 16001,
        "name": "新郷東小学校",
        "address": "川口市大字峯361",
        "lat": 35.830025,
        "lng": 139.776038
    },
    {
        "code": "B111220300352",
        "type": 16001,
        "name": "朝日西小学校",
        "address": "川口市朝日4-17-12",
        "lat": 35.809887,
        "lng": 139.742181
    },
    {
        "code": "B111220300361",
        "type": 16001,
        "name": "慈林小学校",
        "address": "川口市安行慈林356",
        "lat": 35.84066,
        "lng": 139.750679
    },
    {
        "code": "B111220300370",
        "type": 16001,
        "name": "差間小学校",
        "address": "川口市大字差間430",
        "lat": 35.867629,
        "lng": 139.729152
    },
    {
        "code": "B111220300389",
        "type": 16001,
        "name": "東本郷小学校",
        "address": "川口市東本郷630",
        "lat": 35.822887,
        "lng": 139.7659
    },
    {
        "code": "B111220300398",
        "type": 16001,
        "name": "東領家小学校",
        "address": "川口市東領家3-5-9",
        "lat": 35.793807,
        "lng": 139.750985
    },
    {
        "code": "B111220300405",
        "type": 16001,
        "name": "安行東小学校",
        "address": "川口市安行出羽4-1-1",
        "lat": 35.852076,
        "lng": 139.767121
    },
    {
        "code": "B111220300414",
        "type": 16001,
        "name": "在家小学校",
        "address": "川口市大字安行領在家323",
        "lat": 35.854075,
        "lng": 139.711709
    },
    {
        "code": "B111220300423",
        "type": 16001,
        "name": "戸塚東小学校",
        "address": "川口市戸塚東2-18-20",
        "lat": 35.870907,
        "lng": 139.755177
    },
    {
        "code": "B111220300432",
        "type": 16001,
        "name": "戸塚北小学校",
        "address": "川口市東川口3-12-1",
        "lat": 35.8796,
        "lng": 139.747094
    },
    {
        "code": "B111220300441",
        "type": 16001,
        "name": "木曽呂小学校",
        "address": "川口市大字木曽呂382-2",
        "lat": 35.860046,
        "lng": 139.724736
    },
    {
        "code": "B111220300450",
        "type": 16001,
        "name": "戸塚綾瀬小学校",
        "address": "川口市大字藤兵衛新田239-1",
        "lat": 35.868848,
        "lng": 139.76528
    },
    {
        "code": "B111220300469",
        "type": 16001,
        "name": "戸塚南小学校",
        "address": "川口市戸塚南4-10-1",
        "lat": 35.86456,
        "lng": 139.744745
    },
    {
        "code": "B111220300478",
        "type": 16001,
        "name": "鳩ヶ谷小学校",
        "address": "川口市鳩ヶ谷本町1-6-3",
        "lat": 35.833177,
        "lng": 139.737903
    },
    {
        "code": "B111220300487",
        "type": 16001,
        "name": "中居小学校",
        "address": "川口市南鳩ヶ谷2-1-1",
        "lat": 35.817473,
        "lng": 139.742742
    },
    {
        "code": "B111220300496",
        "type": 16001,
        "name": "辻小学校",
        "address": "川口市南鳩ヶ谷7-22-1",
        "lat": 35.821614,
        "lng": 139.732568
    },
    {
        "code": "B111220300502",
        "type": 16001,
        "name": "里小学校",
        "address": "川口市里645-1",
        "lat": 35.835883,
        "lng": 139.733403
    },
    {
        "code": "B111220300511",
        "type": 16001,
        "name": "桜町小学校",
        "address": "川口市桜町2-12-10",
        "lat": 35.841438,
        "lng": 139.738152
    },
    {
        "code": "B111220300520",
        "type": 16001,
        "name": "南鳩ヶ谷小学校",
        "address": "川口市南鳩ヶ谷5-20-1",
        "lat": 35.814587,
        "lng": 139.732562
    },
    {
        "code": "C111220300010",
        "type": 16002,
        "name": "東中学校",
        "address": "川口市東本郷2-20-47",
        "lat": 35.825191,
        "lng": 139.756484
    },
    {
        "code": "C111220300029",
        "type": 16002,
        "name": "西中学校",
        "address": "川口市宮町16-1",
        "lat": 35.800832,
        "lng": 139.702628
    },
    {
        "code": "C111220300038",
        "type": 16002,
        "name": "南中学校",
        "address": "川口市舟戸町2-3",
        "lat": 35.79375,
        "lng": 139.725071
    },
    {
        "code": "C111220300047",
        "type": 16002,
        "name": "北中学校",
        "address": "川口市大字道合364-2",
        "lat": 35.855047,
        "lng": 139.71507
    },
    {
        "code": "C111220300056",
        "type": 16002,
        "name": "青木中学校",
        "address": "川口市青木5-1-1",
        "lat": 35.816107,
        "lng": 139.721821
    },
    {
        "code": "C111220300065",
        "type": 16002,
        "name": "芝中学校",
        "address": "川口市大字芝6330",
        "lat": 35.842298,
        "lng": 139.688906
    },
    {
        "code": "C111220300074",
        "type": 16002,
        "name": "元郷中学校",
        "address": "川口市東領家1-8-3",
        "lat": 35.799084,
        "lng": 139.747791
    },
    {
        "code": "C111220300083",
        "type": 16002,
        "name": "上青木中学校",
        "address": "川口市上青木西3-9-1",
        "lat": 35.827606,
        "lng": 139.716516
    },
    {
        "code": "C111220300092",
        "type": 16002,
        "name": "幸並中学校",
        "address": "川口市西青木2-3-53",
        "lat": 35.817191,
        "lng": 139.711322
    },
    {
        "code": "C111220300109",
        "type": 16002,
        "name": "十二月田中学校",
        "address": "川口市朝日1-11-3",
        "lat": 35.80536,
        "lng": 139.735709
    },
    {
        "code": "C111220300118",
        "type": 16002,
        "name": "仲町中学校",
        "address": "川口市西川口2-16-1",
        "lat": 35.811358,
        "lng": 139.699406
    },
    {
        "code": "C111220300127",
        "type": 16002,
        "name": "安行中学校",
        "address": "川口市大字安行原2221",
        "lat": 35.842133,
        "lng": 139.763817
    },
    {
        "code": "C111220300136",
        "type": 16002,
        "name": "芝東中学校",
        "address": "川口市大字芝東町3-1",
        "lat": 35.844678,
        "lng": 139.700257
    },
    {
        "code": "C111220300145",
        "type": 16002,
        "name": "芝西中学校",
        "address": "川口市芝塚原1-11-13",
        "lat": 35.838354,
        "lng": 139.681435
    },
    {
        "code": "C111220300154",
        "type": 16002,
        "name": "岸川中学校",
        "address": "川口市大字安行領根岸374-1",
        "lat": 35.845492,
        "lng": 139.707488
    },
    {
        "code": "C111220300163",
        "type": 16002,
        "name": "榛松中学校",
        "address": "川口市榛松2-10-1",
        "lat": 35.8215,
        "lng": 139.774559
    },
    {
        "code": "C111220300172",
        "type": 16002,
        "name": "小谷場中学校",
        "address": "川口市大字小谷場1156",
        "lat": 35.847547,
        "lng": 139.67974
    },
    {
        "code": "C111220300181",
        "type": 16002,
        "name": "神根中学校",
        "address": "川口市石神1515-1",
        "lat": 35.85527,
        "lng": 139.739957
    },
    {
        "code": "C111220300190",
        "type": 16002,
        "name": "領家中学校",
        "address": "川口市領家2-11-15",
        "lat": 35.793307,
        "lng": 139.740459
    },
    {
        "code": "C111220300207",
        "type": 16002,
        "name": "戸塚中学校",
        "address": "川口市戸塚鋏町3-1",
        "lat": 35.864797,
        "lng": 139.755955
    },
    {
        "code": "C111220300216",
        "type": 16002,
        "name": "在家中学校",
        "address": "川口市安行領在家272",
        "lat": 35.856213,
        "lng": 139.71357
    },
    {
        "code": "C111220300225",
        "type": 16002,
        "name": "安行東中学校",
        "address": "川口市大字安行34",
        "lat": 35.85177,
        "lng": 139.759761
    },
    {
        "code": "C111220300234",
        "type": 16002,
        "name": "戸塚西中学校",
        "address": "川口市西立野1000",
        "lat": 35.856853,
        "lng": 139.744068
    },
    {
        "code": "C111220300243",
        "type": 16002,
        "name": "芝西中学校陽春分校",
        "address": "川口市並木1-26-1",
        "lat": 35.812797,
        "lng": 139.713582
    },
    {
        "code": "C111220300252",
        "type": 16002,
        "name": "鳩ヶ谷中学校",
        "address": "川口市鳩ヶ谷本町4-8-5",
        "lat": 35.832486,
        "lng": 139.745145
    },
    {
        "code": "C111220300261",
        "type": 16002,
        "name": "八幡木中学校",
        "address": "川口市八幡木1-26-1",
        "lat": 35.819136,
        "lng": 139.748652
    },
    {
        "code": "C111220300270",
        "type": 16002,
        "name": "里中学校",
        "address": "川口市里621",
        "lat": 35.837688,
        "lng": 139.73157
    },
    {
        "code": "C111220300289",
        "type": 16002,
        "name": "高等学校附属中学校",
        "address": "川口市上青木3-1-40",
        "lat": 35.82636,
        "lng": 139.718678
    },
    {
        "code": "D111210000263",
        "type": 16004,
        "name": "川口工業高等学校",
        "address": "川口市南前川1-10-1",
        "lat": 35.827911,
        "lng": 139.708266
    },
    {
        "code": "D111210000343",
        "type": 16004,
        "name": "川口高等学校",
        "address": "川口市新井宿諏訪山963",
        "lat": 35.840195,
        "lng": 139.730651
    },
    {
        "code": "D111210000735",
        "type": 16004,
        "name": "川口北高等学校",
        "address": "川口市木曽呂1477",
        "lat": 35.859491,
        "lng": 139.714237
    },
    {
        "code": "D111210000931",
        "type": 16004,
        "name": "川口東高等学校",
        "address": "川口市長蔵3-1-1",
        "lat": 35.862047,
        "lng": 139.761399
    },
    {
        "code": "D111210001271",
        "type": 16004,
        "name": "川口青陵高等学校",
        "address": "川口市神戸東520-1",
        "lat": 35.854386,
        "lng": 139.730504
    },
    {
        "code": "D111210001379",
        "type": 16004,
        "name": "鳩ヶ谷高等学校",
        "address": "川口市里225-1",
        "lat": 35.837438,
        "lng": 139.726959
    },
    {
        "code": "D111220000057",
        "type": 16004,
        "name": "川口市立高等学校",
        "address": "川口市上青木3-1-40",
        "lat": 35.826412,
        "lng": 139.718266
    },
    {
        "code": "E111230000133",
        "type": 16012,
        "name": "川口特別支援学校",
        "address": "川口市赤井1234",
        "lat": 35.833356,
        "lng": 139.750596
    },
    {
        "code": "F111310102021",
        "type": 16007,
        "name": "埼玉学園大学",
        "address": "川口市大字木曽呂1510",
        "lat": 35.857033,
        "lng": 139.714245
    },
    {
        "code": "F211310102271",
        "type": 16006,
        "name": "川口短期大学",
        "address": "川口市大字木曽呂1511",
        "lat": 35.857574,
        "lng": 139.713154
    },
    {
        "code": "H111220300019",
        "type": 16016,
        "name": "川口市立看護専門学校",
        "address": "川口市大字新井宿802-3",
        "lat": 35.841993,
        "lng": 139.728933
    },
    {
        "code": "H111320300017",
        "type": 16016,
        "name": "日本産業専門学校",
        "address": "川口市飯塚1-9-18",
        "lat": 35.798249,
        "lng": 139.713728
    },
    {
        "code": "H111320300026",
        "type": 16016,
        "name": "川口文化服装専門学校",
        "address": "川口市幸町3-5-33",
        "lat": 35.806234,
        "lng": 139.715704
    },
    {
        "code": "H111320300035",
        "type": 16016,
        "name": "済生会川口看護専門学校",
        "address": "川口市西川口6-9-7",
        "lat": 35.807262,
        "lng": 139.701184
    },
    {
        "code": "H111320300044",
        "type": 16016,
        "name": "大橋医療高等専修学校",
        "address": "川口市栄町2-7-16",
        "lat": 35.802782,
        "lng": 139.722871
    },
    {
        "code": "H211320300016",
        "type": 16015,
        "name": "鳩ケ谷珠算学校",
        "address": "川口市桜町1-2-26",
        "lat": 35.836991,
        "lng": 139.736433
    }
]