[
    {
        "code": "A111320100014",
        "type": 16011,
        "name": "川越幼稚園",
        "address": "川越市中原町1-5-6",
        "lat": 35.916757,
        "lng": 139.482182
    },
    {
        "code": "A111320100023",
        "type": 16011,
        "name": "ひつじ幼稚園",
        "address": "川越市仙波町3-6-1",
        "lat": 35.91185,
        "lng": 139.493715
    },
    {
        "code": "A111320100032",
        "type": 16011,
        "name": "川越双葉幼稚園",
        "address": "川越市幸町5-11",
        "lat": 35.923526,
        "lng": 139.482049
    },
    {
        "code": "A111320100041",
        "type": 16011,
        "name": "ひまわり幼稚園",
        "address": "川越市三久保町16-6",
        "lat": 35.921805,
        "lng": 139.488967
    },
    {
        "code": "A111320100050",
        "type": 16011,
        "name": "あそか幼稚園",
        "address": "川越市小仙波町5-4-2",
        "lat": 35.914138,
        "lng": 139.489795
    },
    {
        "code": "A111320100069",
        "type": 16011,
        "name": "ルンビニ幼稚園",
        "address": "川越市宮元町1-14",
        "lat": 35.929879,
        "lng": 139.483279
    },
    {
        "code": "A111320100078",
        "type": 16011,
        "name": "高階幼稚園",
        "address": "川越市砂新田4-1-1",
        "lat": 35.887819,
        "lng": 139.492088
    },
    {
        "code": "A111320100087",
        "type": 16011,
        "name": "霞ケ関幼稚園",
        "address": "川越市霞ヶ関北6-3-1",
        "lat": 35.925895,
        "lng": 139.432154
    },
    {
        "code": "A111320100096",
        "type": 16011,
        "name": "ながさわ幼稚園",
        "address": "川越市鴨田856-2",
        "lat": 35.932703,
        "lng": 139.513526
    },
    {
        "code": "A111320100103",
        "type": 16011,
        "name": "みよしの幼稚園",
        "address": "川越市大字的場1904-11",
        "lat": 35.91983,
        "lng": 139.438472
    },
    {
        "code": "A111320100121",
        "type": 16011,
        "name": "ふくはら幼稚園",
        "address": "川越市今福1780-5",
        "lat": 35.873029,
        "lng": 139.475212
    },
    {
        "code": "A111320100130",
        "type": 16011,
        "name": "ひまわり南幼稚園",
        "address": "川越市寿町1-2288",
        "lat": 35.904253,
        "lng": 139.468209
    },
    {
        "code": "A111320100149",
        "type": 16011,
        "name": "かすみ幼稚園",
        "address": "川越市安比奈新田6-1",
        "lat": 35.908712,
        "lng": 139.423504
    },
    {
        "code": "A111320100158",
        "type": 16011,
        "name": "新河岸幼稚園",
        "address": "川越市砂665-2",
        "lat": 35.897385,
        "lng": 139.500151
    },
    {
        "code": "A111320100167",
        "type": 16011,
        "name": "川越あさひ幼稚園",
        "address": "川越市旭3-20-6",
        "lat": 35.899906,
        "lng": 139.470706
    },
    {
        "code": "A111320100176",
        "type": 16011,
        "name": "川越ひばり幼稚園",
        "address": "川越市寺山466-1",
        "lat": 35.938798,
        "lng": 139.46868
    },
    {
        "code": "A111320100185",
        "type": 16011,
        "name": "南双葉幼稚園",
        "address": "川越市むさし野1-6",
        "lat": 35.894162,
        "lng": 139.471895
    },
    {
        "code": "A111320100194",
        "type": 16011,
        "name": "鶴の子幼稚園",
        "address": "川越市下赤坂635-1",
        "lat": 35.851093,
        "lng": 139.486098
    },
    {
        "code": "A111320100201",
        "type": 16011,
        "name": "川越白ゆり幼稚園",
        "address": "川越市上戸189-9",
        "lat": 35.928926,
        "lng": 139.451282
    },
    {
        "code": "A111320100210",
        "type": 16011,
        "name": "あおば幼稚園",
        "address": "川越市大字下新河岸65-2",
        "lat": 35.880738,
        "lng": 139.490019
    },
    {
        "code": "A111320100229",
        "type": 16011,
        "name": "ひまわり東幼稚園",
        "address": "川越市郭町2-18-7",
        "lat": 35.922259,
        "lng": 139.492231
    },
    {
        "code": "A111320100238",
        "type": 16011,
        "name": "藤原白百合幼稚園",
        "address": "川越市藤原町22-10",
        "lat": 35.882595,
        "lng": 139.499365
    },
    {
        "code": "A111320100247",
        "type": 16011,
        "name": "川越なかよし幼稚園",
        "address": "川越市中台元町1-13-1",
        "lat": 35.892335,
        "lng": 139.480783
    },
    {
        "code": "A111320100256",
        "type": 16011,
        "name": "第二ひつじ幼稚園",
        "address": "川越市今成2-10-9",
        "lat": 35.92503,
        "lng": 139.470066
    },
    {
        "code": "A111320100265",
        "type": 16011,
        "name": "川越第二ひばり幼稚園",
        "address": "川越市笠幡1600-3",
        "lat": 35.914097,
        "lng": 139.406056
    },
    {
        "code": "A111320100274",
        "type": 16011,
        "name": "大鳳幼稚園",
        "address": "川越市池辺195",
        "lat": 35.901933,
        "lng": 139.441481
    },
    {
        "code": "A111320100283",
        "type": 16011,
        "name": "川鶴ひばり幼稚園",
        "address": "川越市川鶴3-10",
        "lat": 35.921646,
        "lng": 139.406963
    },
    {
        "code": "A211320100013",
        "type": 16013,
        "name": "のぞみ幼稚園",
        "address": "川越市笠幡2764",
        "lat": 35.909699,
        "lng": 139.387053
    },
    {
        "code": "A211320100022",
        "type": 16013,
        "name": "認定こども園泉の森川越",
        "address": "川越市大字久下戸1880",
        "lat": 35.900191,
        "lng": 139.531595
    },
    {
        "code": "A211320100031",
        "type": 16013,
        "name": "ふじま幼稚園",
        "address": "川越市熊野町13-10",
        "lat": 35.875146,
        "lng": 139.503101
    },
    {
        "code": "A211320100040",
        "type": 16013,
        "name": "初雁幼稚園",
        "address": "川越市大手町8-5",
        "lat": 35.923242,
        "lng": 139.486382
    },
    {
        "code": "A211320100059",
        "type": 16013,
        "name": "岡田幼稚園",
        "address": "川越市古谷上5440",
        "lat": 35.918666,
        "lng": 139.533289
    },
    {
        "code": "A211320100068",
        "type": 16013,
        "name": "ひかりの子認定こども園",
        "address": "川越市藤倉2-15-16",
        "lat": 35.884371,
        "lng": 139.436734
    },
    {
        "code": "A211320100077",
        "type": 16013,
        "name": "芳野台こども園",
        "address": "川越市大字下老袋423",
        "lat": 35.930464,
        "lng": 139.528075
    },
    {
        "code": "B111220100014",
        "type": 16001,
        "name": "川越第一小学校",
        "address": "川越市郭町1-21",
        "lat": 35.923006,
        "lng": 139.488698
    },
    {
        "code": "B111220100023",
        "type": 16001,
        "name": "川越小学校",
        "address": "川越市郭町1-1-1",
        "lat": 35.924006,
        "lng": 139.486948
    },
    {
        "code": "B111220100032",
        "type": 16001,
        "name": "中央小学校",
        "address": "川越市中原町1-25",
        "lat": 35.91734,
        "lng": 139.481282
    },
    {
        "code": "B111220100041",
        "type": 16001,
        "name": "仙波小学校",
        "address": "川越市富士見町4-1",
        "lat": 35.905286,
        "lng": 139.488032
    },
    {
        "code": "B111220100050",
        "type": 16001,
        "name": "泉小学校",
        "address": "川越市小室463",
        "lat": 35.917562,
        "lng": 139.464728
    },
    {
        "code": "B111220100069",
        "type": 16001,
        "name": "月越小学校",
        "address": "川越市月吉町51",
        "lat": 35.919645,
        "lng": 139.475005
    },
    {
        "code": "B111220100078",
        "type": 16001,
        "name": "芳野小学校",
        "address": "川越市鴨田331",
        "lat": 35.943254,
        "lng": 139.510251
    },
    {
        "code": "B111220100087",
        "type": 16001,
        "name": "古谷小学校",
        "address": "川越市古谷上5465",
        "lat": 35.917564,
        "lng": 139.532334
    },
    {
        "code": "B111220100096",
        "type": 16001,
        "name": "南古谷小学校",
        "address": "川越市木野目1451",
        "lat": 35.897316,
        "lng": 139.521752
    },
    {
        "code": "B111220100103",
        "type": 16001,
        "name": "高階小学校",
        "address": "川越市大字砂新田58",
        "lat": 35.888872,
        "lng": 139.49531
    },
    {
        "code": "B111220100112",
        "type": 16001,
        "name": "福原小学校",
        "address": "川越市大字今福508",
        "lat": 35.872707,
        "lng": 139.472646
    },
    {
        "code": "B111220100121",
        "type": 16001,
        "name": "大東東小学校",
        "address": "川越市豊田本4-16-1",
        "lat": 35.904991,
        "lng": 139.454005
    },
    {
        "code": "B111220100130",
        "type": 16001,
        "name": "大東西小学校",
        "address": "川越市山城32-5",
        "lat": 35.891342,
        "lng": 139.44287
    },
    {
        "code": "B111220100149",
        "type": 16001,
        "name": "霞ケ関小学校",
        "address": "川越市笠幡177",
        "lat": 35.912117,
        "lng": 139.421566
    },
    {
        "code": "B111220100158",
        "type": 16001,
        "name": "霞ケ関北小学校",
        "address": "川越市伊勢原町5-1-1",
        "lat": 35.919605,
        "lng": 139.42833
    },
    {
        "code": "B111220100167",
        "type": 16001,
        "name": "名細小学校",
        "address": "川越市小堤214",
        "lat": 35.938113,
        "lng": 139.440953
    },
    {
        "code": "B111220100176",
        "type": 16001,
        "name": "山田小学校",
        "address": "川越市山田167",
        "lat": 35.941448,
        "lng": 139.476837
    },
    {
        "code": "B111220100185",
        "type": 16001,
        "name": "武蔵野小学校",
        "address": "川越市大塚新田むさし野14-1",
        "lat": 35.89326,
        "lng": 139.470354
    },
    {
        "code": "B111220100194",
        "type": 16001,
        "name": "高階南小学校",
        "address": "川越市諏訪町12-3",
        "lat": 35.880151,
        "lng": 139.499393
    },
    {
        "code": "B111220100201",
        "type": 16001,
        "name": "高階北小学校",
        "address": "川越市砂新田1-16-1",
        "lat": 35.89126,
        "lng": 139.485977
    },
    {
        "code": "B111220100210",
        "type": 16001,
        "name": "今成小学校",
        "address": "川越市今成2-42-1",
        "lat": 35.925248,
        "lng": 139.46485
    },
    {
        "code": "B111220100229",
        "type": 16001,
        "name": "高階西小学校",
        "address": "川越市藤間1102",
        "lat": 35.876429,
        "lng": 139.49481
    },
    {
        "code": "B111220100238",
        "type": 16001,
        "name": "霞ケ関南小学校",
        "address": "川越市かすみ野1-1-4",
        "lat": 35.903939,
        "lng": 139.418468
    },
    {
        "code": "B111220100247",
        "type": 16001,
        "name": "霞ケ関東小学校",
        "address": "川越市大字的場2735-2",
        "lat": 35.920644,
        "lng": 139.449063
    },
    {
        "code": "B111220100256",
        "type": 16001,
        "name": "大塚小学校",
        "address": "川越市大字大塚2-10-1",
        "lat": 35.896155,
        "lng": 139.469214
    },
    {
        "code": "B111220100265",
        "type": 16001,
        "name": "上戸小学校",
        "address": "川越市上戸390-1",
        "lat": 35.931115,
        "lng": 139.452701
    },
    {
        "code": "B111220100274",
        "type": 16001,
        "name": "牛子小学校",
        "address": "川越市大字牛子418",
        "lat": 35.893705,
        "lng": 139.509669
    },
    {
        "code": "B111220100283",
        "type": 16001,
        "name": "寺尾小学校",
        "address": "川越市大字寺尾979-2",
        "lat": 35.883345,
        "lng": 139.513919
    },
    {
        "code": "B111220100292",
        "type": 16001,
        "name": "霞ケ関西小学校",
        "address": "川越市笠幡3971-4",
        "lat": 35.908756,
        "lng": 139.402123
    },
    {
        "code": "B111220100309",
        "type": 16001,
        "name": "広谷小学校",
        "address": "川越市下広谷558-1",
        "lat": 35.951026,
        "lng": 139.430232
    },
    {
        "code": "B111220100318",
        "type": 16001,
        "name": "新宿小学校",
        "address": "川越市新宿町6-9-1",
        "lat": 35.895037,
        "lng": 139.477561
    },
    {
        "code": "B111220100327",
        "type": 16001,
        "name": "川越西小学校",
        "address": "川越市川鶴1-5",
        "lat": 35.923281,
        "lng": 139.418122
    },
    {
        "code": "B111320100012",
        "type": 16001,
        "name": "星野学園小学校",
        "address": "川越市上寺山216-1",
        "lat": 35.927305,
        "lng": 139.468822
    },
    {
        "code": "C111220100012",
        "type": 16002,
        "name": "川越第一中学校",
        "address": "川越市小仙波町5-6",
        "lat": 35.913402,
        "lng": 139.490532
    },
    {
        "code": "C111220100021",
        "type": 16002,
        "name": "初雁中学校",
        "address": "川越市宮下町1-21-3",
        "lat": 35.926478,
        "lng": 139.486892
    },
    {
        "code": "C111220100030",
        "type": 16002,
        "name": "富士見中学校",
        "address": "川越市東田町17-1",
        "lat": 35.912091,
        "lng": 139.476533
    },
    {
        "code": "C111220100049",
        "type": 16002,
        "name": "城南中学校",
        "address": "川越市新宿町3-19-1",
        "lat": 35.898315,
        "lng": 139.484894
    },
    {
        "code": "C111220100058",
        "type": 16002,
        "name": "芳野中学校",
        "address": "川越市石田本郷733",
        "lat": 35.946309,
        "lng": 139.510862
    },
    {
        "code": "C111220100067",
        "type": 16002,
        "name": "東中学校",
        "address": "川越市小中居278",
        "lat": 35.905593,
        "lng": 139.524473
    },
    {
        "code": "C111220100076",
        "type": 16002,
        "name": "高階中学校",
        "address": "川越市藤間10",
        "lat": 35.886039,
        "lng": 139.494116
    },
    {
        "code": "C111220100085",
        "type": 16002,
        "name": "福原中学校",
        "address": "川越市大字今福512",
        "lat": 35.873762,
        "lng": 139.472673
    },
    {
        "code": "C111220100094",
        "type": 16002,
        "name": "大東中学校",
        "address": "川越市南大塚1-20-1",
        "lat": 35.897212,
        "lng": 139.452625
    },
    {
        "code": "C111220100101",
        "type": 16002,
        "name": "霞ケ関中学校",
        "address": "川越市大字笠幡72",
        "lat": 35.910478,
        "lng": 139.421066
    },
    {
        "code": "C111220100110",
        "type": 16002,
        "name": "名細中学校",
        "address": "川越市大字小堤14",
        "lat": 35.936585,
        "lng": 139.437259
    },
    {
        "code": "C111220100129",
        "type": 16002,
        "name": "山田中学校",
        "address": "川越市山田550",
        "lat": 35.939143,
        "lng": 139.474976
    },
    {
        "code": "C111220100138",
        "type": 16002,
        "name": "寺尾中学校",
        "address": "川越市寺尾1068",
        "lat": 35.883956,
        "lng": 139.512086
    },
    {
        "code": "C111220100147",
        "type": 16002,
        "name": "霞ケ関東中学校",
        "address": "川越市大字的場2706",
        "lat": 35.920533,
        "lng": 139.447424
    },
    {
        "code": "C111220100156",
        "type": 16002,
        "name": "鯨井中学校",
        "address": "川越市鯨井562-2",
        "lat": 35.935392,
        "lng": 139.456368
    },
    {
        "code": "C111220100165",
        "type": 16002,
        "name": "砂中学校",
        "address": "川越市大字砂260",
        "lat": 35.900371,
        "lng": 139.498781
    },
    {
        "code": "C111220100174",
        "type": 16002,
        "name": "野田中学校",
        "address": "川越市野田町2-19-14",
        "lat": 35.908785,
        "lng": 139.468728
    },
    {
        "code": "C111220100183",
        "type": 16002,
        "name": "南古谷中学校",
        "address": "川越市久下戸3721",
        "lat": 35.897261,
        "lng": 139.531056
    },
    {
        "code": "C111220100192",
        "type": 16002,
        "name": "霞ケ関西中学校",
        "address": "川越市笠幡3464-3",
        "lat": 35.90509,
        "lng": 139.406761
    },
    {
        "code": "C111220100209",
        "type": 16002,
        "name": "川越西中学校",
        "address": "川越市川鶴1-1",
        "lat": 35.924003,
        "lng": 139.419955
    },
    {
        "code": "C111220100218",
        "type": 16002,
        "name": "高階西中学校",
        "address": "川越市砂新田2593",
        "lat": 35.876012,
        "lng": 139.491144
    },
    {
        "code": "C111220100227",
        "type": 16002,
        "name": "大東西中学校",
        "address": "川越市藤倉1-1-1",
        "lat": 35.892592,
        "lng": 139.439613
    },
    {
        "code": "C111320100010",
        "type": 16002,
        "name": "秀明中学校",
        "address": "川越市笠幡4792",
        "lat": 35.907812,
        "lng": 139.412178
    },
    {
        "code": "C111320100029",
        "type": 16002,
        "name": "城西川越中学校",
        "address": "川越市山田東町1042",
        "lat": 35.954334,
        "lng": 139.478504
    },
    {
        "code": "C111320100038",
        "type": 16002,
        "name": "星野学園中学校",
        "address": "川越市石原町2-71-11",
        "lat": 35.927422,
        "lng": 139.470061
    },
    {
        "code": "C111320100047",
        "type": 16002,
        "name": "城北埼玉中学校",
        "address": "川越市古市場585-1",
        "lat": 35.885932,
        "lng": 139.52964
    },
    {
        "code": "D111210000030",
        "type": 16004,
        "name": "川越高等学校",
        "address": "川越市郭町2-6",
        "lat": 35.923812,
        "lng": 139.489726
    },
    {
        "code": "D111210000085",
        "type": 16004,
        "name": "川越女子高等学校",
        "address": "川越市六軒町1-23",
        "lat": 35.91559,
        "lng": 139.478866
    },
    {
        "code": "D111210000094",
        "type": 16004,
        "name": "川越工業高等学校",
        "address": "川越市西小仙波町2-28-1",
        "lat": 35.913396,
        "lng": 139.487504
    },
    {
        "code": "D111210000101",
        "type": 16004,
        "name": "川越総合高等学校",
        "address": "川越市小仙波町5-14",
        "lat": 35.91548,
        "lng": 139.491976
    },
    {
        "code": "D111210000806",
        "type": 16004,
        "name": "川越南高等学校",
        "address": "川越市南大塚1-21-1",
        "lat": 35.897981,
        "lng": 139.452398
    },
    {
        "code": "D111210001002",
        "type": 16004,
        "name": "川越西高等学校",
        "address": "川越市笠幡2488-1",
        "lat": 35.911117,
        "lng": 139.395623
    },
    {
        "code": "D111210001235",
        "type": 16004,
        "name": "川越初雁高等学校",
        "address": "川越市砂新田2564",
        "lat": 35.877989,
        "lng": 139.487652
    },
    {
        "code": "D111220000020",
        "type": 16004,
        "name": "川越市立川越高等学校",
        "address": "川越市旭町2-3-7",
        "lat": 35.898898,
        "lng": 139.474228
    },
    {
        "code": "D111320100018",
        "type": 16004,
        "name": "山村学園高等学校",
        "address": "川越市田町16-2",
        "lat": 35.916923,
        "lng": 139.475283
    },
    {
        "code": "D111320100027",
        "type": 16004,
        "name": "東邦音楽大学附属東邦第二高等学校",
        "address": "川越市今泉84",
        "lat": 35.897483,
        "lng": 139.523029
    },
    {
        "code": "D111320100036",
        "type": 16004,
        "name": "星野高等学校",
        "address": "川越市末広町3-9-1",
        "lat": 35.921284,
        "lng": 139.47706
    },
    {
        "code": "D111320100045",
        "type": 16004,
        "name": "城西大学付属川越高等学校",
        "address": "川越市山田東町1042",
        "lat": 35.954612,
        "lng": 139.478476
    },
    {
        "code": "D111320100054",
        "type": 16004,
        "name": "秀明高等学校",
        "address": "川越市笠幡4792",
        "lat": 35.90734,
        "lng": 139.412233
    },
    {
        "code": "D111320100063",
        "type": 16004,
        "name": "城北埼玉高等学校",
        "address": "川越市古市場585-1",
        "lat": 35.88579,
        "lng": 139.530001
    },
    {
        "code": "D111320100072",
        "type": 16004,
        "name": "川越東高等学校",
        "address": "川越市久下戸6060",
        "lat": 35.894067,
        "lng": 139.551083
    },
    {
        "code": "D111320100081",
        "type": 16004,
        "name": "霞ヶ関高等学校",
        "address": "川越市的場2797-24",
        "lat": 35.925117,
        "lng": 139.446492
    },
    {
        "code": "E111230000017",
        "type": 16012,
        "name": "塙保己一学園",
        "address": "川越市笠幡85-1",
        "lat": 35.908645,
        "lng": 139.420371
    },
    {
        "code": "E111230000115",
        "type": 16012,
        "name": "川越特別支援学校",
        "address": "川越市古谷上2690-1",
        "lat": 35.919813,
        "lng": 139.524945
    },
    {
        "code": "E111230000124",
        "type": 16012,
        "name": "川越特別支援学校川越たかしな分校",
        "address": "川越市砂新田2564",
        "lat": 35.877854,
        "lng": 139.488681
    },
    {
        "code": "E111240000016",
        "type": 16012,
        "name": "川越市立特別支援学校",
        "address": "川越市宮下町1-19-1",
        "lat": 35.925912,
        "lng": 139.488904
    },
    {
        "code": "F111310102030",
        "type": 16007,
        "name": "尚美学園大学",
        "address": "川越市豊田町1-1-1",
        "lat": 35.906848,
        "lng": 139.460309
    },
    {
        "code": "F111310102085",
        "type": 16007,
        "name": "東京国際大学",
        "address": "川越市的場北1-13-1",
        "lat": 35.926332,
        "lng": 139.438534
    },
    {
        "code": "F111310102101",
        "type": 16007,
        "name": "東邦音楽大学",
        "address": "川越市今泉84",
        "lat": 35.897372,
        "lng": 139.52389
    },
    {
        "code": "H111320100019",
        "type": 16016,
        "name": "トータルビューティカレッジ川越",
        "address": "川越市新宿町1-20-9",
        "lat": 35.903684,
        "lng": 139.478283
    },
    {
        "code": "H111320100028",
        "type": 16016,
        "name": "埼玉医科大学附属総合医療センター看護専門学校",
        "address": "川越市鴨田1940-1",
        "lat": 35.934989,
        "lng": 139.521567
    },
    {
        "code": "H111320100037",
        "type": 16016,
        "name": "国際情報経済専門学校",
        "address": "川越市的場2797-30",
        "lat": 35.925015,
        "lng": 139.446633
    },
    {
        "code": "H111320100046",
        "type": 16016,
        "name": "川越看護専門学校",
        "address": "川越市小仙波町2-53-1",
        "lat": 35.920162,
        "lng": 139.496239
    },
    {
        "code": "H111320100055",
        "type": 16016,
        "name": "医学アカデミー",
        "address": "川越市中台元町1-18-1",
        "lat": 35.890785,
        "lng": 139.480492
    },
    {
        "code": "H111320100064",
        "type": 16016,
        "name": "東京国際学園外語専門学校",
        "address": "川越市大字砂1071-5",
        "lat": 35.88905,
        "lng": 139.499251
    },
    {
        "code": "H211320100018",
        "type": 16015,
        "name": "山手日本語学校",
        "address": "川越市脇田本町11-10",
        "lat": 35.905922,
        "lng": 139.480041
    }
]