[
    {
        "code": "A111220900027",
        "type": 16011,
        "name": "名栗幼稚園",
        "address": "飯能市上名栗2951",
        "lat": 35.886608,
        "lng": 139.180238
    },
    {
        "code": "A111320900016",
        "type": 16011,
        "name": "飯能幼稚園",
        "address": "飯能市山手町9-14",
        "lat": 35.858113,
        "lng": 139.312496
    },
    {
        "code": "A111320900025",
        "type": 16011,
        "name": "わかば幼稚園",
        "address": "飯能市大字小久保146",
        "lat": 35.866392,
        "lng": 139.3414
    },
    {
        "code": "A111320900034",
        "type": 16011,
        "name": "大東幼稚園",
        "address": "飯能市永田530",
        "lat": 35.861087,
        "lng": 139.296
    },
    {
        "code": "A111320900043",
        "type": 16011,
        "name": "加治幼稚園",
        "address": "飯能市川寺462-2",
        "lat": 35.843899,
        "lng": 139.327312
    },
    {
        "code": "A211320900015",
        "type": 16013,
        "name": "さゆり幼稚園",
        "address": "飯能市緑町2-5",
        "lat": 35.850955,
        "lng": 139.329977
    },
    {
        "code": "A211320900024",
        "type": 16013,
        "name": "白鳥幼稚園",
        "address": "飯能市大字岩沢1129",
        "lat": 35.83708,
        "lng": 139.342058
    },
    {
        "code": "B111220900016",
        "type": 16001,
        "name": "飯能第一小学校",
        "address": "飯能市山手町13-8",
        "lat": 35.858621,
        "lng": 139.314715
    },
    {
        "code": "B111220900025",
        "type": 16001,
        "name": "飯能第二小学校",
        "address": "飯能市小瀬戸548-1",
        "lat": 35.866787,
        "lng": 139.273054
    },
    {
        "code": "B111220900034",
        "type": 16001,
        "name": "南高麗小学校",
        "address": "飯能市下直竹38",
        "lat": 35.840651,
        "lng": 139.278025
    },
    {
        "code": "B111220900043",
        "type": 16001,
        "name": "加治小学校",
        "address": "飯能市川寺500",
        "lat": 35.842624,
        "lng": 139.32602
    },
    {
        "code": "B111220900052",
        "type": 16001,
        "name": "精明小学校",
        "address": "飯能市大字小久保54-2",
        "lat": 35.865955,
        "lng": 139.342796
    },
    {
        "code": "B111220900061",
        "type": 16001,
        "name": "原市場小学校",
        "address": "飯能市下赤工442-2",
        "lat": 35.868343,
        "lng": 139.247557
    },
    {
        "code": "B111220900070",
        "type": 16001,
        "name": "富士見小学校",
        "address": "飯能市双柳1-1",
        "lat": 35.856844,
        "lng": 139.326881
    },
    {
        "code": "B111220900089",
        "type": 16001,
        "name": "加治東小学校",
        "address": "飯能市岩沢1243",
        "lat": 35.836486,
        "lng": 139.338214
    },
    {
        "code": "B111220900098",
        "type": 16001,
        "name": "双柳小学校",
        "address": "飯能市双柳1194",
        "lat": 35.853845,
        "lng": 139.33938
    },
    {
        "code": "B111220900105",
        "type": 16001,
        "name": "美杉台小学校",
        "address": "飯能市美杉台1-29",
        "lat": 35.844234,
        "lng": 139.310605
    },
    {
        "code": "B111220900114",
        "type": 16001,
        "name": "奥武蔵小学校",
        "address": "飯能市長沢26-2",
        "lat": 35.912238,
        "lng": 139.230627
    },
    {
        "code": "B111220900123",
        "type": 16001,
        "name": "名栗小学校",
        "address": "飯能市大字上名栗2944",
        "lat": 35.886286,
        "lng": 139.179619
    },
    {
        "code": "C111220900014",
        "type": 16002,
        "name": "飯能第一中学校",
        "address": "飯能市双柳1-1",
        "lat": 35.858122,
        "lng": 139.327658
    },
    {
        "code": "C111220900023",
        "type": 16002,
        "name": "南高麗中学校",
        "address": "飯能市下直竹1061",
        "lat": 35.843706,
        "lng": 139.275942
    },
    {
        "code": "C111220900032",
        "type": 16002,
        "name": "原市場中学校",
        "address": "飯能市原市場646",
        "lat": 35.867093,
        "lng": 139.234058
    },
    {
        "code": "C111220900041",
        "type": 16002,
        "name": "飯能西中学校",
        "address": "飯能市飯能287",
        "lat": 35.858371,
        "lng": 139.306716
    },
    {
        "code": "C111220900050",
        "type": 16002,
        "name": "加治中学校",
        "address": "飯能市阿須164-1",
        "lat": 35.836513,
        "lng": 139.331437
    },
    {
        "code": "C111220900069",
        "type": 16002,
        "name": "美杉台中学校",
        "address": "飯能市美杉台5-3",
        "lat": 35.847539,
        "lng": 139.303883
    },
    {
        "code": "C111220900078",
        "type": 16002,
        "name": "奥武蔵中学校",
        "address": "飯能市長沢73-1",
        "lat": 35.911611,
        "lng": 139.228865
    },
    {
        "code": "C111320900012",
        "type": 16002,
        "name": "聖望学園中学校",
        "address": "飯能市中山292",
        "lat": 35.86006,
        "lng": 139.324393
    },
    {
        "code": "C111320900021",
        "type": 16002,
        "name": "自由の森学園中学校",
        "address": "飯能市小岩井613",
        "lat": 35.860886,
        "lng": 139.269412
    },
    {
        "code": "D111210000236",
        "type": 16004,
        "name": "飯能高等学校",
        "address": "飯能市本町17-13",
        "lat": 35.858205,
        "lng": 139.31852
    },
    {
        "code": "D111210000959",
        "type": 16004,
        "name": "飯能南高等学校",
        "address": "飯能市阿須298-2",
        "lat": 35.836014,
        "lng": 139.329937
    },
    {
        "code": "D111320900010",
        "type": 16004,
        "name": "聖望学園高等学校",
        "address": "飯能市中山292",
        "lat": 35.859983,
        "lng": 139.324659
    },
    {
        "code": "D111320900029",
        "type": 16004,
        "name": "自由の森学園高等学校",
        "address": "飯能市小岩井613",
        "lat": 35.860676,
        "lng": 139.268749
    },
    {
        "code": "D111320900038",
        "type": 16004,
        "name": "大川学園高等学校",
        "address": "飯能市仲町16-8",
        "lat": 35.852902,
        "lng": 139.316574
    },
    {
        "code": "F111310102165",
        "type": 16007,
        "name": "駿河台大学",
        "address": "飯能市大字阿須字一の木698",
        "lat": 35.832708,
        "lng": 139.334798
    },
    {
        "code": "H111320900011",
        "type": 16016,
        "name": "大川学園高等専修学校",
        "address": "飯能市下加治345",
        "lat": 35.86078,
        "lng": 139.33591
    },
    {
        "code": "H111320900020",
        "type": 16016,
        "name": "飯能看護専門学校",
        "address": "飯能市下加治359",
        "lat": 35.859927,
        "lng": 139.335561
    },
    {
        "code": "H111320900039",
        "type": 16016,
        "name": "大川学園医療福祉専門学校",
        "address": "飯能市大字下加治345",
        "lat": 35.861333,
        "lng": 139.336102
    },
    {
        "code": "H211320900010",
        "type": 16015,
        "name": "飯能研修学院",
        "address": "飯能市八幡町7-6",
        "lat": 35.854541,
        "lng": 139.318848
    }
]