[
    {
        "code": "A111321700016",
        "type": 16011,
        "name": "英和幼稚園",
        "address": "鴻巣市東1-1-27",
        "lat": 36.062219,
        "lng": 139.515586
    },
    {
        "code": "A111321700025",
        "type": 16011,
        "name": "鴻巣幼稚園",
        "address": "鴻巣市本町6-3-4",
        "lat": 36.058053,
        "lng": 139.515697
    },
    {
        "code": "A111321700034",
        "type": 16011,
        "name": "箕田幼稚園",
        "address": "鴻巣市箕田327-3",
        "lat": 36.075286,
        "lng": 139.479985
    },
    {
        "code": "A111321700043",
        "type": 16011,
        "name": "鴻巣ひかり幼稚園",
        "address": "鴻巣市上谷1950-1",
        "lat": 36.057585,
        "lng": 139.537216
    },
    {
        "code": "A111321700052",
        "type": 16011,
        "name": "大日幼稚園",
        "address": "鴻巣市荊原1",
        "lat": 36.100836,
        "lng": 139.437627
    },
    {
        "code": "A111321700061",
        "type": 16011,
        "name": "吹上中央幼稚園",
        "address": "鴻巣市吹上富士見1-14-25",
        "lat": 36.099842,
        "lng": 139.453214
    },
    {
        "code": "A211321700015",
        "type": 16013,
        "name": "エンゼル幼稚園",
        "address": "鴻巣市加美1-2-34",
        "lat": 36.06447,
        "lng": 139.506948
    },
    {
        "code": "A211321700024",
        "type": 16013,
        "name": "ゆめのはなこども園",
        "address": "鴻巣市原馬室3747",
        "lat": 36.035955,
        "lng": 139.51965
    },
    {
        "code": "A211321700033",
        "type": 16013,
        "name": "めぐみの木こども園",
        "address": "鴻巣市原馬室4113",
        "lat": 36.042449,
        "lng": 139.513039
    },
    {
        "code": "A211321700042",
        "type": 16013,
        "name": "大芦こども園",
        "address": "鴻巣市大芦1616-2",
        "lat": 36.09442,
        "lng": 139.444305
    },
    {
        "code": "B111221700016",
        "type": 16001,
        "name": "鴻巣東小学校",
        "address": "鴻巣市本町6-4-56",
        "lat": 36.059045,
        "lng": 139.51672
    },
    {
        "code": "B111221700025",
        "type": 16001,
        "name": "鴻巣南小学校",
        "address": "鴻巣市本町8-7-23",
        "lat": 36.054101,
        "lng": 139.51547
    },
    {
        "code": "B111221700034",
        "type": 16001,
        "name": "馬室小学校",
        "address": "鴻巣市滝馬室555",
        "lat": 36.043546,
        "lng": 139.506359
    },
    {
        "code": "B111221700043",
        "type": 16001,
        "name": "田間宮小学校",
        "address": "鴻巣市糠田2985",
        "lat": 36.06496,
        "lng": 139.491029
    },
    {
        "code": "B111221700052",
        "type": 16001,
        "name": "箕田小学校",
        "address": "鴻巣市箕田408",
        "lat": 36.076541,
        "lng": 139.482557
    },
    {
        "code": "B111221700061",
        "type": 16001,
        "name": "笠原小学校",
        "address": "鴻巣市笠原1613",
        "lat": 36.063879,
        "lng": 139.541162
    },
    {
        "code": "B111221700070",
        "type": 16001,
        "name": "常光小学校",
        "address": "鴻巣市下谷369",
        "lat": 36.050574,
        "lng": 139.54805
    },
    {
        "code": "B111221700089",
        "type": 16001,
        "name": "鴻巣北小学校",
        "address": "鴻巣市神明3-18-10",
        "lat": 36.072043,
        "lng": 139.504804
    },
    {
        "code": "B111221700098",
        "type": 16001,
        "name": "松原小学校",
        "address": "鴻巣市原馬室2425",
        "lat": 36.03713,
        "lng": 139.519664
    },
    {
        "code": "B111221700105",
        "type": 16001,
        "name": "赤見台第一小学校",
        "address": "鴻巣市赤見台4-19-1",
        "lat": 36.082846,
        "lng": 139.482918
    },
    {
        "code": "B111221700114",
        "type": 16001,
        "name": "赤見台第二小学校",
        "address": "鴻巣市赤見台2-6-1",
        "lat": 36.0894,
        "lng": 139.475557
    },
    {
        "code": "B111221700123",
        "type": 16001,
        "name": "鴻巣中央小学校",
        "address": "鴻巣市中央30-1",
        "lat": 36.06835,
        "lng": 139.522469
    },
    {
        "code": "B111221700132",
        "type": 16001,
        "name": "吹上小学校",
        "address": "鴻巣市南1-10-5",
        "lat": 36.101758,
        "lng": 139.450003
    },
    {
        "code": "B111221700141",
        "type": 16001,
        "name": "小谷小学校",
        "address": "鴻巣市小谷1890-1",
        "lat": 36.084845,
        "lng": 139.464531
    },
    {
        "code": "B111221700150",
        "type": 16001,
        "name": "下忍小学校",
        "address": "鴻巣市鎌塚10",
        "lat": 36.108175,
        "lng": 139.459946
    },
    {
        "code": "B111221700169",
        "type": 16001,
        "name": "大芦小学校",
        "address": "鴻巣市大芦923-1",
        "lat": 36.094593,
        "lng": 139.453281
    },
    {
        "code": "B111221700178",
        "type": 16001,
        "name": "屈巣小学校",
        "address": "鴻巣市屈巣4515-1",
        "lat": 36.091263,
        "lng": 139.511636
    },
    {
        "code": "B111221700187",
        "type": 16001,
        "name": "共和小学校",
        "address": "鴻巣市新井194-2",
        "lat": 36.100818,
        "lng": 139.539549
    },
    {
        "code": "B111221700196",
        "type": 16001,
        "name": "広田小学校",
        "address": "鴻巣市広田3156-5",
        "lat": 36.109066,
        "lng": 139.511524
    },
    {
        "code": "C111221700014",
        "type": 16002,
        "name": "鴻巣中学校",
        "address": "鴻巣市東2-4-62",
        "lat": 36.060906,
        "lng": 139.517053
    },
    {
        "code": "C111221700023",
        "type": 16002,
        "name": "鴻巣北中学校",
        "address": "鴻巣市箕田4280",
        "lat": 36.072015,
        "lng": 139.509248
    },
    {
        "code": "C111221700032",
        "type": 16002,
        "name": "鴻巣西中学校",
        "address": "鴻巣市大間1161",
        "lat": 36.05885,
        "lng": 139.497139
    },
    {
        "code": "C111221700041",
        "type": 16002,
        "name": "鴻巣南中学校",
        "address": "鴻巣市原馬室3685",
        "lat": 36.032574,
        "lng": 139.517609
    },
    {
        "code": "C111221700050",
        "type": 16002,
        "name": "赤見台中学校",
        "address": "鴻巣市赤見台4-25-1",
        "lat": 36.081568,
        "lng": 139.485001
    },
    {
        "code": "C111221700069",
        "type": 16002,
        "name": "吹上中学校",
        "address": "鴻巣市吹上富士見1-6-1",
        "lat": 36.100485,
        "lng": 139.456497
    },
    {
        "code": "C111221700078",
        "type": 16002,
        "name": "吹上北中学校",
        "address": "鴻巣市鎌塚550",
        "lat": 36.112396,
        "lng": 139.454252
    },
    {
        "code": "C111221700087",
        "type": 16002,
        "name": "川里中学校",
        "address": "鴻巣市関新田1560-1",
        "lat": 36.097568,
        "lng": 139.524856
    },
    {
        "code": "D111210000316",
        "type": 16004,
        "name": "鴻巣高等学校",
        "address": "鴻巣市大間1020",
        "lat": 36.059766,
        "lng": 139.50086
    },
    {
        "code": "D111210000566",
        "type": 16004,
        "name": "鴻巣女子高等学校",
        "address": "鴻巣市天神1-1-72",
        "lat": 36.060156,
        "lng": 139.517969
    },
    {
        "code": "D111210001084",
        "type": 16004,
        "name": "吹上秋桜高等学校",
        "address": "鴻巣市前砂907-1",
        "lat": 36.086844,
        "lng": 139.467502
    },
    {
        "code": "H111321700011",
        "type": 16016,
        "name": "関東工業自動車大学校",
        "address": "鴻巣市糠田2618-8",
        "lat": 36.072709,
        "lng": 139.483782
    },
    {
        "code": "H111321700020",
        "type": 16016,
        "name": "関東福祉専門学校",
        "address": "鴻巣市中央23-10",
        "lat": 36.062886,
        "lng": 139.524005
    },
    {
        "code": "H211321700010",
        "type": 16015,
        "name": "鴻巣准看護学校",
        "address": "鴻巣市中央2-2",
        "lat": 36.065667,
        "lng": 139.52333
    }
]