[
    {
        "code": "A111321600017",
        "type": 16011,
        "name": "増子幼稚園",
        "address": "羽生市東2-4-41",
        "lat": 36.174856,
        "lng": 139.543767
    },
    {
        "code": "A111321600026",
        "type": 16011,
        "name": "建福寺幼稚園",
        "address": "羽生市南1-3-12",
        "lat": 36.170312,
        "lng": 139.536235
    },
    {
        "code": "A111321600035",
        "type": 16011,
        "name": "春山幼稚園",
        "address": "羽生市稲子37-1",
        "lat": 36.183147,
        "lng": 139.546986
    },
    {
        "code": "A211321600016",
        "type": 16013,
        "name": "かなくぼこども園キラリ",
        "address": "羽生市大字北荻島430-1",
        "lat": 36.167116,
        "lng": 139.585056
    },
    {
        "code": "A211321600025",
        "type": 16013,
        "name": "きむら認定こども園",
        "address": "羽生市上手子林76-3",
        "lat": 36.153112,
        "lng": 139.563589
    },
    {
        "code": "A211321600034",
        "type": 16013,
        "name": "とねの会こども園",
        "address": "羽生市上川俣87",
        "lat": 36.183957,
        "lng": 139.518978
    },
    {
        "code": "B111221600017",
        "type": 16001,
        "name": "羽生北小学校",
        "address": "羽生市北2-1-1",
        "lat": 36.17617,
        "lng": 139.539851
    },
    {
        "code": "B111221600026",
        "type": 16001,
        "name": "新郷第一小学校",
        "address": "羽生市大字上新郷5716",
        "lat": 36.174835,
        "lng": 139.508271
    },
    {
        "code": "B111221600035",
        "type": 16001,
        "name": "新郷第二小学校",
        "address": "羽生市大字下新郷1099",
        "lat": 36.146256,
        "lng": 139.522354
    },
    {
        "code": "B111221600044",
        "type": 16001,
        "name": "須影小学校",
        "address": "羽生市大字須影672",
        "lat": 36.150784,
        "lng": 139.547102
    },
    {
        "code": "B111221600053",
        "type": 16001,
        "name": "岩瀬小学校",
        "address": "羽生市上岩瀬1756",
        "lat": 36.163365,
        "lng": 139.524603
    },
    {
        "code": "B111221600062",
        "type": 16001,
        "name": "川俣小学校",
        "address": "羽生市本川俣629",
        "lat": 36.183613,
        "lng": 139.537156
    },
    {
        "code": "B111221600071",
        "type": 16001,
        "name": "井泉小学校",
        "address": "羽生市大字藤井上組270",
        "lat": 36.186141,
        "lng": 139.562737
    },
    {
        "code": "B111221600080",
        "type": 16001,
        "name": "手子林小学校",
        "address": "羽生市下手子林555",
        "lat": 36.153034,
        "lng": 139.572932
    },
    {
        "code": "B111221600099",
        "type": 16001,
        "name": "三田ヶ谷小学校",
        "address": "羽生市弥勒87",
        "lat": 36.176143,
        "lng": 139.592874
    },
    {
        "code": "B111221600106",
        "type": 16001,
        "name": "村君小学校",
        "address": "羽生市大字堤107",
        "lat": 36.204473,
        "lng": 139.586457
    },
    {
        "code": "B111221600115",
        "type": 16001,
        "name": "羽生南小学校",
        "address": "羽生市南6-5-1",
        "lat": 36.167226,
        "lng": 139.544657
    },
    {
        "code": "C111221600015",
        "type": 16002,
        "name": "西中学校",
        "address": "羽生市羽生120",
        "lat": 36.176086,
        "lng": 139.530824
    },
    {
        "code": "C111221600024",
        "type": 16002,
        "name": "南中学校",
        "address": "羽生市大字中岩瀬226",
        "lat": 36.160727,
        "lng": 139.537602
    },
    {
        "code": "C111221600033",
        "type": 16002,
        "name": "東中学校",
        "address": "羽生市大字今泉1448",
        "lat": 36.173032,
        "lng": 139.575237
    },
    {
        "code": "D111210000290",
        "type": 16004,
        "name": "羽生実業高等学校",
        "address": "羽生市大字羽生323",
        "lat": 36.177836,
        "lng": 139.527936
    },
    {
        "code": "D111210000619",
        "type": 16004,
        "name": "誠和福祉高等学校",
        "address": "羽生市神戸706",
        "lat": 36.13748,
        "lng": 139.562434
    },
    {
        "code": "D111210000888",
        "type": 16004,
        "name": "羽生第一高等学校",
        "address": "羽生市下岩瀬153",
        "lat": 36.160449,
        "lng": 139.533103
    },
    {
        "code": "D111210001397",
        "type": 16004,
        "name": "羽生高等学校",
        "address": "羽生市加羽ヶ崎303-1",
        "lat": 36.161765,
        "lng": 139.543106
    },
    {
        "code": "E111230000320",
        "type": 16012,
        "name": "羽生ふじ高等学園",
        "address": "羽生市下羽生320-1",
        "lat": 36.169267,
        "lng": 139.552009
    },
    {
        "code": "F211310102226",
        "type": 16006,
        "name": "埼玉純真短期大学",
        "address": "羽生市大字下岩瀬字下岩瀬430",
        "lat": 36.162004,
        "lng": 139.526103
    },
    {
        "code": "H211321600011",
        "type": 16015,
        "name": "羽生高等簿記珠算学校",
        "address": "羽生市中央5-2-10",
        "lat": 36.171298,
        "lng": 139.541373
    },
    {
        "code": "H211321600020",
        "type": 16015,
        "name": "北埼玉医師会准看護学校",
        "address": "羽生市中央1-2-3",
        "lat": 36.170915,
        "lng": 139.535985
    }
]