[
    {
        "code": "A111322400017",
        "type": 16011,
        "name": "戸田幼稚園",
        "address": "戸田市本町1-12-8",
        "lat": 35.811544,
        "lng": 139.680853
    },
    {
        "code": "A111322400026",
        "type": 16011,
        "name": "戸田第一幼稚園",
        "address": "戸田市中町1-30-7",
        "lat": 35.813005,
        "lng": 139.689068
    },
    {
        "code": "A111322400035",
        "type": 16011,
        "name": "つつじ幼稚園",
        "address": "戸田市本町4-2-6",
        "lat": 35.806885,
        "lng": 139.683154
    },
    {
        "code": "A111322400044",
        "type": 16011,
        "name": "まきば幼稚園",
        "address": "戸田市笹目南町17-5",
        "lat": 35.810372,
        "lng": 139.652974
    },
    {
        "code": "A111322400053",
        "type": 16011,
        "name": "戸田ひまわり幼稚園",
        "address": "戸田市美女木1-8-7",
        "lat": 35.829613,
        "lng": 139.643016
    },
    {
        "code": "A111322400062",
        "type": 16011,
        "name": "ささめ幼稚園",
        "address": "戸田市笹目6-5-24",
        "lat": 35.815273,
        "lng": 139.646205
    },
    {
        "code": "A111322400071",
        "type": 16011,
        "name": "戸田東幼稚園",
        "address": "戸田市中町1-15-10",
        "lat": 35.812107,
        "lng": 139.691177
    },
    {
        "code": "A111322400080",
        "type": 16011,
        "name": "カトレア幼稚園",
        "address": "戸田市新曽183",
        "lat": 35.81824,
        "lng": 139.670645
    },
    {
        "code": "A111322400099",
        "type": 16011,
        "name": "はごろも幼稚園",
        "address": "戸田市下戸田2-22-11",
        "lat": 35.817982,
        "lng": 139.684655
    },
    {
        "code": "A111322400106",
        "type": 16011,
        "name": "戸田東第二幼稚園",
        "address": "戸田市新曽2279-3",
        "lat": 35.821261,
        "lng": 139.659599
    },
    {
        "code": "B111222400017",
        "type": 16001,
        "name": "戸田第一小学校",
        "address": "戸田市上戸田3-7-5",
        "lat": 35.813468,
        "lng": 139.676936
    },
    {
        "code": "B111222400026",
        "type": 16001,
        "name": "戸田第二小学校",
        "address": "戸田市喜沢南2-2-37",
        "lat": 35.804554,
        "lng": 139.692101
    },
    {
        "code": "B111222400035",
        "type": 16001,
        "name": "新曽小学校",
        "address": "戸田市新曽南2-13-8",
        "lat": 35.810524,
        "lng": 139.66366
    },
    {
        "code": "B111222400044",
        "type": 16001,
        "name": "美谷本小学校",
        "address": "戸田市美女木7-11-3",
        "lat": 35.82616,
        "lng": 139.637106
    },
    {
        "code": "B111222400053",
        "type": 16001,
        "name": "笹目小学校",
        "address": "戸田市笹目6-9-1",
        "lat": 35.814717,
        "lng": 139.645133
    },
    {
        "code": "B111222400062",
        "type": 16001,
        "name": "戸田東小学校",
        "address": "戸田市下戸田1-11-15",
        "lat": 35.814137,
        "lng": 139.68749
    },
    {
        "code": "B111222400071",
        "type": 16001,
        "name": "戸田南小学校",
        "address": "戸田市本町4-8-2",
        "lat": 35.807025,
        "lng": 139.681047
    },
    {
        "code": "B111222400080",
        "type": 16001,
        "name": "喜沢小学校",
        "address": "戸田市喜沢1-48-6",
        "lat": 35.811997,
        "lng": 139.696379
    },
    {
        "code": "B111222400099",
        "type": 16001,
        "name": "笹目東小学校",
        "address": "戸田市笹目3-17-12",
        "lat": 35.815245,
        "lng": 139.651133
    },
    {
        "code": "B111222400106",
        "type": 16001,
        "name": "新曽北小学校",
        "address": "戸田市大字新曽1367",
        "lat": 35.818078,
        "lng": 139.664604
    },
    {
        "code": "B111222400115",
        "type": 16001,
        "name": "美女木小学校",
        "address": "戸田市美女木2-33-1",
        "lat": 35.828021,
        "lng": 139.646938
    },
    {
        "code": "B111222400124",
        "type": 16001,
        "name": "芦原小学校",
        "address": "戸田市大字新曽1961",
        "lat": 35.824614,
        "lng": 139.661517
    },
    {
        "code": "C111222400015",
        "type": 16002,
        "name": "戸田中学校",
        "address": "戸田市本町5-8-46",
        "lat": 35.804275,
        "lng": 139.678158
    },
    {
        "code": "C111222400024",
        "type": 16002,
        "name": "戸田東中学校",
        "address": "戸田市下戸田1-11-15",
        "lat": 35.814468,
        "lng": 139.685796
    },
    {
        "code": "C111222400033",
        "type": 16002,
        "name": "美笹中学校",
        "address": "戸田市美女木5-12-6",
        "lat": 35.8198,
        "lng": 139.640634
    },
    {
        "code": "C111222400042",
        "type": 16002,
        "name": "喜沢中学校",
        "address": "戸田市喜沢南1-6-29",
        "lat": 35.806442,
        "lng": 139.693574
    },
    {
        "code": "C111222400051",
        "type": 16002,
        "name": "新曽中学校",
        "address": "戸田市大字新曽1448",
        "lat": 35.821022,
        "lng": 139.662826
    },
    {
        "code": "C111222400060",
        "type": 16002,
        "name": "笹目中学校",
        "address": "戸田市笹目4-38-1",
        "lat": 35.821828,
        "lng": 139.650327
    },
    {
        "code": "D111210000539",
        "type": 16004,
        "name": "戸田翔陽高等学校",
        "address": "戸田市新曽1093-1",
        "lat": 35.818912,
        "lng": 139.664993
    },
    {
        "code": "D111210001066",
        "type": 16004,
        "name": "南稜高等学校",
        "address": "戸田市美女木4-23-4",
        "lat": 35.824299,
        "lng": 139.649216
    },
    {
        "code": "E111230000419",
        "type": 16012,
        "name": "戸田かけはし高等特別支援学校",
        "address": "戸田市新曽1093-1",
        "lat": 35.819663,
        "lng": 139.664414
    },
    {
        "code": "H111322400012",
        "type": 16016,
        "name": "戸田中央看護専門学校",
        "address": "戸田市本町1-8-16",
        "lat": 35.810749,
        "lng": 139.681514
    },
    {
        "code": "H111322400021",
        "type": 16016,
        "name": "蕨戸田市医師会看護専門学校",
        "address": "戸田市大字新曽1295-3",
        "lat": 35.822847,
        "lng": 139.665159
    }
]