[
    {
        "code": "A111322300018",
        "type": 16011,
        "name": "わらび幼稚園",
        "address": "蕨市南町2-12-2",
        "lat": 35.81997,
        "lng": 139.697493
    },
    {
        "code": "A111322300027",
        "type": 16011,
        "name": "明星幼稚園",
        "address": "蕨市中央2-8-27",
        "lat": 35.823515,
        "lng": 139.68862
    },
    {
        "code": "A111322300036",
        "type": 16011,
        "name": "早蕨幼稚園",
        "address": "蕨市錦町3-11-14",
        "lat": 35.827014,
        "lng": 139.67175
    },
    {
        "code": "B111222300018",
        "type": 16001,
        "name": "東小学校",
        "address": "蕨市塚越3-10-36",
        "lat": 35.825106,
        "lng": 139.699406
    },
    {
        "code": "B111222300027",
        "type": 16001,
        "name": "西小学校",
        "address": "蕨市錦町5-11-30",
        "lat": 35.830188,
        "lng": 139.668103
    },
    {
        "code": "B111222300036",
        "type": 16001,
        "name": "南小学校",
        "address": "蕨市南町1-36-6",
        "lat": 35.817912,
        "lng": 139.692129
    },
    {
        "code": "B111222300045",
        "type": 16001,
        "name": "北小学校",
        "address": "蕨市北町2-11-6",
        "lat": 35.827022,
        "lng": 139.678797
    },
    {
        "code": "B111222300054",
        "type": 16001,
        "name": "中央小学校",
        "address": "蕨市中央6-8-25",
        "lat": 35.821439,
        "lng": 139.683408
    },
    {
        "code": "B111222300063",
        "type": 16001,
        "name": "中央東小学校",
        "address": "蕨市中央7-18-7",
        "lat": 35.818669,
        "lng": 139.687345
    },
    {
        "code": "B111222300072",
        "type": 16001,
        "name": "塚越小学校",
        "address": "蕨市塚越5-7-20",
        "lat": 35.8243,
        "lng": 139.704795
    },
    {
        "code": "C111222300016",
        "type": 16002,
        "name": "第一中学校",
        "address": "蕨市南町3-1-29",
        "lat": 35.81944,
        "lng": 139.698601
    },
    {
        "code": "C111222300025",
        "type": 16002,
        "name": "第二中学校",
        "address": "蕨市錦町3-9-38",
        "lat": 35.828077,
        "lng": 139.671547
    },
    {
        "code": "C111222300034",
        "type": 16002,
        "name": "東中学校",
        "address": "蕨市塚越6-7-34",
        "lat": 35.825772,
        "lng": 139.703128
    },
    {
        "code": "C111322300014",
        "type": 16002,
        "name": "武南中学校",
        "address": "蕨市塚越5-10-21",
        "lat": 35.822856,
        "lng": 139.705219
    },
    {
        "code": "D111210000432",
        "type": 16004,
        "name": "蕨高等学校",
        "address": "蕨市北町5-3-8",
        "lat": 35.832855,
        "lng": 139.674352
    },
    {
        "code": "D111322300012",
        "type": 16004,
        "name": "武南高等学校",
        "address": "蕨市塚越5-10-21",
        "lat": 35.822884,
        "lng": 139.704628
    }
]