[
    {
        "code": "A111322700014",
        "type": 16011,
        "name": "朝霞幼稚園",
        "address": "朝霞市幸町3-5-16",
        "lat": 35.789231,
        "lng": 139.591403
    },
    {
        "code": "A111322700023",
        "type": 16011,
        "name": "菩提樹の森幼稚園",
        "address": "朝霞市膝折町1-16-17",
        "lat": 35.792921,
        "lng": 139.585134
    },
    {
        "code": "A111322700032",
        "type": 16011,
        "name": "さいか幼稚園",
        "address": "朝霞市西弁財1-6-17",
        "lat": 35.815058,
        "lng": 139.5831
    },
    {
        "code": "A111322700041",
        "type": 16011,
        "name": "あさか台幼稚園",
        "address": "朝霞市根岸台7-2-6",
        "lat": 35.799603,
        "lng": 139.606183
    },
    {
        "code": "A111322700050",
        "type": 16011,
        "name": "根岸幼稚園",
        "address": "朝霞市根岸台4-8-38",
        "lat": 35.803961,
        "lng": 139.609283
    },
    {
        "code": "A111322700069",
        "type": 16011,
        "name": "朝霞花の木幼稚園",
        "address": "朝霞市田島1-12-1",
        "lat": 35.814195,
        "lng": 139.604342
    },
    {
        "code": "A111322700078",
        "type": 16011,
        "name": "朝霞なかよし幼稚園",
        "address": "朝霞市北原2-7-16",
        "lat": 35.820685,
        "lng": 139.588024
    },
    {
        "code": "A111322700087",
        "type": 16011,
        "name": "朝霞たちばな幼稚園",
        "address": "朝霞市宮戸3-7-1",
        "lat": 35.827707,
        "lng": 139.584263
    },
    {
        "code": "B111222700014",
        "type": 16001,
        "name": "朝霞第一小学校",
        "address": "朝霞市膝折町4-11-7",
        "lat": 35.801163,
        "lng": 139.582361
    },
    {
        "code": "B111222700023",
        "type": 16001,
        "name": "朝霞第二小学校",
        "address": "朝霞市岡3-16-13",
        "lat": 35.809301,
        "lng": 139.604387
    },
    {
        "code": "B111222700032",
        "type": 16001,
        "name": "朝霞第三小学校",
        "address": "朝霞市浜崎230",
        "lat": 35.819299,
        "lng": 139.600165
    },
    {
        "code": "B111222700041",
        "type": 16001,
        "name": "朝霞第四小学校",
        "address": "朝霞市幸町1-6-9",
        "lat": 35.794773,
        "lng": 139.587577
    },
    {
        "code": "B111222700050",
        "type": 16001,
        "name": "朝霞第五小学校",
        "address": "朝霞市泉水3-16-1",
        "lat": 35.810911,
        "lng": 139.581445
    },
    {
        "code": "B111222700069",
        "type": 16001,
        "name": "朝霞第六小学校",
        "address": "朝霞市本町1-25-1",
        "lat": 35.804524,
        "lng": 139.596499
    },
    {
        "code": "B111222700078",
        "type": 16001,
        "name": "朝霞第七小学校",
        "address": "朝霞市北原2-6-1",
        "lat": 35.819709,
        "lng": 139.586719
    },
    {
        "code": "B111222700087",
        "type": 16001,
        "name": "朝霞第八小学校",
        "address": "朝霞市栄町5-1-41",
        "lat": 35.790775,
        "lng": 139.595833
    },
    {
        "code": "B111222700096",
        "type": 16001,
        "name": "朝霞第九小学校",
        "address": "朝霞市台295",
        "lat": 35.809301,
        "lng": 139.61197
    },
    {
        "code": "B111222700103",
        "type": 16001,
        "name": "朝霞第十小学校",
        "address": "朝霞市溝沼828-1",
        "lat": 35.804662,
        "lng": 139.584278
    },
    {
        "code": "C111222700012",
        "type": 16002,
        "name": "朝霞第一中学校",
        "address": "朝霞市膝折2-31",
        "lat": 35.794774,
        "lng": 139.587583
    },
    {
        "code": "C111222700021",
        "type": 16002,
        "name": "朝霞第二中学校",
        "address": "朝霞市岡199",
        "lat": 35.815328,
        "lng": 139.59736
    },
    {
        "code": "C111222700030",
        "type": 16002,
        "name": "朝霞第三中学校",
        "address": "朝霞市溝沼1043-1",
        "lat": 35.807551,
        "lng": 139.585944
    },
    {
        "code": "C111222700049",
        "type": 16002,
        "name": "朝霞第四中学校",
        "address": "朝霞市栄町5-1-60",
        "lat": 35.789387,
        "lng": 139.595277
    },
    {
        "code": "C111222700058",
        "type": 16002,
        "name": "朝霞第五中学校",
        "address": "朝霞市宮戸1580",
        "lat": 35.824882,
        "lng": 139.597026
    },
    {
        "code": "D111210000511",
        "type": 16004,
        "name": "朝霞高等学校",
        "address": "朝霞市幸町3-13-65",
        "lat": 35.787831,
        "lng": 139.589528
    },
    {
        "code": "D111210000986",
        "type": 16004,
        "name": "朝霞西高等学校",
        "address": "朝霞市膝折2-17",
        "lat": 35.791728,
        "lng": 139.589078
    },
    {
        "code": "H211322700018",
        "type": 16015,
        "name": "朝霞准看護学校",
        "address": "朝霞市本町1-7-3",
        "lat": 35.79808,
        "lng": 139.593211
    }
]