[
    {
        "code": "A111322900012",
        "type": 16011,
        "name": "小羊幼稚園",
        "address": "和光市本町15-16",
        "lat": 35.785779,
        "lng": 139.608704
    },
    {
        "code": "A111322900021",
        "type": 16011,
        "name": "大和すみれ幼稚園",
        "address": "和光市南1-2-2",
        "lat": 35.772948,
        "lng": 139.618439
    },
    {
        "code": "A111322900030",
        "type": 16011,
        "name": "やまと幼稚園",
        "address": "和光市白子3-12-1",
        "lat": 35.792042,
        "lng": 139.633216
    },
    {
        "code": "A111322900049",
        "type": 16011,
        "name": "新倉幼稚園",
        "address": "和光市下新倉2-45-5",
        "lat": 35.787466,
        "lng": 139.622383
    },
    {
        "code": "A211322900011",
        "type": 16013,
        "name": "和光なかよしこども園",
        "address": "和光市広沢1-5-53",
        "lat": 35.782716,
        "lng": 139.606603
    },
    {
        "code": "B111222900012",
        "type": 16001,
        "name": "白子小学校",
        "address": "和光市白子3-2-10",
        "lat": 35.784861,
        "lng": 139.624663
    },
    {
        "code": "B111222900021",
        "type": 16001,
        "name": "新倉小学校",
        "address": "和光市新倉2-2-39",
        "lat": 35.793331,
        "lng": 139.619747
    },
    {
        "code": "B111222900030",
        "type": 16001,
        "name": "第三小学校",
        "address": "和光市中央1-1-4",
        "lat": 35.785138,
        "lng": 139.611498
    },
    {
        "code": "B111222900049",
        "type": 16001,
        "name": "第四小学校",
        "address": "和光市諏訪3-20",
        "lat": 35.778084,
        "lng": 139.617053
    },
    {
        "code": "B111222900058",
        "type": 16001,
        "name": "第五小学校",
        "address": "和光市南1-5-10",
        "lat": 35.771001,
        "lng": 139.616609
    },
    {
        "code": "B111222900067",
        "type": 16001,
        "name": "広沢小学校",
        "address": "和光市広沢1-5",
        "lat": 35.78286,
        "lng": 139.606971
    },
    {
        "code": "B111222900076",
        "type": 16001,
        "name": "北原小学校",
        "address": "和光市新倉1-5-27",
        "lat": 35.79222,
        "lng": 139.606109
    },
    {
        "code": "B111222900085",
        "type": 16001,
        "name": "本町小学校",
        "address": "和光市本町31-17",
        "lat": 35.785693,
        "lng": 139.604637
    },
    {
        "code": "B111222900094",
        "type": 16001,
        "name": "下新倉小学校",
        "address": "和光市下新倉5-21-1",
        "lat": 35.796588,
        "lng": 139.633306
    },
    {
        "code": "C111222900010",
        "type": 16002,
        "name": "大和中学校",
        "address": "和光市丸山台2-8-8",
        "lat": 35.785083,
        "lng": 139.618775
    },
    {
        "code": "C111222900029",
        "type": 16002,
        "name": "第二中学校",
        "address": "和光市広沢1-4",
        "lat": 35.782138,
        "lng": 139.608109
    },
    {
        "code": "C111222900038",
        "type": 16002,
        "name": "第三中学校",
        "address": "和光市南2-2-1",
        "lat": 35.773778,
        "lng": 139.614442
    },
    {
        "code": "D111210000655",
        "type": 16004,
        "name": "和光高等学校",
        "address": "和光市新倉3-22-1",
        "lat": 35.79684,
        "lng": 139.628756
    },
    {
        "code": "D111210001351",
        "type": 16004,
        "name": "和光国際高等学校",
        "address": "和光市広沢4-1",
        "lat": 35.778388,
        "lng": 139.603443
    },
    {
        "code": "E111230000071",
        "type": 16012,
        "name": "和光特別支援学校",
        "address": "和光市広沢4-3",
        "lat": 35.77861,
        "lng": 139.602138
    },
    {
        "code": "E111230000142",
        "type": 16012,
        "name": "和光南特別支援学校",
        "address": "和光市広沢4-5",
        "lat": 35.778944,
        "lng": 139.600166
    },
    {
        "code": "H111322900017",
        "type": 16016,
        "name": "朝霞地区看護専門学校",
        "address": "和光市諏訪2-4",
        "lat": 35.774483,
        "lng": 139.619544
    }
]