[
    {
        "code": "A111323700012",
        "type": 16011,
        "name": "みさと幼稚園",
        "address": "三郷市鷹野1-183",
        "lat": 35.796481,
        "lng": 139.886508
    },
    {
        "code": "A111323700021",
        "type": 16011,
        "name": "ちくみ幼稚園",
        "address": "三郷市彦沢1-19",
        "lat": 35.827229,
        "lng": 139.850585
    },
    {
        "code": "A111323700030",
        "type": 16011,
        "name": "ゆたか幼稚園",
        "address": "三郷市戸ヶ崎2-576",
        "lat": 35.800491,
        "lng": 139.866981
    },
    {
        "code": "A111323700049",
        "type": 16011,
        "name": "みさと団地みやおか幼稚園",
        "address": "三郷市彦成3-236",
        "lat": 35.854229,
        "lng": 139.856478
    },
    {
        "code": "A111323700058",
        "type": 16011,
        "name": "新和幼稚園",
        "address": "三郷市新和2-186",
        "lat": 35.820358,
        "lng": 139.88469
    },
    {
        "code": "A111323700067",
        "type": 16011,
        "name": "彦成幼稚園",
        "address": "三郷市谷口255-1",
        "lat": 35.826183,
        "lng": 139.869262
    },
    {
        "code": "A111323700076",
        "type": 16011,
        "name": "三郷ひかり幼稚園",
        "address": "三郷市彦糸3-1-1",
        "lat": 35.8615,
        "lng": 139.850281
    },
    {
        "code": "A111323700085",
        "type": 16011,
        "name": "天使幼稚園",
        "address": "三郷市彦成4-60-1",
        "lat": 35.85414,
        "lng": 139.861012
    },
    {
        "code": "A111323700094",
        "type": 16011,
        "name": "いなほ幼稚園",
        "address": "三郷市早稲田7-13-12",
        "lat": 35.855324,
        "lng": 139.890556
    },
    {
        "code": "A211323700011",
        "type": 16013,
        "name": "認定こども園わせだ",
        "address": "三郷市幸房1457-1",
        "lat": 35.836242,
        "lng": 139.877763
    },
    {
        "code": "A211323700020",
        "type": 16013,
        "name": "認定こども園栄光けやきの森",
        "address": "三郷市高州1-174-1",
        "lat": 35.789512,
        "lng": 139.883897
    },
    {
        "code": "A211323700039",
        "type": 16013,
        "name": "幼保連携型認定こども園みさとさくらの森",
        "address": "三郷市彦成4-321",
        "lat": 35.855534,
        "lng": 139.867316
    },
    {
        "code": "A211323700048",
        "type": 16013,
        "name": "埼玉さくら幼稚園",
        "address": "三郷市戸ヶ崎2336",
        "lat": 35.807825,
        "lng": 139.863338
    },
    {
        "code": "B111223700012",
        "type": 16001,
        "name": "早稲田小学校",
        "address": "三郷市三郷3-2-1",
        "lat": 35.844774,
        "lng": 139.882279
    },
    {
        "code": "B111223700021",
        "type": 16001,
        "name": "八木郷小学校",
        "address": "三郷市鷹野1-35-1",
        "lat": 35.802058,
        "lng": 139.887474
    },
    {
        "code": "B111223700030",
        "type": 16001,
        "name": "戸ヶ崎小学校",
        "address": "三郷市戸ヶ崎3-76-1",
        "lat": 35.804974,
        "lng": 139.869364
    },
    {
        "code": "B111223700049",
        "type": 16001,
        "name": "彦成小学校",
        "address": "三郷市彦倉1-133",
        "lat": 35.839358,
        "lng": 139.846532
    },
    {
        "code": "B111223700058",
        "type": 16001,
        "name": "高州小学校",
        "address": "三郷市高州2-275",
        "lat": 35.788837,
        "lng": 139.878642
    },
    {
        "code": "B111223700067",
        "type": 16001,
        "name": "吹上小学校",
        "address": "三郷市寄巻921-1",
        "lat": 35.796309,
        "lng": 139.865948
    },
    {
        "code": "B111223700076",
        "type": 16001,
        "name": "桜小学校",
        "address": "三郷市彦成4-5-16",
        "lat": 35.856467,
        "lng": 139.866529
    },
    {
        "code": "B111223700085",
        "type": 16001,
        "name": "鷹野小学校",
        "address": "三郷市鷹野3-211",
        "lat": 35.801558,
        "lng": 139.879197
    },
    {
        "code": "B111223700094",
        "type": 16001,
        "name": "新和小学校",
        "address": "三郷市中央2-28-12",
        "lat": 35.819356,
        "lng": 139.876352
    },
    {
        "code": "B111223700101",
        "type": 16001,
        "name": "幸房小学校",
        "address": "三郷市茂田井88",
        "lat": 35.837025,
        "lng": 139.87503
    },
    {
        "code": "B111223700110",
        "type": 16001,
        "name": "立花小学校",
        "address": "三郷市彦成4-3-18",
        "lat": 35.853301,
        "lng": 139.860947
    },
    {
        "code": "B111223700129",
        "type": 16001,
        "name": "彦糸小学校",
        "address": "三郷市彦成3-10-23",
        "lat": 35.859578,
        "lng": 139.852558
    },
    {
        "code": "B111223700138",
        "type": 16001,
        "name": "前谷小学校",
        "address": "三郷市戸ヶ崎2-600",
        "lat": 35.800336,
        "lng": 139.865337
    },
    {
        "code": "B111223700147",
        "type": 16001,
        "name": "高州東小学校",
        "address": "三郷市高州2-409",
        "lat": 35.787893,
        "lng": 139.883114
    },
    {
        "code": "B111223700156",
        "type": 16001,
        "name": "彦郷小学校",
        "address": "三郷市彦成3-8-29",
        "lat": 35.855939,
        "lng": 139.853253
    },
    {
        "code": "B111223700165",
        "type": 16001,
        "name": "丹後小学校",
        "address": "三郷市早稲田5-3",
        "lat": 35.854718,
        "lng": 139.885083
    },
    {
        "code": "B111223700174",
        "type": 16001,
        "name": "前間小学校",
        "address": "三郷市前間197-1",
        "lat": 35.861772,
        "lng": 139.888722
    },
    {
        "code": "B111223700183",
        "type": 16001,
        "name": "瑞木小学校",
        "address": "三郷市さつき平1-6-1",
        "lat": 35.849635,
        "lng": 139.870002
    },
    {
        "code": "B111223700192",
        "type": 16001,
        "name": "後谷小学校",
        "address": "三郷市後谷36-3",
        "lat": 35.860495,
        "lng": 139.881833
    },
    {
        "code": "C111223700010",
        "type": 16002,
        "name": "南中学校",
        "address": "三郷市鷹野3-356",
        "lat": 35.805696,
        "lng": 139.879447
    },
    {
        "code": "C111223700029",
        "type": 16002,
        "name": "北中学校",
        "address": "三郷市泉2-13-1",
        "lat": 35.842897,
        "lng": 139.863097
    },
    {
        "code": "C111223700038",
        "type": 16002,
        "name": "栄中学校",
        "address": "三郷市栄4-325",
        "lat": 35.815778,
        "lng": 139.877808
    },
    {
        "code": "C111223700047",
        "type": 16002,
        "name": "彦成中学校",
        "address": "三郷市彦成4-1-19",
        "lat": 35.855023,
        "lng": 139.869057
    },
    {
        "code": "C111223700056",
        "type": 16002,
        "name": "彦糸中学校",
        "address": "三郷市彦成3-14-4",
        "lat": 35.861246,
        "lng": 139.851489
    },
    {
        "code": "C111223700065",
        "type": 16002,
        "name": "前川中学校",
        "address": "三郷市栄5-141",
        "lat": 35.807168,
        "lng": 139.873281
    },
    {
        "code": "C111223700074",
        "type": 16002,
        "name": "早稲田中学校",
        "address": "三郷市彦成5-56",
        "lat": 35.857495,
        "lng": 139.875306
    },
    {
        "code": "C111223700083",
        "type": 16002,
        "name": "瑞穂中学校",
        "address": "三郷市大広戸1001",
        "lat": 35.849829,
        "lng": 139.87364
    },
    {
        "code": "D111210000824",
        "type": 16004,
        "name": "三郷高等学校",
        "address": "三郷市花和田620-1",
        "lat": 35.829804,
        "lng": 139.870141
    },
    {
        "code": "D111210001119",
        "type": 16004,
        "name": "三郷北高等学校",
        "address": "三郷市大広戸808",
        "lat": 35.843386,
        "lng": 139.875335
    },
    {
        "code": "D111210001315",
        "type": 16004,
        "name": "三郷工業技術高等学校",
        "address": "三郷市彦成3-325",
        "lat": 35.852718,
        "lng": 139.858891
    },
    {
        "code": "E111230000197",
        "type": 16012,
        "name": "三郷特別支援学校",
        "address": "三郷市駒形56",
        "lat": 35.847885,
        "lng": 139.863863
    },
    {
        "code": "H111323700017",
        "type": 16016,
        "name": "獨協医科大学附属看護専門学校三郷校",
        "address": "三郷市彦成3-11-21",
        "lat": 35.862536,
        "lng": 139.858108
    }
]