[
    {
        "code": "A111323800011",
        "type": 16011,
        "name": "蓮田幼稚園",
        "address": "蓮田市関山3-2-27",
        "lat": 35.988121,
        "lng": 139.653637
    },
    {
        "code": "A111323800020",
        "type": 16011,
        "name": "黒浜幼稚園",
        "address": "蓮田市黒浜980-2",
        "lat": 35.98425,
        "lng": 139.673916
    },
    {
        "code": "A111323800039",
        "type": 16011,
        "name": "大山幼稚園",
        "address": "蓮田市閏戸4034",
        "lat": 36.015182,
        "lng": 139.639431
    },
    {
        "code": "A111323800048",
        "type": 16011,
        "name": "新宿幼稚園",
        "address": "蓮田市西新宿5-92",
        "lat": 36.007019,
        "lng": 139.653463
    },
    {
        "code": "A211323800010",
        "type": 16013,
        "name": "認定こども園しらゆり",
        "address": "蓮田市御前橋1-5-5",
        "lat": 35.977386,
        "lng": 139.64883
    },
    {
        "code": "B111223800011",
        "type": 16001,
        "name": "蓮田南小学校",
        "address": "蓮田市東6-9-11",
        "lat": 35.976808,
        "lng": 139.651905
    },
    {
        "code": "B111223800020",
        "type": 16001,
        "name": "蓮田北小学校",
        "address": "蓮田市閏戸3236",
        "lat": 36.006665,
        "lng": 139.639002
    },
    {
        "code": "B111223800039",
        "type": 16001,
        "name": "平野小学校",
        "address": "蓮田市井沼937",
        "lat": 36.025663,
        "lng": 139.62121
    },
    {
        "code": "B111223800048",
        "type": 16001,
        "name": "黒浜小学校",
        "address": "蓮田市黒浜3069",
        "lat": 35.990335,
        "lng": 139.671402
    },
    {
        "code": "B111223800057",
        "type": 16001,
        "name": "蓮田中央小学校",
        "address": "蓮田市関山3-6-1",
        "lat": 35.988474,
        "lng": 139.654765
    },
    {
        "code": "B111223800066",
        "type": 16001,
        "name": "黒浜西小学校",
        "address": "蓮田市西新宿3-84",
        "lat": 36.002889,
        "lng": 139.65143
    },
    {
        "code": "B111223800075",
        "type": 16001,
        "name": "黒浜南小学校",
        "address": "蓮田市黒浜722",
        "lat": 35.983141,
        "lng": 139.672374
    },
    {
        "code": "B111223800084",
        "type": 16001,
        "name": "黒浜北小学校",
        "address": "蓮田市南新宿800",
        "lat": 36.005194,
        "lng": 139.659624
    },
    {
        "code": "C111223800019",
        "type": 16002,
        "name": "蓮田中学校",
        "address": "蓮田市閏戸147-1",
        "lat": 35.990869,
        "lng": 139.647547
    },
    {
        "code": "C111223800028",
        "type": 16002,
        "name": "平野中学校",
        "address": "蓮田市井沼932",
        "lat": 36.025913,
        "lng": 139.622516
    },
    {
        "code": "C111223800037",
        "type": 16002,
        "name": "黒浜中学校",
        "address": "蓮田市黒浜4748",
        "lat": 35.992168,
        "lng": 139.675568
    },
    {
        "code": "C111223800046",
        "type": 16002,
        "name": "蓮田南中学校",
        "address": "蓮田市蓮田1519",
        "lat": 35.968865,
        "lng": 139.649711
    },
    {
        "code": "C111223800055",
        "type": 16002,
        "name": "黒浜西中学校",
        "address": "蓮田市大字黒浜3862",
        "lat": 36.004389,
        "lng": 139.66329
    },
    {
        "code": "D111210000726",
        "type": 16004,
        "name": "蓮田松韻高等学校",
        "address": "蓮田市黒浜4088",
        "lat": 36.000222,
        "lng": 139.674762
    },
    {
        "code": "E111230000044",
        "type": 16012,
        "name": "蓮田特別支援学校",
        "address": "蓮田市黒浜4088-4",
        "lat": 35.998583,
        "lng": 139.67454
    }
]