[
    {
        "code": "A111324600011",
        "type": 16011,
        "name": "白岡学園興善寺幼稚園",
        "address": "白岡市白岡972-1",
        "lat": 36.022736,
        "lng": 139.657703
    },
    {
        "code": "A111324600020",
        "type": 16011,
        "name": "菁莪幼稚園",
        "address": "白岡市下野田831-2",
        "lat": 36.015606,
        "lng": 139.692927
    },
    {
        "code": "A111324600039",
        "type": 16011,
        "name": "杉の子幼稚園",
        "address": "白岡市新白岡5-2-14",
        "lat": 36.036673,
        "lng": 139.67251
    },
    {
        "code": "A111324600048",
        "type": 16011,
        "name": "白岡天使幼稚園",
        "address": "白岡市小久喜618-1",
        "lat": 36.011168,
        "lng": 139.671017
    },
    {
        "code": "B111224600011",
        "type": 16001,
        "name": "篠津小学校",
        "address": "白岡市篠津2644",
        "lat": 36.028524,
        "lng": 139.664984
    },
    {
        "code": "B111224600020",
        "type": 16001,
        "name": "菁莪小学校",
        "address": "白岡市上野田101-1",
        "lat": 36.013942,
        "lng": 139.688538
    },
    {
        "code": "B111224600039",
        "type": 16001,
        "name": "大山小学校",
        "address": "白岡市荒井新田339",
        "lat": 36.042967,
        "lng": 139.618126
    },
    {
        "code": "B111224600048",
        "type": 16001,
        "name": "南小学校",
        "address": "白岡市小久喜524-1",
        "lat": 36.009804,
        "lng": 139.670484
    },
    {
        "code": "B111224600057",
        "type": 16001,
        "name": "西小学校",
        "address": "白岡市西6-3-1",
        "lat": 36.021997,
        "lng": 139.654263
    },
    {
        "code": "B111224600066",
        "type": 16001,
        "name": "白岡東小学校",
        "address": "白岡市新白岡2-28-1",
        "lat": 36.037301,
        "lng": 139.678649
    },
    {
        "code": "C111224600019",
        "type": 16002,
        "name": "篠津中学校",
        "address": "白岡市篠津2617",
        "lat": 36.027969,
        "lng": 139.665456
    },
    {
        "code": "C111224600028",
        "type": 16002,
        "name": "菁莪中学校",
        "address": "白岡市下野田927",
        "lat": 36.014664,
        "lng": 139.691565
    },
    {
        "code": "C111224600037",
        "type": 16002,
        "name": "南中学校",
        "address": "白岡市千駄野356-1",
        "lat": 36.015609,
        "lng": 139.677761
    },
    {
        "code": "C111224600046",
        "type": 16002,
        "name": "白岡中学校",
        "address": "白岡市白岡1647-1",
        "lat": 36.023692,
        "lng": 139.663706
    },
    {
        "code": "D111210000913",
        "type": 16004,
        "name": "白岡高等学校",
        "address": "白岡市高岩275-1",
        "lat": 36.03194,
        "lng": 139.676483
    }
]