[
    {
        "code": "A111324100016",
        "type": 16011,
        "name": "つくし幼稚園",
        "address": "鶴ヶ島市太田ヶ谷640-3",
        "lat": 35.930562,
        "lng": 139.401949
    },
    {
        "code": "A111324100025",
        "type": 16011,
        "name": "武蔵野幼稚園",
        "address": "鶴ヶ島市上広谷30",
        "lat": 35.938284,
        "lng": 139.422297
    },
    {
        "code": "A111324100034",
        "type": 16011,
        "name": "鶴ケ島めぐみ幼稚園",
        "address": "鶴ヶ島市脚折町3-24-4",
        "lat": 35.94681,
        "lng": 139.39101
    },
    {
        "code": "A111324100043",
        "type": 16011,
        "name": "かみひろや幼稚園",
        "address": "鶴ヶ島市上広谷583-2",
        "lat": 35.940911,
        "lng": 139.412504
    },
    {
        "code": "A111324100052",
        "type": 16011,
        "name": "若葉台幼稚園",
        "address": "鶴ヶ島市富士見2-9-14",
        "lat": 35.9534,
        "lng": 139.412446
    },
    {
        "code": "A211324100015",
        "type": 16013,
        "name": "つるがしま白百合幼稚園",
        "address": "鶴ヶ島市下新田388",
        "lat": 35.941135,
        "lng": 139.37898
    },
    {
        "code": "B111224100016",
        "type": 16001,
        "name": "鶴ヶ島第一小学校",
        "address": "鶴ヶ島市大字脚折1855",
        "lat": 35.938361,
        "lng": 139.389043
    },
    {
        "code": "B111224100025",
        "type": 16001,
        "name": "鶴ヶ島第二小学校",
        "address": "鶴ヶ島市大字鶴ｹ丘358-1",
        "lat": 35.936306,
        "lng": 139.416067
    },
    {
        "code": "B111224100034",
        "type": 16001,
        "name": "新町小学校",
        "address": "鶴ヶ島市新町4-25-1",
        "lat": 35.932535,
        "lng": 139.367352
    },
    {
        "code": "B111224100043",
        "type": 16001,
        "name": "杉下小学校",
        "address": "鶴ヶ島市大字五味ヶ谷251",
        "lat": 35.945693,
        "lng": 139.417679
    },
    {
        "code": "B111224100052",
        "type": 16001,
        "name": "長久保小学校",
        "address": "鶴ヶ島市脚折町4-12-1",
        "lat": 35.946971,
        "lng": 139.393209
    },
    {
        "code": "B111224100061",
        "type": 16001,
        "name": "栄小学校",
        "address": "鶴ヶ島市富士見4-26-1",
        "lat": 35.951609,
        "lng": 139.416957
    },
    {
        "code": "B111224100070",
        "type": 16001,
        "name": "藤小学校",
        "address": "鶴ヶ島市大字藤金330",
        "lat": 35.939944,
        "lng": 139.406402
    },
    {
        "code": "B111224100089",
        "type": 16001,
        "name": "南小学校",
        "address": "鶴ヶ島市南町1-26-1",
        "lat": 35.925225,
        "lng": 139.407123
    },
    {
        "code": "C111224100014",
        "type": 16002,
        "name": "鶴ヶ島中学校",
        "address": "鶴ヶ島市脚折1868-5",
        "lat": 35.935917,
        "lng": 139.386821
    },
    {
        "code": "C111224100023",
        "type": 16002,
        "name": "藤中学校",
        "address": "鶴ヶ島市藤金272-1",
        "lat": 35.942194,
        "lng": 139.409013
    },
    {
        "code": "C111224100032",
        "type": 16002,
        "name": "富士見中学校",
        "address": "鶴ヶ島市富士見2-36-1",
        "lat": 35.948804,
        "lng": 139.414568
    },
    {
        "code": "C111224100041",
        "type": 16002,
        "name": "西中学校",
        "address": "鶴ヶ島市下新田266",
        "lat": 35.93986,
        "lng": 139.375989
    },
    {
        "code": "C111224100050",
        "type": 16002,
        "name": "南中学校",
        "address": "鶴ヶ島市南町1-27-1",
        "lat": 35.924697,
        "lng": 139.405484
    },
    {
        "code": "D111210001173",
        "type": 16004,
        "name": "鶴ヶ島清風高等学校",
        "address": "鶴ヶ島市高倉946-1",
        "lat": 35.932058,
        "lng": 139.379557
    }
]