[
    {
        "code": "A111324200015",
        "type": 16011,
        "name": "さやまが丘幼稚園",
        "address": "日高市下鹿山523",
        "lat": 35.888621,
        "lng": 139.348439
    },
    {
        "code": "A111324200024",
        "type": 16011,
        "name": "たかはぎ幼稚園",
        "address": "日高市高萩2200",
        "lat": 35.906787,
        "lng": 139.378291
    },
    {
        "code": "A211324200014",
        "type": 16013,
        "name": "フレンド認定こども園",
        "address": "日高市大字台589-9",
        "lat": 35.877557,
        "lng": 139.303968
    },
    {
        "code": "A211324200023",
        "type": 16013,
        "name": "日高ふじみだい認定こども園",
        "address": "日高市大字新堀150-3",
        "lat": 35.897,
        "lng": 139.330727
    },
    {
        "code": "B111224200015",
        "type": 16001,
        "name": "高麗小学校",
        "address": "日高市梅原5-1",
        "lat": 35.885479,
        "lng": 139.314353
    },
    {
        "code": "B111224200024",
        "type": 16001,
        "name": "高麗川小学校",
        "address": "日高市南平沢335",
        "lat": 35.906976,
        "lng": 139.336991
    },
    {
        "code": "B111224200033",
        "type": 16001,
        "name": "高萩小学校",
        "address": "日高市高萩800",
        "lat": 35.898063,
        "lng": 139.374125
    },
    {
        "code": "B111224200042",
        "type": 16001,
        "name": "高根小学校",
        "address": "日高市中鹿山523-3",
        "lat": 35.886702,
        "lng": 139.347628
    },
    {
        "code": "B111224200051",
        "type": 16001,
        "name": "高萩北小学校",
        "address": "日高市大字旭ｹ丘800",
        "lat": 35.910671,
        "lng": 139.366654
    },
    {
        "code": "B111224200060",
        "type": 16001,
        "name": "武蔵台小学校",
        "address": "日高市武蔵台5-1-1",
        "lat": 35.872452,
        "lng": 139.299355
    },
    {
        "code": "C111224200013",
        "type": 16002,
        "name": "高麗中学校",
        "address": "日高市梅原350",
        "lat": 35.883674,
        "lng": 139.320825
    },
    {
        "code": "C111224200022",
        "type": 16002,
        "name": "高麗川中学校",
        "address": "日高市原宿49",
        "lat": 35.903671,
        "lng": 139.33974
    },
    {
        "code": "C111224200031",
        "type": 16002,
        "name": "高萩中学校",
        "address": "日高市高萩792-1",
        "lat": 35.897202,
        "lng": 139.37332
    },
    {
        "code": "C111224200040",
        "type": 16002,
        "name": "高根中学校",
        "address": "日高市女影1180",
        "lat": 35.88773,
        "lng": 139.351127
    },
    {
        "code": "C111224200059",
        "type": 16002,
        "name": "高萩北中学校",
        "address": "日高市旭ｹ丘181-1",
        "lat": 35.915392,
        "lng": 139.362044
    },
    {
        "code": "C111224200068",
        "type": 16002,
        "name": "武蔵台中学校",
        "address": "日高市武蔵台6-150-1",
        "lat": 35.870536,
        "lng": 139.2953
    },
    {
        "code": "D111210000762",
        "type": 16004,
        "name": "日高高等学校",
        "address": "日高市旭ヶ丘806",
        "lat": 35.908366,
        "lng": 139.368404
    },
    {
        "code": "E111230000080",
        "type": 16012,
        "name": "日高特別支援学校",
        "address": "日高市高富59-1",
        "lat": 35.881232,
        "lng": 139.388181
    },
    {
        "code": "F211310102299",
        "type": 16006,
        "name": "埼玉女子短期大学",
        "address": "日高市大字女影字小河原1616",
        "lat": 35.89509,
        "lng": 139.359349
    }
]