[
    {
        "code": "A111332400016",
        "type": 16011,
        "name": "新武蔵野学園みふじ幼稚園",
        "address": "入間郡三芳町藤久保733-1",
        "lat": 35.836143,
        "lng": 139.531592
    },
    {
        "code": "A111332400025",
        "type": 16011,
        "name": "小鈴幼稚園",
        "address": "入間郡三芳町大字北永井字宮前72",
        "lat": 35.842738,
        "lng": 139.508522
    },
    {
        "code": "A111332400034",
        "type": 16011,
        "name": "かみとめ幼稚園",
        "address": "入間郡三芳町上富1567-4",
        "lat": 35.835514,
        "lng": 139.489937
    },
    {
        "code": "B111232400016",
        "type": 16001,
        "name": "三芳小学校",
        "address": "入間郡三芳町北永井343",
        "lat": 35.830935,
        "lng": 139.517477
    },
    {
        "code": "B111232400025",
        "type": 16001,
        "name": "上富小学校",
        "address": "入間郡三芳町大字上富1267-4",
        "lat": 35.829907,
        "lng": 139.501367
    },
    {
        "code": "B111232400034",
        "type": 16001,
        "name": "藤久保小学校",
        "address": "入間郡三芳町藤久保7233",
        "lat": 35.840854,
        "lng": 139.530334
    },
    {
        "code": "B111232400043",
        "type": 16001,
        "name": "唐沢小学校",
        "address": "入間郡三芳町藤久保410-2",
        "lat": 35.833324,
        "lng": 139.538142
    },
    {
        "code": "B111232400052",
        "type": 16001,
        "name": "竹間沢小学校",
        "address": "入間郡三芳町竹間沢550-1",
        "lat": 35.827325,
        "lng": 139.54428
    },
    {
        "code": "C111232400014",
        "type": 16002,
        "name": "三芳中学校",
        "address": "入間郡三芳町北永井350",
        "lat": 35.830157,
        "lng": 139.514616
    },
    {
        "code": "C111232400023",
        "type": 16002,
        "name": "三芳東中学校",
        "address": "入間郡三芳町藤久保610-1",
        "lat": 35.831852,
        "lng": 139.538253
    },
    {
        "code": "C111232400032",
        "type": 16002,
        "name": "藤久保中学校",
        "address": "入間郡三芳町藤久保420-2",
        "lat": 35.834685,
        "lng": 139.540114
    }
]