[
    {
        "code": "A111332600014",
        "type": 16011,
        "name": "毛呂山愛仕幼稚園",
        "address": "入間郡毛呂山町岩井西4-13-2",
        "lat": 35.939661,
        "lng": 139.311221
    },
    {
        "code": "A111332600032",
        "type": 16011,
        "name": "ながせ幼稚園",
        "address": "入間郡毛呂山町大字前久保497",
        "lat": 35.949763,
        "lng": 139.325086
    },
    {
        "code": "A211332600013",
        "type": 16013,
        "name": "ときわぎこども園",
        "address": "入間郡毛呂山町平山2-11-1",
        "lat": 35.949007,
        "lng": 139.311642
    },
    {
        "code": "B111232600014",
        "type": 16001,
        "name": "毛呂山小学校",
        "address": "入間郡毛呂山町岩井西4-2-1",
        "lat": 35.941022,
        "lng": 139.311128
    },
    {
        "code": "B111232600023",
        "type": 16001,
        "name": "川角小学校",
        "address": "入間郡毛呂山町川角1271-1",
        "lat": 35.949163,
        "lng": 139.335604
    },
    {
        "code": "B111232600032",
        "type": 16001,
        "name": "光山小学校",
        "address": "入間郡毛呂山町市場475",
        "lat": 35.940442,
        "lng": 139.336493
    },
    {
        "code": "B111232600041",
        "type": 16001,
        "name": "泉野小学校",
        "address": "入間郡毛呂山町岩井353",
        "lat": 35.952273,
        "lng": 139.3153
    },
    {
        "code": "C111232600012",
        "type": 16002,
        "name": "毛呂山中学校",
        "address": "入間郡毛呂山町岩井西4-12-1",
        "lat": 35.940278,
        "lng": 139.312156
    },
    {
        "code": "C111232600021",
        "type": 16002,
        "name": "川角中学校",
        "address": "入間郡毛呂山町川角264-1",
        "lat": 35.94383,
        "lng": 139.337688
    },
    {
        "code": "C111332600010",
        "type": 16002,
        "name": "埼玉平成中学校",
        "address": "入間郡毛呂山町下川原375",
        "lat": 35.937784,
        "lng": 139.342209
    },
    {
        "code": "D111332600018",
        "type": 16004,
        "name": "埼玉平成高等学校",
        "address": "入間郡毛呂山町市場333-1",
        "lat": 35.938739,
        "lng": 139.342648
    },
    {
        "code": "E111230000302",
        "type": 16012,
        "name": "毛呂山特別支援学校",
        "address": "入間郡毛呂山町川角1024-1",
        "lat": 35.957662,
        "lng": 139.343187
    },
    {
        "code": "F111310101969",
        "type": 16007,
        "name": "日本医療科学大学",
        "address": "入間郡毛呂山町下川原1276",
        "lat": 35.932181,
        "lng": 139.34347
    },
    {
        "code": "F111310102147",
        "type": 16007,
        "name": "埼玉医科大学",
        "address": "入間郡毛呂山町毛呂本郷38",
        "lat": 35.939322,
        "lng": 139.305191
    },
    {
        "code": "F211310102280",
        "type": 16006,
        "name": "埼玉医科大学短期大学",
        "address": "入間郡毛呂山町毛呂本郷38",
        "lat": 35.937886,
        "lng": 139.307496
    },
    {
        "code": "H111332600019",
        "type": 16016,
        "name": "埼玉医療福祉会看護専門学校",
        "address": "入間郡毛呂山町毛呂本郷38",
        "lat": 35.938314,
        "lng": 139.305358
    }
]