[
    {
        "code": "A111334600010",
        "type": 16011,
        "name": "利根川学園とねがわ幼稚園",
        "address": "比企郡川島町中山1733-2",
        "lat": 35.984814,
        "lng": 139.450465
    },
    {
        "code": "B111234600010",
        "type": 16001,
        "name": "中山小学校",
        "address": "比企郡川島町中山1333",
        "lat": 35.990716,
        "lng": 139.447729
    },
    {
        "code": "B111234600029",
        "type": 16001,
        "name": "伊草小学校",
        "address": "比企郡川島町伊草238-1",
        "lat": 35.967692,
        "lng": 139.466672
    },
    {
        "code": "B111234600038",
        "type": 16001,
        "name": "つばさ南小学校",
        "address": "比企郡川島町大字白井沼945",
        "lat": 35.978877,
        "lng": 139.489486
    },
    {
        "code": "B111234600047",
        "type": 16001,
        "name": "つばさ北小学校",
        "address": "比企郡川島町大字畑中31",
        "lat": 35.996457,
        "lng": 139.493015
    },
    {
        "code": "C111234600018",
        "type": 16002,
        "name": "川島中学校",
        "address": "比企郡川島町白井沼230",
        "lat": 35.986329,
        "lng": 139.488253
    },
    {
        "code": "C111234600027",
        "type": 16002,
        "name": "西中学校",
        "address": "比企郡川島町中山270-1",
        "lat": 35.983134,
        "lng": 139.460089
    },
    {
        "code": "E111230000106",
        "type": 16012,
        "name": "川島ひばりが丘特別支援学校",
        "address": "比企郡川島町大字伊草780",
        "lat": 35.966055,
        "lng": 139.485809
    }
]