[
    {
        "code": "A111334900017",
        "type": 16011,
        "name": "ひかりの村こども園",
        "address": "比企郡ときがわ町瀬戸元上21-1",
        "lat": 35.998281,
        "lng": 139.271628
    },
    {
        "code": "B111234900017",
        "type": 16001,
        "name": "明覚小学校",
        "address": "比企郡ときがわ町関堀65",
        "lat": 36.003322,
        "lng": 139.27669
    },
    {
        "code": "B111234900026",
        "type": 16001,
        "name": "萩ヶ丘小学校",
        "address": "比企郡ときがわ町大字西平1153",
        "lat": 35.998843,
        "lng": 139.237478
    },
    {
        "code": "B111234900035",
        "type": 16001,
        "name": "玉川小学校",
        "address": "比企郡ときがわ町玉川2666",
        "lat": 36.009461,
        "lng": 139.293355
    },
    {
        "code": "C111234900015",
        "type": 16002,
        "name": "都幾川中学校",
        "address": "比企郡ときがわ町桃木50",
        "lat": 36.004766,
        "lng": 139.269996
    },
    {
        "code": "C111234900024",
        "type": 16002,
        "name": "玉川中学校",
        "address": "比企郡ときがわ町玉川1385-2",
        "lat": 36.00985,
        "lng": 139.299493
    }
]