[
    {
        "code": "A211236500017",
        "type": 16013,
        "name": "おがのこども園",
        "address": "秩父郡小鹿野町小鹿野2743",
        "lat": 36.018109,
        "lng": 139.011442
    },
    {
        "code": "B111236500016",
        "type": 16001,
        "name": "小鹿野小学校",
        "address": "秩父郡小鹿野町小鹿野2678",
        "lat": 36.018512,
        "lng": 139.009937
    },
    {
        "code": "B111236500025",
        "type": 16001,
        "name": "長若小学校",
        "address": "秩父郡小鹿野町般若1192",
        "lat": 35.998681,
        "lng": 139.030102
    },
    {
        "code": "B111236500034",
        "type": 16001,
        "name": "三田川小学校",
        "address": "秩父郡小鹿野町飯田2770",
        "lat": 36.026658,
        "lng": 138.968949
    },
    {
        "code": "B111236500043",
        "type": 16001,
        "name": "両神小学校",
        "address": "秩父郡小鹿野町両神薄2662",
        "lat": 36.011035,
        "lng": 138.973051
    },
    {
        "code": "C111236500014",
        "type": 16002,
        "name": "小鹿野中学校",
        "address": "秩父郡小鹿野町小鹿野146",
        "lat": 36.017401,
        "lng": 139.005548
    },
    {
        "code": "D111210000370",
        "type": 16004,
        "name": "小鹿野高等学校",
        "address": "秩父郡小鹿野町小鹿野962-1",
        "lat": 36.024872,
        "lng": 138.997438
    }
]