[
    {
        "code": "A111236200011",
        "type": 16011,
        "name": "皆野幼稚園",
        "address": "秩父郡皆野町大字国神639",
        "lat": 36.078894,
        "lng": 139.09329
    },
    {
        "code": "B111236200019",
        "type": 16001,
        "name": "皆野小学校",
        "address": "秩父郡皆野町皆野1346",
        "lat": 36.074256,
        "lng": 139.098953
    },
    {
        "code": "B111236200028",
        "type": 16001,
        "name": "国神小学校",
        "address": "秩父郡皆野町大淵70-1",
        "lat": 36.075422,
        "lng": 139.08826
    },
    {
        "code": "B111236200037",
        "type": 16001,
        "name": "三沢小学校",
        "address": "秩父郡皆野町三沢1606",
        "lat": 36.056203,
        "lng": 139.130561
    },
    {
        "code": "C111236200017",
        "type": 16002,
        "name": "皆野中学校",
        "address": "秩父郡皆野町大字皆野2244-2",
        "lat": 36.07906,
        "lng": 139.099398
    },
    {
        "code": "D111210000584",
        "type": 16004,
        "name": "皆野高等学校",
        "address": "秩父郡皆野町大渕19-1",
        "lat": 36.077033,
        "lng": 139.089066
    }
]