[
    {
        "code": "A111340800015",
        "type": 16011,
        "name": "寄居若竹幼稚園",
        "address": "大里郡寄居町大字露梨子414-1",
        "lat": 36.107736,
        "lng": 139.216064
    },
    {
        "code": "B111240800015",
        "type": 16001,
        "name": "寄居小学校",
        "address": "大里郡寄居町寄居206",
        "lat": 36.116057,
        "lng": 139.187192
    },
    {
        "code": "B111240800024",
        "type": 16001,
        "name": "桜沢小学校",
        "address": "大里郡寄居町桜沢2740",
        "lat": 36.130471,
        "lng": 139.206189
    },
    {
        "code": "B111240800033",
        "type": 16001,
        "name": "用土小学校",
        "address": "大里郡寄居町用土2859",
        "lat": 36.154941,
        "lng": 139.206354
    },
    {
        "code": "B111240800042",
        "type": 16001,
        "name": "折原小学校",
        "address": "大里郡寄居町大字立原385",
        "lat": 36.102975,
        "lng": 139.187971
    },
    {
        "code": "B111240800051",
        "type": 16001,
        "name": "鉢形小学校",
        "address": "大里郡寄居町鉢形645",
        "lat": 36.110947,
        "lng": 139.204913
    },
    {
        "code": "B111240800060",
        "type": 16001,
        "name": "男衾小学校",
        "address": "大里郡寄居町富田53",
        "lat": 36.108476,
        "lng": 139.252548
    },
    {
        "code": "C111240800013",
        "type": 16002,
        "name": "城南中学校",
        "address": "大里郡寄居町大字鉢形2222",
        "lat": 36.105031,
        "lng": 139.204414
    },
    {
        "code": "C111240800022",
        "type": 16002,
        "name": "男衾中学校",
        "address": "大里郡寄居町富田65",
        "lat": 36.108587,
        "lng": 139.251243
    },
    {
        "code": "C111240800031",
        "type": 16002,
        "name": "寄居中学校",
        "address": "大里郡寄居町大字桜沢2000",
        "lat": 36.127972,
        "lng": 139.207995
    },
    {
        "code": "D111210000496",
        "type": 16004,
        "name": "寄居城北高等学校",
        "address": "大里郡寄居町桜沢2601",
        "lat": 36.131055,
        "lng": 139.20805
    }
]