[
    {
        "code": "A101321100014",
        "type": 16011,
        "name": "網走幼稚園",
        "address": "網走市南8条東3-1",
        "lat": 44.019056,
        "lng": 144.271645
    },
    {
        "code": "A101321100023",
        "type": 16011,
        "name": "網走藤幼稚園",
        "address": "網走市北4条西4-3-1",
        "lat": 44.024266,
        "lng": 144.260122
    },
    {
        "code": "A101321100041",
        "type": 16011,
        "name": "桂幼稚園",
        "address": "網走市桂町2-3-1",
        "lat": 44.013593,
        "lng": 144.27414
    },
    {
        "code": "A201321100013",
        "type": 16013,
        "name": "認定こども園つくし",
        "address": "網走市つくしヶ丘5-9-3",
        "lat": 43.992515,
        "lng": 144.291059
    },
    {
        "code": "A201321100022",
        "type": 16013,
        "name": "認定こども園しおみ",
        "address": "網走市潮見8-4-9",
        "lat": 43.998459,
        "lng": 144.263347
    },
    {
        "code": "B101221100014",
        "type": 16001,
        "name": "網走小学校",
        "address": "網走市桂町1-1-1",
        "lat": 44.016218,
        "lng": 144.268875
    },
    {
        "code": "B101221100023",
        "type": 16001,
        "name": "中央小学校",
        "address": "網走市向陽ヶ丘4-67-1",
        "lat": 44.031076,
        "lng": 144.252415
    },
    {
        "code": "B101221100032",
        "type": 16001,
        "name": "西小学校",
        "address": "網走市新町1-34",
        "lat": 44.019262,
        "lng": 144.245574
    },
    {
        "code": "B101221100041",
        "type": 16001,
        "name": "呼人小学校",
        "address": "網走市字呼人339-3",
        "lat": 43.961462,
        "lng": 144.212533
    },
    {
        "code": "B101221100050",
        "type": 16001,
        "name": "南小学校",
        "address": "網走市鱒浦1-11-1",
        "lat": 43.989481,
        "lng": 144.293179
    },
    {
        "code": "B101221100069",
        "type": 16001,
        "name": "潮見小学校",
        "address": "網走市潮見4-111",
        "lat": 44.000239,
        "lng": 144.270519
    },
    {
        "code": "B101221100078",
        "type": 16001,
        "name": "東小学校",
        "address": "網走市字藻琴225",
        "lat": 43.960911,
        "lng": 144.317488
    },
    {
        "code": "B101221100087",
        "type": 16001,
        "name": "白鳥台小学校",
        "address": "網走市字北浜201-13",
        "lat": 43.952875,
        "lng": 144.353776
    },
    {
        "code": "B101221100096",
        "type": 16001,
        "name": "西が丘小学校",
        "address": "網走市字卯原内182-1",
        "lat": 44.009929,
        "lng": 144.109779
    },
    {
        "code": "C101221100012",
        "type": 16002,
        "name": "第一中学校",
        "address": "網走市台町1-13-1",
        "lat": 44.014608,
        "lng": 144.276706
    },
    {
        "code": "C101221100021",
        "type": 16002,
        "name": "第二中学校",
        "address": "網走市向陽ヶ丘6-1-1",
        "lat": 44.026986,
        "lng": 144.250464
    },
    {
        "code": "C101221100030",
        "type": 16002,
        "name": "呼人中学校",
        "address": "網走市字呼人339-3",
        "lat": 43.961334,
        "lng": 144.212504
    },
    {
        "code": "C101221100049",
        "type": 16002,
        "name": "第三中学校",
        "address": "網走市潮見188",
        "lat": 43.996267,
        "lng": 144.277518
    },
    {
        "code": "C101221100058",
        "type": 16002,
        "name": "第四中学校",
        "address": "網走市字藻琴35",
        "lat": 43.967494,
        "lng": 144.32457
    },
    {
        "code": "C101221100067",
        "type": 16002,
        "name": "第五中学校",
        "address": "網走市字卯原内41",
        "lat": 44.010817,
        "lng": 144.110696
    },
    {
        "code": "D101221100010",
        "type": 16004,
        "name": "網走南ケ丘高等学校",
        "address": "網走市台町2-13-1",
        "lat": 44.014182,
        "lng": 144.278628
    },
    {
        "code": "D101221100029",
        "type": 16004,
        "name": "網走桂陽高等学校",
        "address": "網走市向陽ヶ丘6-2-1",
        "lat": 44.027875,
        "lng": 144.248603
    },
    {
        "code": "E101221100017",
        "type": 16012,
        "name": "網走養護学校",
        "address": "網走市字呼人149-2",
        "lat": 43.972236,
        "lng": 144.208344
    },
    {
        "code": "E101321100104",
        "type": 16012,
        "name": "日本体育大学附属高等支援学校",
        "address": "網走市大曲1-6-1",
        "lat": 44.013126,
        "lng": 144.227418
    },
    {
        "code": "H101221100011",
        "type": 16016,
        "name": "網走高等看護学院",
        "address": "網走市北12条西2-2-10",
        "lat": 44.029189,
        "lng": 144.259257
    },
    {
        "code": "H101321100028",
        "type": 16016,
        "name": "網走文化専門学校",
        "address": "網走市南4条西3",
        "lat": 44.020278,
        "lng": 144.263292
    },
    {
        "code": "H201321100018",
        "type": 16015,
        "name": "網走自動車学校",
        "address": "網走市字潮見323-26",
        "lat": 43.988312,
        "lng": 144.258473
    }
]