[
    {
        "code": "A101321300012",
        "type": 16011,
        "name": "苫小牧藤幼稚園",
        "address": "苫小牧市双葉町2-9-9",
        "lat": 42.649973,
        "lng": 141.610805
    },
    {
        "code": "A101321300030",
        "type": 16011,
        "name": "苫小牧いずみ幼稚園",
        "address": "苫小牧市三光町5-7-29",
        "lat": 42.656102,
        "lng": 141.613568
    },
    {
        "code": "A101321300049",
        "type": 16011,
        "name": "苫小牧聖母幼稚園",
        "address": "苫小牧市新富町2-6-16",
        "lat": 42.624799,
        "lng": 141.573121
    },
    {
        "code": "A101321300067",
        "type": 16011,
        "name": "錦岡幼稚園",
        "address": "苫小牧市明徳町4-6-60",
        "lat": 42.614818,
        "lng": 141.488747
    },
    {
        "code": "A101321300076",
        "type": 16011,
        "name": "ピノキオ苫小牧幼稚園",
        "address": "苫小牧市日新町3-6-10",
        "lat": 42.629269,
        "lng": 141.536391
    },
    {
        "code": "A101321300085",
        "type": 16011,
        "name": "駒澤苫小牧幼稚園",
        "address": "苫小牧市美園町1-9-1",
        "lat": 42.661016,
        "lng": 141.620633
    },
    {
        "code": "A101321300094",
        "type": 16011,
        "name": "エンゼル幼稚園",
        "address": "苫小牧市しらかば町5-6-6",
        "lat": 42.6255,
        "lng": 141.539591
    },
    {
        "code": "A101321300101",
        "type": 16011,
        "name": "苫小牧あおば幼稚園",
        "address": "苫小牧市見山町4-6-4",
        "lat": 42.636475,
        "lng": 141.563197
    },
    {
        "code": "A101321300129",
        "type": 16011,
        "name": "ひかりの国幼稚園",
        "address": "苫小牧市糸井353-1",
        "lat": 42.632493,
        "lng": 141.531521
    },
    {
        "code": "A101321300138",
        "type": 16011,
        "name": "青空幼稚園",
        "address": "苫小牧市柏木町2-3-5",
        "lat": 42.622694,
        "lng": 141.524537
    },
    {
        "code": "A101321300156",
        "type": 16011,
        "name": "苫小牧のぞみ幼稚園",
        "address": "苫小牧市拓勇東町8-1-7",
        "lat": 42.678636,
        "lng": 141.678432
    },
    {
        "code": "A201321300011",
        "type": 16013,
        "name": "苫小牧もも花幼稚園",
        "address": "苫小牧市澄川町3-16-8",
        "lat": 42.620152,
        "lng": 141.510461
    },
    {
        "code": "A201321300020",
        "type": 16013,
        "name": "苫小牧中央幼稚園",
        "address": "苫小牧市新中野町3-16-4",
        "lat": 42.643551,
        "lng": 141.611222
    },
    {
        "code": "A201321300039",
        "type": 16013,
        "name": "かおり幼稚園",
        "address": "苫小牧市弥生町2-8-25",
        "lat": 42.628646,
        "lng": 141.581358
    },
    {
        "code": "A201321300048",
        "type": 16013,
        "name": "勇払幼稚園",
        "address": "苫小牧市字勇払142-22",
        "lat": 42.630541,
        "lng": 141.726499
    },
    {
        "code": "A201321300057",
        "type": 16013,
        "name": "はなぞの認定こども園",
        "address": "苫小牧市花園町2-11-15",
        "lat": 42.633078,
        "lng": 141.568704
    },
    {
        "code": "A201321300066",
        "type": 16013,
        "name": "苫小牧聖ルカ幼稚園",
        "address": "苫小牧市旭町2-6-19",
        "lat": 42.630657,
        "lng": 141.605288
    },
    {
        "code": "A201321300075",
        "type": 16013,
        "name": "第２はくちょう幼稚園",
        "address": "苫小牧市北栄町4-1-9",
        "lat": 42.680972,
        "lng": 141.683998
    },
    {
        "code": "A201321300084",
        "type": 16013,
        "name": "苫小牧すみれ保育園",
        "address": "苫小牧市矢代町3-7-47",
        "lat": 42.628071,
        "lng": 141.585902
    },
    {
        "code": "A201321300093",
        "type": 16013,
        "name": "苫小牧マーガレット幼稚園",
        "address": "苫小牧市清水町2-11-8",
        "lat": 42.650733,
        "lng": 141.598379
    },
    {
        "code": "A201321300119",
        "type": 16013,
        "name": "ひかり幼稚園",
        "address": "苫小牧市光洋町3-13-2",
        "lat": 42.62507,
        "lng": 141.561802
    },
    {
        "code": "B101221300012",
        "type": 16001,
        "name": "澄川小学校",
        "address": "苫小牧市澄川町2-4-6",
        "lat": 42.620194,
        "lng": 141.51458
    },
    {
        "code": "B101221300021",
        "type": 16001,
        "name": "苫小牧東小学校",
        "address": "苫小牧市旭町1-7-10",
        "lat": 42.632632,
        "lng": 141.608138
    },
    {
        "code": "B101221300030",
        "type": 16001,
        "name": "苫小牧西小学校",
        "address": "苫小牧市矢代町3-7-16",
        "lat": 42.627502,
        "lng": 141.585486
    },
    {
        "code": "B101221300049",
        "type": 16001,
        "name": "若草小学校",
        "address": "苫小牧市若草町1-4-5",
        "lat": 42.639168,
        "lng": 141.608537
    },
    {
        "code": "B101221300058",
        "type": 16001,
        "name": "緑小学校",
        "address": "苫小牧市三光町2-6-5",
        "lat": 42.650556,
        "lng": 141.617146
    },
    {
        "code": "B101221300067",
        "type": 16001,
        "name": "北光小学校",
        "address": "苫小牧市北光町3-8-2",
        "lat": 42.637222,
        "lng": 141.574097
    },
    {
        "code": "B101221300076",
        "type": 16001,
        "name": "勇払小学校",
        "address": "苫小牧市字勇払149",
        "lat": 42.63334,
        "lng": 141.728248
    },
    {
        "code": "B101221300085",
        "type": 16001,
        "name": "大成小学校",
        "address": "苫小牧市大成町2-3-2",
        "lat": 42.625779,
        "lng": 141.569044
    },
    {
        "code": "B101221300094",
        "type": 16001,
        "name": "錦岡小学校",
        "address": "苫小牧市宮前町2-30-2",
        "lat": 42.604444,
        "lng": 141.488556
    },
    {
        "code": "B101221300101",
        "type": 16001,
        "name": "樽前小学校",
        "address": "苫小牧市字樽前102",
        "lat": 42.590276,
        "lng": 141.435783
    },
    {
        "code": "B101221300110",
        "type": 16001,
        "name": "沼ノ端小学校",
        "address": "苫小牧市東開町6-1-1",
        "lat": 42.669025,
        "lng": 141.698932
    },
    {
        "code": "B101221300129",
        "type": 16001,
        "name": "植苗小学校",
        "address": "苫小牧市字植苗50",
        "lat": 42.720829,
        "lng": 141.71877
    },
    {
        "code": "B101221300138",
        "type": 16001,
        "name": "清水小学校",
        "address": "苫小牧市清水町2-10-16",
        "lat": 42.650583,
        "lng": 141.596704
    },
    {
        "code": "B101221300147",
        "type": 16001,
        "name": "美園小学校",
        "address": "苫小牧市美園町4-26-2",
        "lat": 42.66361,
        "lng": 141.614367
    },
    {
        "code": "B101221300156",
        "type": 16001,
        "name": "日新小学校",
        "address": "苫小牧市日新町3-1-7",
        "lat": 42.627528,
        "lng": 141.536327
    },
    {
        "code": "B101221300165",
        "type": 16001,
        "name": "糸井小学校",
        "address": "苫小牧市日吉町4-12-6",
        "lat": 42.623612,
        "lng": 141.552992
    },
    {
        "code": "B101221300174",
        "type": 16001,
        "name": "北星小学校",
        "address": "苫小牧市桜木町3-8-6",
        "lat": 42.628584,
        "lng": 141.550769
    },
    {
        "code": "B101221300183",
        "type": 16001,
        "name": "豊川小学校",
        "address": "苫小牧市豊川町4-7-14",
        "lat": 42.634833,
        "lng": 141.548768
    },
    {
        "code": "B101221300192",
        "type": 16001,
        "name": "泉野小学校",
        "address": "苫小牧市川沿町4-5-1",
        "lat": 42.618889,
        "lng": 141.524384
    },
    {
        "code": "B101221300209",
        "type": 16001,
        "name": "明野小学校",
        "address": "苫小牧市明野新町6-3-1",
        "lat": 42.658334,
        "lng": 141.6252
    },
    {
        "code": "B101221300218",
        "type": 16001,
        "name": "拓勇小学校",
        "address": "苫小牧市拓勇東町4-8-1",
        "lat": 42.673471,
        "lng": 141.681212
    },
    {
        "code": "B101221300227",
        "type": 16001,
        "name": "ウトナイ小学校",
        "address": "苫小牧市ｳﾄﾅｲ北3-2-1",
        "lat": 42.681478,
        "lng": 141.693295
    },
    {
        "code": "B101221300236",
        "type": 16001,
        "name": "拓進小学校",
        "address": "苫小牧市拓勇西町3-8-1",
        "lat": 42.668421,
        "lng": 141.669032
    },
    {
        "code": "C101221300010",
        "type": 16002,
        "name": "苫小牧東中学校",
        "address": "苫小牧市旭町1-7-10",
        "lat": 42.632224,
        "lng": 141.60826
    },
    {
        "code": "C101221300029",
        "type": 16002,
        "name": "勇払中学校",
        "address": "苫小牧市勇払132",
        "lat": 42.631891,
        "lng": 141.730728
    },
    {
        "code": "C101221300038",
        "type": 16002,
        "name": "光洋中学校",
        "address": "苫小牧市光洋町2-5-2",
        "lat": 42.623835,
        "lng": 141.563406
    },
    {
        "code": "C101221300047",
        "type": 16002,
        "name": "啓北中学校",
        "address": "苫小牧市啓北町2-12-11",
        "lat": 42.634167,
        "lng": 141.563544
    },
    {
        "code": "C101221300056",
        "type": 16002,
        "name": "和光中学校",
        "address": "苫小牧市双葉町1-11-3",
        "lat": 42.650195,
        "lng": 141.612563
    },
    {
        "code": "C101221300065",
        "type": 16002,
        "name": "凌雲中学校",
        "address": "苫小牧市青雲町2-15-3",
        "lat": 42.608222,
        "lng": 141.491202
    },
    {
        "code": "C101221300074",
        "type": 16002,
        "name": "植苗中学校",
        "address": "苫小牧市字植苗50",
        "lat": 42.720831,
        "lng": 141.718626
    },
    {
        "code": "C101221300083",
        "type": 16002,
        "name": "沼ノ端中学校",
        "address": "苫小牧市東開町6-1-2",
        "lat": 42.666183,
        "lng": 141.699779
    },
    {
        "code": "C101221300092",
        "type": 16002,
        "name": "開成中学校",
        "address": "苫小牧市清水町2-9-2",
        "lat": 42.649333,
        "lng": 141.596121
    },
    {
        "code": "C101221300109",
        "type": 16002,
        "name": "啓北中学校山なみ分校",
        "address": "苫小牧市有珠の沢町3-9-7",
        "lat": 42.63861,
        "lng": 141.552684
    },
    {
        "code": "C101221300118",
        "type": 16002,
        "name": "明倫中学校",
        "address": "苫小牧市日新町3-5-13",
        "lat": 42.628333,
        "lng": 141.535771
    },
    {
        "code": "C101221300127",
        "type": 16002,
        "name": "啓明中学校",
        "address": "苫小牧市はまなす町2-2-2",
        "lat": 42.627221,
        "lng": 141.514662
    },
    {
        "code": "C101221300136",
        "type": 16002,
        "name": "明野中学校",
        "address": "苫小牧市明野新町3-13-1",
        "lat": 42.657473,
        "lng": 141.628061
    },
    {
        "code": "C101221300145",
        "type": 16002,
        "name": "緑陵中学校",
        "address": "苫小牧市のぞみ町3-10-1",
        "lat": 42.61811,
        "lng": 141.498332
    },
    {
        "code": "C101221300154",
        "type": 16002,
        "name": "青翔中学校",
        "address": "苫小牧市択勇東町6-15-1",
        "lat": 42.674058,
        "lng": 141.67337
    },
    {
        "code": "C101221300163",
        "type": 16002,
        "name": "ウトナイ中学校",
        "address": "苫小牧市ｳﾄﾅｲ北2-5",
        "lat": 42.684867,
        "lng": 141.695583
    },
    {
        "code": "D101221300018",
        "type": 16004,
        "name": "苫小牧東高等学校",
        "address": "苫小牧市清水町2-12-20",
        "lat": 42.652389,
        "lng": 141.598175
    },
    {
        "code": "D101221300027",
        "type": 16004,
        "name": "苫小牧西高等学校",
        "address": "苫小牧市青葉町1-1-1",
        "lat": 42.630001,
        "lng": 141.575209
    },
    {
        "code": "D101221300036",
        "type": 16004,
        "name": "苫小牧工業高等学校",
        "address": "苫小牧市字高丘6-22",
        "lat": 42.662221,
        "lng": 141.608812
    },
    {
        "code": "D101221300045",
        "type": 16004,
        "name": "苫小牧南高等学校",
        "address": "苫小牧市のぞみ町2-1-2",
        "lat": 42.613888,
        "lng": 141.498915
    },
    {
        "code": "D101221300054",
        "type": 16004,
        "name": "苫小牧総合経済高等学校",
        "address": "苫小牧市新開町4-7-2",
        "lat": 42.663334,
        "lng": 141.63992
    },
    {
        "code": "D101321300105",
        "type": 16004,
        "name": "苫小牧中央高等学校",
        "address": "苫小牧市光洋町3-13-2",
        "lat": 42.625557,
        "lng": 141.562351
    },
    {
        "code": "D101321300114",
        "type": 16004,
        "name": "駒澤大学附属苫小牧高等学校",
        "address": "苫小牧市美園町1-9-3",
        "lat": 42.6625,
        "lng": 141.619644
    },
    {
        "code": "E101221300015",
        "type": 16012,
        "name": "苫小牧支援学校",
        "address": "苫小牧市明徳町3-10-3",
        "lat": 42.611157,
        "lng": 141.480872
    },
    {
        "code": "F101310100294",
        "type": 16007,
        "name": "苫小牧駒澤大学",
        "address": "苫小牧市錦西町3-2-1",
        "lat": 42.600516,
        "lng": 141.467841
    },
    {
        "code": "G101110100544",
        "type": 16005,
        "name": "苫小牧工業高等専門学校",
        "address": "苫小牧市字錦岡443",
        "lat": 42.623331,
        "lng": 141.494942
    },
    {
        "code": "H101321300017",
        "type": 16016,
        "name": "苫小牧高等商業学校",
        "address": "苫小牧市若草町5-5-15",
        "lat": 42.641068,
        "lng": 141.606406
    },
    {
        "code": "H101321300026",
        "type": 16016,
        "name": "苫小牧看護専門学校",
        "address": "苫小牧市住吉町2-10-6",
        "lat": 42.65325,
        "lng": 141.607499
    },
    {
        "code": "H101321300035",
        "type": 16016,
        "name": "王子総合病院附属看護専門学校",
        "address": "苫小牧市表町4-2-51",
        "lat": 42.636279,
        "lng": 141.601538
    }
]