[
    {
        "code": "A101321400011",
        "type": 16011,
        "name": "稚内鈴蘭幼稚園",
        "address": "稚内市港3-6-12",
        "lat": 45.401954,
        "lng": 141.675679
    },
    {
        "code": "A101321400020",
        "type": 16011,
        "name": "稚内幼稚園",
        "address": "稚内市宝来2-8-17",
        "lat": 45.423204,
        "lng": 141.670876
    },
    {
        "code": "A101321400039",
        "type": 16011,
        "name": "稚内ひかり幼稚園",
        "address": "稚内市緑4-5-32",
        "lat": 45.389339,
        "lng": 141.679063
    },
    {
        "code": "A101321400048",
        "type": 16011,
        "name": "稚内大谷幼稚園",
        "address": "稚内市中央2-16-12",
        "lat": 45.417533,
        "lng": 141.672907
    },
    {
        "code": "A101321400057",
        "type": 16011,
        "name": "稚内富岡幼稚園",
        "address": "稚内市富岡4-18-5",
        "lat": 45.38541,
        "lng": 141.720471
    },
    {
        "code": "B101221400011",
        "type": 16001,
        "name": "稚内中央小学校",
        "address": "稚内市宝来4-1-35",
        "lat": 45.42706,
        "lng": 141.66885
    },
    {
        "code": "B101221400020",
        "type": 16001,
        "name": "稚内南小学校",
        "address": "稚内市緑1-11-8",
        "lat": 45.395055,
        "lng": 141.684395
    },
    {
        "code": "B101221400039",
        "type": 16001,
        "name": "稚内東小学校",
        "address": "稚内市潮見5-1-5",
        "lat": 45.393445,
        "lng": 141.707366
    },
    {
        "code": "B101221400048",
        "type": 16001,
        "name": "声問小学校",
        "address": "稚内市声問5-7-21",
        "lat": 45.401766,
        "lng": 141.757189
    },
    {
        "code": "B101221400057",
        "type": 16001,
        "name": "増幌小学校",
        "address": "稚内市大字声問村字恵北",
        "lat": 45.372681,
        "lng": 141.814809
    },
    {
        "code": "B101221400066",
        "type": 16001,
        "name": "宗谷小学校",
        "address": "稚内市大字宗谷村字宗谷",
        "lat": 45.488659,
        "lng": 141.879355
    },
    {
        "code": "B101221400075",
        "type": 16001,
        "name": "大岬小学校",
        "address": "稚内市宗谷岬12-12",
        "lat": 45.514101,
        "lng": 141.954448
    },
    {
        "code": "B101221400084",
        "type": 16001,
        "name": "富磯小学校",
        "address": "稚内市大字宗谷村字富磯",
        "lat": 45.451672,
        "lng": 141.875571
    },
    {
        "code": "B101221400093",
        "type": 16001,
        "name": "稚内港小学校",
        "address": "稚内市港4-94",
        "lat": 45.398749,
        "lng": 141.673813
    },
    {
        "code": "B101221400100",
        "type": 16001,
        "name": "潮見が丘小学校",
        "address": "稚内市富岡4-3-3",
        "lat": 45.389002,
        "lng": 141.718143
    },
    {
        "code": "B101221400119",
        "type": 16001,
        "name": "天北小学校",
        "address": "稚内市大字声問村字沼川",
        "lat": 45.252244,
        "lng": 141.853723
    },
    {
        "code": "C101221400019",
        "type": 16002,
        "name": "稚内中学校",
        "address": "稚内市宝来5-7-31",
        "lat": 45.430828,
        "lng": 141.666784
    },
    {
        "code": "C101221400028",
        "type": 16002,
        "name": "稚内南中学校",
        "address": "稚内市緑1-2561",
        "lat": 45.396055,
        "lng": 141.677785
    },
    {
        "code": "C101221400037",
        "type": 16002,
        "name": "稚内東中学校",
        "address": "稚内市潮見5-1-29",
        "lat": 45.39314,
        "lng": 141.710616
    },
    {
        "code": "C101221400046",
        "type": 16002,
        "name": "増幌中学校",
        "address": "稚内市大字声間村字恵北",
        "lat": 45.37268,
        "lng": 141.814806
    },
    {
        "code": "C101221400055",
        "type": 16002,
        "name": "宗谷中学校",
        "address": "稚内市大字宗谷村字清浜",
        "lat": 45.4945,
        "lng": 141.881819
    },
    {
        "code": "C101221400064",
        "type": 16002,
        "name": "潮見が丘中学校",
        "address": "稚内市若葉台1-2290-7",
        "lat": 45.383903,
        "lng": 141.715782
    },
    {
        "code": "C101221400073",
        "type": 16002,
        "name": "天北中学校",
        "address": "稚内市大字声問村字沼川",
        "lat": 45.252244,
        "lng": 141.853725
    },
    {
        "code": "D101221400017",
        "type": 16004,
        "name": "稚内高等学校",
        "address": "稚内市栄1-4-1",
        "lat": 45.390751,
        "lng": 141.697423
    },
    {
        "code": "D101321400104",
        "type": 16004,
        "name": "稚内大谷高等学校",
        "address": "稚内市富岡1-1-1",
        "lat": 45.390049,
        "lng": 141.713388
    },
    {
        "code": "E101221400014",
        "type": 16012,
        "name": "稚内養護学校",
        "address": "稚内市声問5-23-7",
        "lat": 45.399853,
        "lng": 141.755855
    },
    {
        "code": "F101310100338",
        "type": 16007,
        "name": "稚内北星学園大学",
        "address": "稚内市若葉台1-2290-28",
        "lat": 45.382796,
        "lng": 141.718751
    }
]