[
    {
        "code": "A112210000222",
        "type": 16011,
        "name": "五郷幼稚園",
        "address": "茂原市早野17-1",
        "lat": 35.416642,
        "lng": 140.276856
    },
    {
        "code": "A112210000231",
        "type": 16011,
        "name": "新茂原幼稚園",
        "address": "茂原市上林56-2",
        "lat": 35.447174,
        "lng": 140.301254
    },
    {
        "code": "A112310002219",
        "type": 16011,
        "name": "エンゼル幼稚園",
        "address": "茂原市八千代1-11-1",
        "lat": 35.424189,
        "lng": 140.297544
    },
    {
        "code": "A112310002228",
        "type": 16011,
        "name": "ふたば幼稚園",
        "address": "茂原市茂原646",
        "lat": 35.423135,
        "lng": 140.3046
    },
    {
        "code": "A112310002237",
        "type": 16011,
        "name": "茂原聖マリア幼稚園",
        "address": "茂原市高師980",
        "lat": 35.429052,
        "lng": 140.292231
    },
    {
        "code": "A112310002246",
        "type": 16011,
        "name": "もばら幼稚園",
        "address": "茂原市東郷字宮ﾉ腰842-2",
        "lat": 35.446814,
        "lng": 140.313158
    },
    {
        "code": "A112310002255",
        "type": 16011,
        "name": "アップル幼稚園",
        "address": "茂原市押日字西之谷595",
        "lat": 35.451639,
        "lng": 140.26638
    },
    {
        "code": "A212310000327",
        "type": 16013,
        "name": "高師保育園",
        "address": "茂原市高師864-1",
        "lat": 35.428406,
        "lng": 140.297845
    },
    {
        "code": "A212310000808",
        "type": 16013,
        "name": "ほのおかこども園",
        "address": "茂原市本納字馬場谷3302-1",
        "lat": 35.480639,
        "lng": 140.294656
    },
    {
        "code": "B112210003003",
        "type": 16001,
        "name": "東郷小学校",
        "address": "茂原市谷本142",
        "lat": 35.447442,
        "lng": 140.327337
    },
    {
        "code": "B112210003012",
        "type": 16001,
        "name": "豊田小学校",
        "address": "茂原市長尾156",
        "lat": 35.455884,
        "lng": 140.292758
    },
    {
        "code": "B112210003030",
        "type": 16001,
        "name": "茂原小学校",
        "address": "茂原市茂原614",
        "lat": 35.425583,
        "lng": 140.299147
    },
    {
        "code": "B112210003049",
        "type": 16001,
        "name": "西小学校",
        "address": "茂原市茂原1229-1",
        "lat": 35.427083,
        "lng": 140.283427
    },
    {
        "code": "B112210003058",
        "type": 16001,
        "name": "五郷小学校",
        "address": "茂原市綱島1185",
        "lat": 35.415806,
        "lng": 140.277289
    },
    {
        "code": "B112210003067",
        "type": 16001,
        "name": "鶴枝小学校",
        "address": "茂原市上永吉955",
        "lat": 35.395087,
        "lng": 140.298258
    },
    {
        "code": "B112210003076",
        "type": 16001,
        "name": "萩原小学校",
        "address": "茂原市萩原町1-17",
        "lat": 35.438081,
        "lng": 140.300174
    },
    {
        "code": "B112210003085",
        "type": 16001,
        "name": "中の島小学校",
        "address": "茂原市中の島町451",
        "lat": 35.409808,
        "lng": 140.309923
    },
    {
        "code": "B112210003094",
        "type": 16001,
        "name": "東部小学校",
        "address": "茂原市東部台1-9-1",
        "lat": 35.422389,
        "lng": 140.318339
    },
    {
        "code": "B112210003101",
        "type": 16001,
        "name": "本納小学校",
        "address": "茂原市本納1987",
        "lat": 35.483242,
        "lng": 140.303311
    },
    {
        "code": "B112210003110",
        "type": 16001,
        "name": "新治小学校",
        "address": "茂原市下太田150",
        "lat": 35.481631,
        "lng": 140.279979
    },
    {
        "code": "B112210003129",
        "type": 16001,
        "name": "豊岡小学校",
        "address": "茂原市弓渡255",
        "lat": 35.4753,
        "lng": 140.349695
    },
    {
        "code": "B112210007697",
        "type": 16001,
        "name": "二宮小学校",
        "address": "茂原市緑ｹ丘4-38",
        "lat": 35.439673,
        "lng": 140.256093
    },
    {
        "code": "C112210001502",
        "type": 16002,
        "name": "東中学校",
        "address": "茂原市東郷301",
        "lat": 35.435443,
        "lng": 140.319838
    },
    {
        "code": "C112210001511",
        "type": 16002,
        "name": "冨士見中学校",
        "address": "茂原市押日1468",
        "lat": 35.443746,
        "lng": 140.279537
    },
    {
        "code": "C112210001520",
        "type": 16002,
        "name": "茂原中学校",
        "address": "茂原市高師427",
        "lat": 35.438859,
        "lng": 140.303285
    },
    {
        "code": "C112210001539",
        "type": 16002,
        "name": "南中学校",
        "address": "茂原市上永吉1185-2",
        "lat": 35.406086,
        "lng": 140.294648
    },
    {
        "code": "C112210001548",
        "type": 16002,
        "name": "本納中学校",
        "address": "茂原市本納1623",
        "lat": 35.486353,
        "lng": 140.307393
    },
    {
        "code": "C112210001557",
        "type": 16002,
        "name": "早野中学校",
        "address": "茂原市早野206-1",
        "lat": 35.416223,
        "lng": 140.281011
    },
    {
        "code": "D112210000529",
        "type": 16004,
        "name": "長生高等学校",
        "address": "茂原市高師286",
        "lat": 35.433026,
        "lng": 140.298119
    },
    {
        "code": "D112210000538",
        "type": 16004,
        "name": "茂原高等学校",
        "address": "茂原市高師1300",
        "lat": 35.432573,
        "lng": 140.285404
    },
    {
        "code": "D112210000547",
        "type": 16004,
        "name": "茂原樟陽高等学校",
        "address": "茂原市上林283",
        "lat": 35.441081,
        "lng": 140.304146
    },
    {
        "code": "D112310000572",
        "type": 16004,
        "name": "茂原北陵高等学校",
        "address": "茂原市吉井上128",
        "lat": 35.482158,
        "lng": 140.291923
    }
]