[
    {
        "code": "A101322100012",
        "type": 16011,
        "name": "光名幼稚園",
        "address": "名寄市西2条南10-1",
        "lat": 44.346159,
        "lng": 142.460698
    },
    {
        "code": "A101322100021",
        "type": 16011,
        "name": "名寄幼稚園",
        "address": "名寄市東1条南2-1",
        "lat": 44.354596,
        "lng": 142.464514
    },
    {
        "code": "A101322100030",
        "type": 16011,
        "name": "名寄カトリック幼稚園",
        "address": "名寄市西3条南4",
        "lat": 44.352339,
        "lng": 142.458578
    },
    {
        "code": "A201322100011",
        "type": 16013,
        "name": "名寄大谷認定こども園",
        "address": "名寄市西5条南2-10",
        "lat": 44.354154,
        "lng": 142.456012
    },
    {
        "code": "A201322100020",
        "type": 16013,
        "name": "風連幼稚園",
        "address": "名寄市風連町西町284-1",
        "lat": 44.292545,
        "lng": 142.412677
    },
    {
        "code": "B101222100012",
        "type": 16001,
        "name": "名寄小学校",
        "address": "名寄市西1条南1-2",
        "lat": 44.355933,
        "lng": 142.461698
    },
    {
        "code": "B101222100021",
        "type": 16001,
        "name": "名寄南小学校",
        "address": "名寄市西6条南12",
        "lat": 44.342869,
        "lng": 142.453919
    },
    {
        "code": "B101222100030",
        "type": 16001,
        "name": "名寄東小学校",
        "address": "名寄市東3条南3-11",
        "lat": 44.353427,
        "lng": 142.469148
    },
    {
        "code": "B101222100049",
        "type": 16001,
        "name": "名寄西小学校",
        "address": "名寄市西7条南1-18",
        "lat": 44.354618,
        "lng": 142.452057
    },
    {
        "code": "B101222100058",
        "type": 16001,
        "name": "中名寄小学校",
        "address": "名寄市字日彰285",
        "lat": 44.333122,
        "lng": 142.510248
    },
    {
        "code": "B101222100067",
        "type": 16001,
        "name": "智恵文小学校",
        "address": "名寄市字智恵文12線南3",
        "lat": 44.437024,
        "lng": 142.39553
    },
    {
        "code": "B101222100076",
        "type": 16001,
        "name": "風連中央小学校",
        "address": "名寄市風連町西町201",
        "lat": 44.290019,
        "lng": 142.414313
    },
    {
        "code": "C101222100010",
        "type": 16002,
        "name": "名寄中学校",
        "address": "名寄市字豊栄101",
        "lat": 44.340678,
        "lng": 142.449459
    },
    {
        "code": "C101222100029",
        "type": 16002,
        "name": "名寄東中学校",
        "address": "名寄市西2条北8-1-3",
        "lat": 44.365645,
        "lng": 142.461222
    },
    {
        "code": "C101222100038",
        "type": 16002,
        "name": "智恵文中学校",
        "address": "名寄市字智恵文11線北2",
        "lat": 44.438357,
        "lng": 142.405306
    },
    {
        "code": "C101222100047",
        "type": 16002,
        "name": "風連中学校",
        "address": "名寄市風連町新生町167-1",
        "lat": 44.291494,
        "lng": 142.427842
    },
    {
        "code": "D101222100018",
        "type": 16004,
        "name": "名寄高等学校",
        "address": "名寄市徳田204-1",
        "lat": 44.329845,
        "lng": 142.463208
    },
    {
        "code": "D101222100027",
        "type": 16004,
        "name": "名寄産業高等学校",
        "address": "名寄市西5条北5-1",
        "lat": 44.362617,
        "lng": 142.454841
    },
    {
        "code": "F101210100116",
        "type": 16007,
        "name": "名寄市立大学",
        "address": "名寄市西4条北8-1",
        "lat": 44.36523,
        "lng": 142.458834
    }
]