[
    {
        "code": "A112210000240",
        "type": 16011,
        "name": "佐倉幼稚園",
        "address": "佐倉市鏑木町934",
        "lat": 35.720056,
        "lng": 140.225997
    },
    {
        "code": "A112210000259",
        "type": 16011,
        "name": "和田幼稚園",
        "address": "佐倉市直弥59-6",
        "lat": 35.695407,
        "lng": 140.258483
    },
    {
        "code": "A112210000268",
        "type": 16011,
        "name": "弥富幼稚園",
        "address": "佐倉市岩富町145",
        "lat": 35.649613,
        "lng": 140.237129
    },
    {
        "code": "A112310002353",
        "type": 16011,
        "name": "志津幼稚園",
        "address": "佐倉市井野1362",
        "lat": 35.722972,
        "lng": 140.148049
    },
    {
        "code": "A112310002362",
        "type": 16011,
        "name": "佐倉城南幼稚園",
        "address": "佐倉市鏑木町1-5",
        "lat": 35.71491,
        "lng": 140.224685
    },
    {
        "code": "A112310002371",
        "type": 16011,
        "name": "慈光幼稚園",
        "address": "佐倉市本町54",
        "lat": 35.719675,
        "lng": 140.248391
    },
    {
        "code": "A112310002380",
        "type": 16011,
        "name": "さくら幼稚園",
        "address": "佐倉市西志津2-23-19",
        "lat": 35.714281,
        "lng": 140.133827
    },
    {
        "code": "A112310002399",
        "type": 16011,
        "name": "臼井幼稚園",
        "address": "佐倉市臼井田字浜田2435",
        "lat": 35.737691,
        "lng": 140.182734
    },
    {
        "code": "A112310002406",
        "type": 16011,
        "name": "小竹幼稚園",
        "address": "佐倉市小竹795-1",
        "lat": 35.734221,
        "lng": 140.161355
    },
    {
        "code": "A112310002415",
        "type": 16011,
        "name": "志津わかば幼稚園",
        "address": "佐倉市上志津874",
        "lat": 35.707091,
        "lng": 140.150754
    },
    {
        "code": "A112310002424",
        "type": 16011,
        "name": "臼井たんぽぽ幼稚園",
        "address": "佐倉市王子台1-10-7",
        "lat": 35.731375,
        "lng": 140.185664
    },
    {
        "code": "A212310000336",
        "type": 16013,
        "name": "佐倉くるみ幼稚園",
        "address": "佐倉市石川字新山551-1",
        "lat": 35.68996,
        "lng": 140.229216
    },
    {
        "code": "A212310000345",
        "type": 16013,
        "name": "千成幼稚園",
        "address": "佐倉市千成3-4-3",
        "lat": 35.724441,
        "lng": 140.244748
    },
    {
        "code": "A212310000354",
        "type": 16013,
        "name": "モンテッソーリ光の子",
        "address": "佐倉市上座1219-4",
        "lat": 35.724303,
        "lng": 140.162009
    },
    {
        "code": "B112210003325",
        "type": 16001,
        "name": "佐倉小学校",
        "address": "佐倉市新町78-4",
        "lat": 35.720909,
        "lng": 140.233888
    },
    {
        "code": "B112210003334",
        "type": 16001,
        "name": "内郷小学校",
        "address": "佐倉市岩名870",
        "lat": 35.737295,
        "lng": 140.223083
    },
    {
        "code": "B112210003343",
        "type": 16001,
        "name": "志津小学校",
        "address": "佐倉市上座1156-2",
        "lat": 35.72585,
        "lng": 140.162006
    },
    {
        "code": "B112210003352",
        "type": 16001,
        "name": "上志津小学校",
        "address": "佐倉市上志津1752",
        "lat": 35.714823,
        "lng": 140.150203
    },
    {
        "code": "B112210003361",
        "type": 16001,
        "name": "臼井小学校",
        "address": "佐倉市臼井田2395",
        "lat": 35.736615,
        "lng": 140.182907
    },
    {
        "code": "B112210003370",
        "type": 16001,
        "name": "印南小学校",
        "address": "佐倉市印南223-1",
        "lat": 35.726768,
        "lng": 140.207252
    },
    {
        "code": "B112210003389",
        "type": 16001,
        "name": "根郷小学校",
        "address": "佐倉市城454",
        "lat": 35.693718,
        "lng": 140.232055
    },
    {
        "code": "B112210003398",
        "type": 16001,
        "name": "和田小学校",
        "address": "佐倉市直弥59-1",
        "lat": 35.695718,
        "lng": 140.258858
    },
    {
        "code": "B112210003405",
        "type": 16001,
        "name": "弥富小学校",
        "address": "佐倉市岩富町145",
        "lat": 35.649834,
        "lng": 140.23714
    },
    {
        "code": "B112210003414",
        "type": 16001,
        "name": "千代田小学校",
        "address": "佐倉市吉見553",
        "lat": 35.710742,
        "lng": 140.188337
    },
    {
        "code": "B112210003423",
        "type": 16001,
        "name": "下志津小学校",
        "address": "佐倉市中志津4-26-10",
        "lat": 35.709185,
        "lng": 140.159036
    },
    {
        "code": "B112210003432",
        "type": 16001,
        "name": "井野小学校",
        "address": "佐倉市西ﾕｰｶﾘが丘3-1-6",
        "lat": 35.729577,
        "lng": 140.146563
    },
    {
        "code": "B112210003441",
        "type": 16001,
        "name": "南志津小学校",
        "address": "佐倉市下志津原164-2",
        "lat": 35.703713,
        "lng": 140.155592
    },
    {
        "code": "B112210003450",
        "type": 16001,
        "name": "佐倉東小学校",
        "address": "佐倉市将門町7",
        "lat": 35.725714,
        "lng": 140.246304
    },
    {
        "code": "B112210003469",
        "type": 16001,
        "name": "西志津小学校",
        "address": "佐倉市西志津7-2-1",
        "lat": 35.705931,
        "lng": 140.138433
    },
    {
        "code": "B112210003478",
        "type": 16001,
        "name": "小竹小学校",
        "address": "佐倉市ﾕｰｶﾘが丘5-5-1",
        "lat": 35.737965,
        "lng": 140.156764
    },
    {
        "code": "B112210003487",
        "type": 16001,
        "name": "間野台小学校",
        "address": "佐倉市王子台2-18",
        "lat": 35.727017,
        "lng": 140.187281
    },
    {
        "code": "B112210003496",
        "type": 16001,
        "name": "王子台小学校",
        "address": "佐倉市王子台5-19",
        "lat": 35.723268,
        "lng": 140.175144
    },
    {
        "code": "B112210003502",
        "type": 16001,
        "name": "青菅小学校",
        "address": "佐倉市宮ﾉ台1-17-1",
        "lat": 35.746214,
        "lng": 140.150072
    },
    {
        "code": "B112210003511",
        "type": 16001,
        "name": "寺崎小学校",
        "address": "佐倉市大崎台4-4-1",
        "lat": 35.706021,
        "lng": 140.218278
    },
    {
        "code": "B112210003520",
        "type": 16001,
        "name": "山王小学校",
        "address": "佐倉市山王1-44",
        "lat": 35.686162,
        "lng": 140.208419
    },
    {
        "code": "B112210003539",
        "type": 16001,
        "name": "染井野小学校",
        "address": "佐倉市染井野1-19",
        "lat": 35.721852,
        "lng": 140.197641
    },
    {
        "code": "B112210003548",
        "type": 16001,
        "name": "白銀小学校",
        "address": "佐倉市白銀1-4",
        "lat": 35.714745,
        "lng": 140.247501
    },
    {
        "code": "C112210001637",
        "type": 16002,
        "name": "佐倉中学校",
        "address": "佐倉市城内町117-10",
        "lat": 35.720386,
        "lng": 140.222357
    },
    {
        "code": "C112210001646",
        "type": 16002,
        "name": "志津中学校",
        "address": "佐倉市井野1376",
        "lat": 35.723433,
        "lng": 140.147036
    },
    {
        "code": "C112210001655",
        "type": 16002,
        "name": "上志津中学校",
        "address": "佐倉市上志津866",
        "lat": 35.705352,
        "lng": 140.149343
    },
    {
        "code": "C112210001664",
        "type": 16002,
        "name": "南部中学校",
        "address": "佐倉市神門432-1",
        "lat": 35.679108,
        "lng": 140.236832
    },
    {
        "code": "C112210001673",
        "type": 16002,
        "name": "臼井中学校",
        "address": "佐倉市臼井1530",
        "lat": 35.730684,
        "lng": 140.191891
    },
    {
        "code": "C112210001682",
        "type": 16002,
        "name": "井野中学校",
        "address": "佐倉市宮ﾉ台3-9-1",
        "lat": 35.741465,
        "lng": 140.146567
    },
    {
        "code": "C112210001691",
        "type": 16002,
        "name": "佐倉東中学校",
        "address": "佐倉市高岡423-1",
        "lat": 35.713132,
        "lng": 140.238443
    },
    {
        "code": "C112210001708",
        "type": 16002,
        "name": "臼井西中学校",
        "address": "佐倉市臼井台1588",
        "lat": 35.734879,
        "lng": 140.170213
    },
    {
        "code": "C112210001717",
        "type": 16002,
        "name": "西志津中学校",
        "address": "佐倉市西志津4-18-1",
        "lat": 35.710795,
        "lng": 140.140871
    },
    {
        "code": "C112210001726",
        "type": 16002,
        "name": "臼井南中学校",
        "address": "佐倉市染井野4-1",
        "lat": 35.717102,
        "lng": 140.189059
    },
    {
        "code": "C112210001735",
        "type": 16002,
        "name": "根郷中学校",
        "address": "佐倉市山王2-37-1",
        "lat": 35.685246,
        "lng": 140.216501
    },
    {
        "code": "D112210000583",
        "type": 16004,
        "name": "佐倉高等学校",
        "address": "佐倉市鍋山町18",
        "lat": 35.723467,
        "lng": 140.236907
    },
    {
        "code": "D112210000592",
        "type": 16004,
        "name": "佐倉東高等学校",
        "address": "佐倉市城内町278",
        "lat": 35.718742,
        "lng": 140.220834
    },
    {
        "code": "D112210000609",
        "type": 16004,
        "name": "佐倉西高等学校",
        "address": "佐倉市下志津263",
        "lat": 35.717907,
        "lng": 140.170311
    },
    {
        "code": "D112210000618",
        "type": 16004,
        "name": "佐倉南高等学校",
        "address": "佐倉市太田1956",
        "lat": 35.697862,
        "lng": 140.215278
    },
    {
        "code": "F212310102653",
        "type": 16006,
        "name": "千葉敬愛短期大学",
        "address": "佐倉市山王1-9",
        "lat": 35.685551,
        "lng": 140.208364
    }
]