[
    {
        "code": "A112310002503",
        "type": 16011,
        "name": "南柏幼稚園",
        "address": "柏市今谷上町19",
        "lat": 35.839552,
        "lng": 139.954778
    },
    {
        "code": "A112310002512",
        "type": 16011,
        "name": "柏幼稚園",
        "address": "柏市中央1-7-7",
        "lat": 35.857533,
        "lng": 139.971706
    },
    {
        "code": "A112310002521",
        "type": 16011,
        "name": "すみれ幼稚園",
        "address": "柏市みどり台1-11-1",
        "lat": 35.902352,
        "lng": 139.919946
    },
    {
        "code": "A112310002530",
        "type": 16011,
        "name": "ますお幼稚園",
        "address": "柏市増尾1-10-7",
        "lat": 35.83126,
        "lng": 139.976031
    },
    {
        "code": "A112310002549",
        "type": 16011,
        "name": "豊四季幼稚園",
        "address": "柏市旭町7-4-58",
        "lat": 35.858971,
        "lng": 139.955794
    },
    {
        "code": "A112310002558",
        "type": 16011,
        "name": "柏陽幼稚園",
        "address": "柏市新富町2-1-11",
        "lat": 35.853281,
        "lng": 139.95338
    },
    {
        "code": "A112310002567",
        "type": 16011,
        "name": "柏さくら幼稚園",
        "address": "柏市十余二248",
        "lat": 35.881079,
        "lng": 139.961015
    },
    {
        "code": "A112310002576",
        "type": 16011,
        "name": "吉田幼稚園",
        "address": "柏市弥生町4-6",
        "lat": 35.855073,
        "lng": 139.984444
    },
    {
        "code": "A112310002585",
        "type": 16011,
        "name": "百合園幼稚園",
        "address": "柏市南増尾2-15-2",
        "lat": 35.816214,
        "lng": 139.967163
    },
    {
        "code": "A112310002594",
        "type": 16011,
        "name": "田中幼稚園",
        "address": "柏市大室1263",
        "lat": 35.902209,
        "lng": 139.963796
    },
    {
        "code": "A112310002601",
        "type": 16011,
        "name": "柏みどりこども園",
        "address": "柏市東中新宿3-23-10",
        "lat": 35.832068,
        "lng": 139.964791
    },
    {
        "code": "A112310002610",
        "type": 16011,
        "name": "きたかしわ幼稚園",
        "address": "柏市十余二287-61",
        "lat": 35.886698,
        "lng": 139.963506
    },
    {
        "code": "A112310002629",
        "type": 16011,
        "name": "にしはら幼稚園",
        "address": "柏市西原2-9-1",
        "lat": 35.897238,
        "lng": 139.920299
    },
    {
        "code": "A112310002638",
        "type": 16011,
        "name": "さかいね幼稚園",
        "address": "柏市酒井根11-4",
        "lat": 35.818819,
        "lng": 139.961186
    },
    {
        "code": "A112310002647",
        "type": 16011,
        "name": "柏ひがし幼稚園",
        "address": "柏市布施新町1-5-10",
        "lat": 35.89095,
        "lng": 140.000031
    },
    {
        "code": "A112310002656",
        "type": 16011,
        "name": "加賀幼稚園",
        "address": "柏市加賀2-13-1",
        "lat": 35.829351,
        "lng": 139.969365
    },
    {
        "code": "A112310002665",
        "type": 16011,
        "name": "麗澤幼稚園",
        "address": "柏市光ヶ丘2-1-1",
        "lat": 35.830229,
        "lng": 139.953593
    },
    {
        "code": "A112310002674",
        "type": 16011,
        "name": "松葉幼稚園",
        "address": "柏市松葉町5-8",
        "lat": 35.889715,
        "lng": 139.96596
    },
    {
        "code": "A112310003566",
        "type": 16011,
        "name": "沼南幼稚園",
        "address": "柏市高柳1364",
        "lat": 35.817945,
        "lng": 139.998991
    },
    {
        "code": "A112310003575",
        "type": 16011,
        "name": "高柳台幼稚園",
        "address": "柏市高柳623-4",
        "lat": 35.818786,
        "lng": 140.00306
    },
    {
        "code": "A112310003584",
        "type": 16011,
        "name": "大津ヶ丘幼稚園",
        "address": "柏市大津ヶ丘1-44",
        "lat": 35.843305,
        "lng": 140.003332
    },
    {
        "code": "A112310003593",
        "type": 16011,
        "name": "晴山幼稚園",
        "address": "柏市しいの木台4-1-2",
        "lat": 35.803769,
        "lng": 139.980969
    },
    {
        "code": "A112310003600",
        "type": 16011,
        "name": "風早幼稚園",
        "address": "柏市大津ヶ丘4-7",
        "lat": 35.836564,
        "lng": 140.002021
    },
    {
        "code": "A212310000407",
        "type": 16013,
        "name": "みくに学園",
        "address": "柏市旭町1-6-14",
        "lat": 35.861294,
        "lng": 139.968865
    },
    {
        "code": "A212310000416",
        "type": 16013,
        "name": "柏の葉こども園",
        "address": "柏市十余二363-48",
        "lat": 35.887217,
        "lng": 139.954537
    },
    {
        "code": "A212310000425",
        "type": 16013,
        "name": "みくになかよしこども園",
        "address": "柏市大室3-15-2",
        "lat": 35.910586,
        "lng": 139.961701
    },
    {
        "code": "A212310000434",
        "type": 16013,
        "name": "柏こばと学園",
        "address": "柏市十余二287-270",
        "lat": 35.885595,
        "lng": 139.9694
    },
    {
        "code": "A212310000443",
        "type": 16013,
        "name": "柏めぐみ園",
        "address": "柏市若葉町7-17",
        "lat": 35.853173,
        "lng": 139.971037
    },
    {
        "code": "A212310000452",
        "type": 16013,
        "name": "手賀の丘幼稚園・保育園",
        "address": "柏市五條谷423-5",
        "lat": 35.847102,
        "lng": 140.020054
    },
    {
        "code": "A212310000461",
        "type": 16013,
        "name": "ホザナ幼稚園",
        "address": "柏市東3-2-5",
        "lat": 35.854456,
        "lng": 139.981172
    },
    {
        "code": "A212310000470",
        "type": 16013,
        "name": "とみせ幼稚園",
        "address": "柏市根戸351-2",
        "lat": 35.880057,
        "lng": 139.992231
    },
    {
        "code": "A212310000489",
        "type": 16013,
        "name": "まつがさきの森幼稚園",
        "address": "柏市松ヶ崎225-3",
        "lat": 35.886251,
        "lng": 139.97691
    },
    {
        "code": "A212310000498",
        "type": 16013,
        "name": "柏こばと保育園たまご",
        "address": "柏市松葉町3-15-1",
        "lat": 35.887426,
        "lng": 139.968992
    },
    {
        "code": "A212310000755",
        "type": 16013,
        "name": "くりの木幼稚園",
        "address": "柏市豊四季633-15",
        "lat": 35.84352,
        "lng": 139.960771
    },
    {
        "code": "A212310000764",
        "type": 16013,
        "name": "くるみこども園",
        "address": "柏市豊四季台1-1-113",
        "lat": 35.865801,
        "lng": 139.958004
    },
    {
        "code": "A212310000773",
        "type": 16013,
        "name": "第二ますお幼稚園",
        "address": "柏市増尾台4-6-60",
        "lat": 35.822103,
        "lng": 139.973973
    },
    {
        "code": "A212310000817",
        "type": 16013,
        "name": "こばとこどもえんネスト",
        "address": "柏市中十余二207-1中央185街区1",
        "lat": 35.890639,
        "lng": 139.945849
    },
    {
        "code": "B112210003959",
        "type": 16001,
        "name": "柏第一小学校",
        "address": "柏市あけぼの1-7-6",
        "lat": 35.865857,
        "lng": 139.97252
    },
    {
        "code": "B112210003968",
        "type": 16001,
        "name": "柏第二小学校",
        "address": "柏市豊四季310",
        "lat": 35.858607,
        "lng": 139.949467
    },
    {
        "code": "B112210003977",
        "type": 16001,
        "name": "柏第三小学校",
        "address": "柏市若葉町4-54",
        "lat": 35.853775,
        "lng": 139.971548
    },
    {
        "code": "B112210003986",
        "type": 16001,
        "name": "柏第四小学校",
        "address": "柏市松ヶ崎1182-9",
        "lat": 35.874522,
        "lng": 139.968964
    },
    {
        "code": "B112210003995",
        "type": 16001,
        "name": "柏第五小学校",
        "address": "柏市柏932-7",
        "lat": 35.862385,
        "lng": 139.983269
    },
    {
        "code": "B112210004002",
        "type": 16001,
        "name": "柏第六小学校",
        "address": "柏市豊四季台4-2-1",
        "lat": 35.863301,
        "lng": 139.954744
    },
    {
        "code": "B112210004020",
        "type": 16001,
        "name": "土小学校",
        "address": "柏市増尾4-4-1",
        "lat": 35.834386,
        "lng": 139.982191
    },
    {
        "code": "B112210004039",
        "type": 16001,
        "name": "田中小学校",
        "address": "柏市大室1193-3",
        "lat": 35.901518,
        "lng": 139.963491
    },
    {
        "code": "B112210004048",
        "type": 16001,
        "name": "田中北小学校",
        "address": "柏市大青田1536-1",
        "lat": 35.914293,
        "lng": 139.940838
    },
    {
        "code": "B112210004057",
        "type": 16001,
        "name": "西原小学校",
        "address": "柏市西原4-17-1",
        "lat": 35.89235,
        "lng": 139.923857
    },
    {
        "code": "B112210004066",
        "type": 16001,
        "name": "富勢小学校",
        "address": "柏市布施925-1",
        "lat": 35.887187,
        "lng": 139.993017
    },
    {
        "code": "B112210004075",
        "type": 16001,
        "name": "土南部小学校",
        "address": "柏市新逆井1-10-1",
        "lat": 35.811994,
        "lng": 139.974673
    },
    {
        "code": "B112210004084",
        "type": 16001,
        "name": "柏第七小学校",
        "address": "柏市篠籠田723-1",
        "lat": 35.871142,
        "lng": 139.956314
    },
    {
        "code": "B112210004093",
        "type": 16001,
        "name": "柏第八小学校",
        "address": "柏市永楽台2-8-1",
        "lat": 35.843888,
        "lng": 139.971687
    },
    {
        "code": "B112210004100",
        "type": 16001,
        "name": "酒井根小学校",
        "address": "柏市酒井根19-2",
        "lat": 35.820308,
        "lng": 139.962883
    },
    {
        "code": "B112210004119",
        "type": 16001,
        "name": "旭小学校",
        "address": "柏市旭町6-5-17",
        "lat": 35.857386,
        "lng": 139.955827
    },
    {
        "code": "B112210004128",
        "type": 16001,
        "name": "藤心小学校",
        "address": "柏市藤心880-1",
        "lat": 35.820697,
        "lng": 139.992408
    },
    {
        "code": "B112210004137",
        "type": 16001,
        "name": "中原小学校",
        "address": "柏市中原1821-1",
        "lat": 35.835695,
        "lng": 139.971243
    },
    {
        "code": "B112210004146",
        "type": 16001,
        "name": "酒井根西小学校",
        "address": "柏市酒井根662-1",
        "lat": 35.818364,
        "lng": 139.953384
    },
    {
        "code": "B112210004155",
        "type": 16001,
        "name": "高田小学校",
        "address": "柏市高田376-3",
        "lat": 35.874827,
        "lng": 139.952133
    },
    {
        "code": "B112210004164",
        "type": 16001,
        "name": "名戸ヶ谷小学校",
        "address": "柏市名戸ヶ谷474-1",
        "lat": 35.846943,
        "lng": 139.985046
    },
    {
        "code": "B112210004173",
        "type": 16001,
        "name": "増尾西小学校",
        "address": "柏市増尾台3-5-9",
        "lat": 35.825197,
        "lng": 139.974437
    },
    {
        "code": "B112210004182",
        "type": 16001,
        "name": "逆井小学校",
        "address": "柏市逆井452-2",
        "lat": 35.812032,
        "lng": 139.982021
    },
    {
        "code": "B112210004191",
        "type": 16001,
        "name": "富勢東小学校",
        "address": "柏市布施2176-2",
        "lat": 35.893213,
        "lng": 140.007405
    },
    {
        "code": "B112210004208",
        "type": 16001,
        "name": "豊小学校",
        "address": "柏市豊四季610-2",
        "lat": 35.843999,
        "lng": 139.962493
    },
    {
        "code": "B112210004217",
        "type": 16001,
        "name": "酒井根東小学校",
        "address": "柏市酒井根1-2-1",
        "lat": 35.82528,
        "lng": 139.964133
    },
    {
        "code": "B112210004226",
        "type": 16001,
        "name": "旭東小学校",
        "address": "柏市旭町5-3-9",
        "lat": 35.856386,
        "lng": 139.962326
    },
    {
        "code": "B112210004235",
        "type": 16001,
        "name": "松葉第一小学校",
        "address": "柏市松葉町5-3",
        "lat": 35.888742,
        "lng": 139.966908
    },
    {
        "code": "B112210004244",
        "type": 16001,
        "name": "松葉第二小学校",
        "address": "柏市松葉町2-16",
        "lat": 35.88827,
        "lng": 139.975047
    },
    {
        "code": "B112210004253",
        "type": 16001,
        "name": "花野井小学校",
        "address": "柏市花野井1652-34",
        "lat": 35.899824,
        "lng": 139.971296
    },
    {
        "code": "B112210004262",
        "type": 16001,
        "name": "富勢西小学校",
        "address": "柏市布施84-2",
        "lat": 35.890714,
        "lng": 139.98774
    },
    {
        "code": "B112210004271",
        "type": 16001,
        "name": "十余二小学校",
        "address": "柏市柏の葉4-4-1",
        "lat": 35.897959,
        "lng": 139.933414
    },
    {
        "code": "B112210005939",
        "type": 16001,
        "name": "風早南部小学校",
        "address": "柏市藤ｹ谷新田111-2",
        "lat": 35.817998,
        "lng": 140.017884
    },
    {
        "code": "B112210005948",
        "type": 16001,
        "name": "風早北部小学校",
        "address": "柏市大井1854-1",
        "lat": 35.84436,
        "lng": 140.007516
    },
    {
        "code": "B112210005957",
        "type": 16001,
        "name": "手賀西小学校",
        "address": "柏市泉541",
        "lat": 35.841223,
        "lng": 140.045041
    },
    {
        "code": "B112210005966",
        "type": 16001,
        "name": "手賀東小学校",
        "address": "柏市手賀479-7",
        "lat": 35.839279,
        "lng": 140.078315
    },
    {
        "code": "B112210005975",
        "type": 16001,
        "name": "高柳小学校",
        "address": "柏市高南台3-14-12",
        "lat": 35.806782,
        "lng": 139.99477
    },
    {
        "code": "B112210005984",
        "type": 16001,
        "name": "大津ケ丘第一小学校",
        "address": "柏市大津ｹ丘3-50",
        "lat": 35.839611,
        "lng": 139.996268
    },
    {
        "code": "B112210005993",
        "type": 16001,
        "name": "大津ケ丘第二小学校",
        "address": "柏市大津ｹ丘4-8",
        "lat": 35.836083,
        "lng": 140.0031
    },
    {
        "code": "B112210006000",
        "type": 16001,
        "name": "高柳西小学校",
        "address": "柏市しいの木台3-2",
        "lat": 35.802783,
        "lng": 139.982313
    },
    {
        "code": "B112210007553",
        "type": 16001,
        "name": "柏の葉小学校",
        "address": "柏市十余二348-51中央404街区1",
        "lat": 35.886307,
        "lng": 139.952731
    },
    {
        "code": "C112210001897",
        "type": 16002,
        "name": "柏中学校",
        "address": "柏市明原4-1-1",
        "lat": 35.864468,
        "lng": 139.963659
    },
    {
        "code": "C112210001904",
        "type": 16002,
        "name": "柏第二中学校",
        "address": "柏市弥生町6-6",
        "lat": 35.856525,
        "lng": 139.985463
    },
    {
        "code": "C112210001913",
        "type": 16002,
        "name": "土中学校",
        "address": "柏市増尾1-23-1",
        "lat": 35.834112,
        "lng": 139.975103
    },
    {
        "code": "C112210001922",
        "type": 16002,
        "name": "富勢中学校",
        "address": "柏市根戸467-1",
        "lat": 35.885465,
        "lng": 139.985323
    },
    {
        "code": "C112210001931",
        "type": 16002,
        "name": "田中中学校",
        "address": "柏市大室249-9",
        "lat": 35.9046,
        "lng": 139.956825
    },
    {
        "code": "C112210001940",
        "type": 16002,
        "name": "光ヶ丘中学校",
        "address": "柏市光ヶ丘4-23-1",
        "lat": 35.829251,
        "lng": 139.964966
    },
    {
        "code": "C112210001959",
        "type": 16002,
        "name": "柏第三中学校",
        "address": "柏市篠籠田987-1",
        "lat": 35.867745,
        "lng": 139.953022
    },
    {
        "code": "C112210001968",
        "type": 16002,
        "name": "柏第四中学校",
        "address": "柏市名戸ヶ谷1-6-8",
        "lat": 35.846138,
        "lng": 139.976547
    },
    {
        "code": "C112210001977",
        "type": 16002,
        "name": "南部中学校",
        "address": "柏市南増尾6-16-1",
        "lat": 35.809365,
        "lng": 139.963939
    },
    {
        "code": "C112210001986",
        "type": 16002,
        "name": "柏第五中学校",
        "address": "柏市高田919-1",
        "lat": 35.873966,
        "lng": 139.965409
    },
    {
        "code": "C112210001995",
        "type": 16002,
        "name": "酒井根中学校",
        "address": "柏市酒井根1-3-1",
        "lat": 35.824113,
        "lng": 139.965855
    },
    {
        "code": "C112210002002",
        "type": 16002,
        "name": "西原中学校",
        "address": "柏市西原6-13-1",
        "lat": 35.88899,
        "lng": 139.923829
    },
    {
        "code": "C112210002011",
        "type": 16002,
        "name": "松葉中学校",
        "address": "柏市松葉町3-14",
        "lat": 35.887326,
        "lng": 139.97013
    },
    {
        "code": "C112210002020",
        "type": 16002,
        "name": "逆井中学校",
        "address": "柏市逆井555",
        "lat": 35.81717,
        "lng": 139.984409
    },
    {
        "code": "C112210002039",
        "type": 16002,
        "name": "中原中学校",
        "address": "柏市中原1816-2",
        "lat": 35.837111,
        "lng": 139.971187
    },
    {
        "code": "C112210002048",
        "type": 16002,
        "name": "豊四季中学校",
        "address": "柏市豊四季287-7",
        "lat": 35.861246,
        "lng": 139.950772
    },
    {
        "code": "C112210002057",
        "type": 16002,
        "name": "柏の葉中学校",
        "address": "柏市十余二337-93中央405街区1",
        "lat": 35.885753,
        "lng": 139.954098
    },
    {
        "code": "C112210002878",
        "type": 16002,
        "name": "風早中学校",
        "address": "柏市塚崎1319",
        "lat": 35.831084,
        "lng": 140.003851
    },
    {
        "code": "C112210002887",
        "type": 16002,
        "name": "手賀中学校",
        "address": "柏市柳戸690",
        "lat": 35.836723,
        "lng": 140.050763
    },
    {
        "code": "C112210002896",
        "type": 16002,
        "name": "大津ケ丘中学校",
        "address": "柏市大津ヶ丘1-25",
        "lat": 35.84436,
        "lng": 140.003156
    },
    {
        "code": "C112210002903",
        "type": 16002,
        "name": "高柳中学校",
        "address": "柏市高南台1-1-1",
        "lat": 35.806171,
        "lng": 139.995631
    },
    {
        "code": "C112210002912",
        "type": 16002,
        "name": "東葛飾中学校",
        "address": "柏市旭町3-2-1",
        "lat": 35.860838,
        "lng": 139.964313
    },
    {
        "code": "C112310000208",
        "type": 16002,
        "name": "芝浦工業大学柏中学校",
        "address": "柏市増尾700",
        "lat": 35.840912,
        "lng": 139.985571
    },
    {
        "code": "C112310000226",
        "type": 16002,
        "name": "麗澤中学校",
        "address": "柏市光ヶ丘2-1-1",
        "lat": 35.832086,
        "lng": 139.949919
    },
    {
        "code": "C112310000244",
        "type": 16002,
        "name": "二松学舎大学附属柏中学校",
        "address": "柏市大井2590",
        "lat": 35.851996,
        "lng": 140.011937
    },
    {
        "code": "D112210000690",
        "type": 16004,
        "name": "東葛飾高等学校",
        "address": "柏市旭町3-2-1",
        "lat": 35.86108,
        "lng": 139.964659
    },
    {
        "code": "D112210000707",
        "type": 16004,
        "name": "柏高等学校",
        "address": "柏市布施254",
        "lat": 35.893185,
        "lng": 139.98899
    },
    {
        "code": "D112210000716",
        "type": 16004,
        "name": "柏南高等学校",
        "address": "柏市増尾1705",
        "lat": 35.837834,
        "lng": 139.976853
    },
    {
        "code": "D112210000725",
        "type": 16004,
        "name": "柏陵高等学校",
        "address": "柏市逆井444-1",
        "lat": 35.810421,
        "lng": 139.980965
    },
    {
        "code": "D112210000734",
        "type": 16004,
        "name": "柏中央高等学校",
        "address": "柏市松ヶ崎884-1",
        "lat": 35.875439,
        "lng": 139.973575
    },
    {
        "code": "D112210000743",
        "type": 16004,
        "name": "柏の葉高等学校",
        "address": "柏市柏の葉6-1",
        "lat": 35.891854,
        "lng": 139.944939
    },
    {
        "code": "D112210001001",
        "type": 16004,
        "name": "沼南高等学校",
        "address": "柏市岩井678-3",
        "lat": 35.845027,
        "lng": 140.031848
    },
    {
        "code": "D112210001010",
        "type": 16004,
        "name": "沼南高柳高等学校",
        "address": "柏市高柳995",
        "lat": 35.804449,
        "lng": 140.006491
    },
    {
        "code": "D112210001298",
        "type": 16004,
        "name": "柏市立柏高等学校",
        "address": "柏市船戸山高野325-1",
        "lat": 35.924291,
        "lng": 139.940159
    },
    {
        "code": "D112310000368",
        "type": 16004,
        "name": "麗澤高等学校",
        "address": "柏市光ヶ丘2-1-1",
        "lat": 35.831973,
        "lng": 139.950245
    },
    {
        "code": "D112310000377",
        "type": 16004,
        "name": "芝浦工業大学柏高等学校",
        "address": "柏市増尾700",
        "lat": 35.840889,
        "lng": 139.985574
    },
    {
        "code": "D112310000386",
        "type": 16004,
        "name": "日本体育大学柏高等学校",
        "address": "柏市戸張944",
        "lat": 35.857303,
        "lng": 139.991268
    },
    {
        "code": "D112310000395",
        "type": 16004,
        "name": "流通経済大学付属柏高等学校",
        "address": "柏市十余二1-20",
        "lat": 35.906543,
        "lng": 139.928189
    },
    {
        "code": "D112310000536",
        "type": 16004,
        "name": "二松学舍大学附属柏高等学校",
        "address": "柏市大井2590",
        "lat": 35.851998,
        "lng": 140.011933
    },
    {
        "code": "E112210000116",
        "type": 16012,
        "name": "柏特別支援学校",
        "address": "柏市十余二418-5",
        "lat": 35.888935,
        "lng": 139.941772
    },
    {
        "code": "F112310102388",
        "type": 16007,
        "name": "開智国際大学",
        "address": "柏市柏1225-6",
        "lat": 35.861943,
        "lng": 139.988147
    },
    {
        "code": "F112310102468",
        "type": 16007,
        "name": "麗澤大学",
        "address": "柏市光ｹ丘2-1-1",
        "lat": 35.833723,
        "lng": 139.954911
    },
    {
        "code": "H112310000635",
        "type": 16016,
        "name": "慈恵柏看護専門学校",
        "address": "柏市柏下163-1",
        "lat": 35.870205,
        "lng": 139.98223
    },
    {
        "code": "H112310000644",
        "type": 16016,
        "name": "大原簿記法律専門学校柏校",
        "address": "柏市末広町10-1",
        "lat": 35.864187,
        "lng": 139.972078
    },
    {
        "code": "H112310000653",
        "type": 16016,
        "name": "パリ総合美容専門学校柏校",
        "address": "柏市柏3-4-7",
        "lat": 35.859064,
        "lng": 139.975437
    },
    {
        "code": "H112310000662",
        "type": 16016,
        "name": "河合塾柏校",
        "address": "柏市柏4-3-1",
        "lat": 35.862805,
        "lng": 139.973486
    },
    {
        "code": "H112310000813",
        "type": 16016,
        "name": "千葉・柏リハビリテーション学院",
        "address": "柏市大井2673-1",
        "lat": 35.85632,
        "lng": 140.014532
    },
    {
        "code": "H112310000822",
        "type": 16016,
        "name": "葵会柏看護専門学校",
        "address": "柏市小青田1-3-4",
        "lat": 35.909809,
        "lng": 139.954559
    },
    {
        "code": "H112310000831",
        "type": 16016,
        "name": "駿台予備学校柏校",
        "address": "柏市柏5-2-13",
        "lat": 35.865158,
        "lng": 139.97431
    },
    {
        "code": "H212310000144",
        "type": 16015,
        "name": "全国漁業協同組合学校",
        "address": "柏市豊町1-4-5",
        "lat": 35.849037,
        "lng": 139.958344
    },
    {
        "code": "H212310000153",
        "type": 16015,
        "name": "日本語国際学院",
        "address": "柏市末広町11-12",
        "lat": 35.864831,
        "lng": 139.972686
    }
]