[
    {
        "code": "A212210000105",
        "type": 16013,
        "name": "勝浦こども園",
        "address": "勝浦市出水1200",
        "lat": 35.152556,
        "lng": 140.316755
    },
    {
        "code": "B112210004280",
        "type": 16001,
        "name": "上野小学校",
        "address": "勝浦市植野元宮田72",
        "lat": 35.154189,
        "lng": 140.252326
    },
    {
        "code": "B112210004299",
        "type": 16001,
        "name": "興津小学校",
        "address": "勝浦市興津1700",
        "lat": 35.132591,
        "lng": 140.242999
    },
    {
        "code": "B112210004306",
        "type": 16001,
        "name": "勝浦小学校",
        "address": "勝浦市墨名733-1",
        "lat": 35.151616,
        "lng": 140.315272
    },
    {
        "code": "B112210004315",
        "type": 16001,
        "name": "豊浜小学校",
        "address": "勝浦市新官65",
        "lat": 35.153869,
        "lng": 140.327062
    },
    {
        "code": "B112210004324",
        "type": 16001,
        "name": "総野小学校",
        "address": "勝浦市蟹田222-1",
        "lat": 35.200416,
        "lng": 140.276577
    },
    {
        "code": "C112210002066",
        "type": 16002,
        "name": "勝浦中学校",
        "address": "勝浦市出水1120-1",
        "lat": 35.154346,
        "lng": 140.316895
    },
    {
        "code": "F112310102486",
        "type": 16007,
        "name": "国際武道大学",
        "address": "勝浦市新官841",
        "lat": 35.160757,
        "lng": 140.321174
    }
]