[
    {
        "code": "A112210000428",
        "type": 16011,
        "name": "若草認定こども園",
        "address": "浦安市猫実4-6-12",
        "lat": 35.663974,
        "lng": 139.894875
    },
    {
        "code": "A112210000437",
        "type": 16011,
        "name": "青葉幼稚園",
        "address": "浦安市当代島3-12-1",
        "lat": 35.671927,
        "lng": 139.891224
    },
    {
        "code": "A112210000446",
        "type": 16011,
        "name": "みなみ認定こども園",
        "address": "浦安市堀江5-4-2",
        "lat": 35.65425,
        "lng": 139.892048
    },
    {
        "code": "A112210000455",
        "type": 16011,
        "name": "神明認定こども園",
        "address": "浦安市猫実1-18-43",
        "lat": 35.657363,
        "lng": 139.903264
    },
    {
        "code": "A112210000464",
        "type": 16011,
        "name": "北部認定こども園",
        "address": "浦安市北栄3-20-2",
        "lat": 35.665963,
        "lng": 139.899569
    },
    {
        "code": "A112210000473",
        "type": 16011,
        "name": "見明川認定こども園",
        "address": "浦安市弁天3-1-3",
        "lat": 35.639021,
        "lng": 139.894607
    },
    {
        "code": "A112210000482",
        "type": 16011,
        "name": "堀江認定こども園",
        "address": "浦安市堀江4-34-6",
        "lat": 35.65951,
        "lng": 139.890298
    },
    {
        "code": "A112210000491",
        "type": 16011,
        "name": "富岡幼稚園",
        "address": "浦安市富岡1-1-2",
        "lat": 35.647995,
        "lng": 139.903675
    },
    {
        "code": "A112210000507",
        "type": 16011,
        "name": "美浜南認定こども園",
        "address": "浦安市美浜3-15-2",
        "lat": 35.651314,
        "lng": 139.906739
    },
    {
        "code": "A112210000516",
        "type": 16011,
        "name": "入船南認定こども園",
        "address": "浦安市入船3-66-2",
        "lat": 35.646545,
        "lng": 139.913314
    },
    {
        "code": "A112210000525",
        "type": 16011,
        "name": "舞浜認定こども園",
        "address": "浦安市舞浜2-1-2",
        "lat": 35.641159,
        "lng": 139.884636
    },
    {
        "code": "A112210000534",
        "type": 16011,
        "name": "美浜北認定こども園",
        "address": "浦安市美浜5-12-3",
        "lat": 35.654436,
        "lng": 139.914974
    },
    {
        "code": "A112210000543",
        "type": 16011,
        "name": "日の出幼稚園",
        "address": "浦安市日の出2-15-1",
        "lat": 35.647478,
        "lng": 139.925129
    },
    {
        "code": "A112210000552",
        "type": 16011,
        "name": "明海認定こども園",
        "address": "浦安市明海2-13-3",
        "lat": 35.641554,
        "lng": 139.917972
    },
    {
        "code": "A112310003423",
        "type": 16011,
        "name": "川見学園吹上幼稚園",
        "address": "浦安市富士見5-10-1",
        "lat": 35.643026,
        "lng": 139.889935
    },
    {
        "code": "A112310003432",
        "type": 16011,
        "name": "アゼリー学園浦安幼稚園",
        "address": "浦安市富岡3-3-1",
        "lat": 35.642912,
        "lng": 139.902281
    },
    {
        "code": "A112310003441",
        "type": 16011,
        "name": "聖徳大学附属浦安幼稚園",
        "address": "浦安市日の出5-4-2",
        "lat": 35.641907,
        "lng": 139.929196
    },
    {
        "code": "A112310003450",
        "type": 16011,
        "name": "暁星国際学園新浦安幼稚園",
        "address": "浦安市高洲4-2-20",
        "lat": 35.634813,
        "lng": 139.916814
    },
    {
        "code": "A112310003469",
        "type": 16011,
        "name": "渋谷教育学園浦安幼稚園",
        "address": "浦安市高洲2-3-1",
        "lat": 35.638582,
        "lng": 139.910067
    },
    {
        "code": "A212310000602",
        "type": 16013,
        "name": "浦安こども園",
        "address": "浦安市明海5-4-2",
        "lat": 35.638874,
        "lng": 139.923219
    },
    {
        "code": "B112210005608",
        "type": 16001,
        "name": "浦安小学校",
        "address": "浦安市猫実4-9-1",
        "lat": 35.663715,
        "lng": 139.894312
    },
    {
        "code": "B112210005617",
        "type": 16001,
        "name": "南小学校",
        "address": "浦安市堀江5-4-1",
        "lat": 35.65516,
        "lng": 139.891979
    },
    {
        "code": "B112210005626",
        "type": 16001,
        "name": "北部小学校",
        "address": "浦安市北栄3-20-1",
        "lat": 35.665938,
        "lng": 139.9007
    },
    {
        "code": "B112210005635",
        "type": 16001,
        "name": "見明川小学校",
        "address": "浦安市弁天3-1-2",
        "lat": 35.639218,
        "lng": 139.895757
    },
    {
        "code": "B112210005644",
        "type": 16001,
        "name": "富岡小学校",
        "address": "浦安市富岡1-1-1",
        "lat": 35.648439,
        "lng": 139.904728
    },
    {
        "code": "B112210005653",
        "type": 16001,
        "name": "美浜南小学校",
        "address": "浦安市美浜3-15-1",
        "lat": 35.651272,
        "lng": 139.907839
    },
    {
        "code": "B112210005662",
        "type": 16001,
        "name": "東小学校",
        "address": "浦安市猫実1-11-1",
        "lat": 35.656411,
        "lng": 139.902506
    },
    {
        "code": "B112210005671",
        "type": 16001,
        "name": "舞浜小学校",
        "address": "浦安市舞浜2-1-1",
        "lat": 35.641884,
        "lng": 139.88573
    },
    {
        "code": "B112210005680",
        "type": 16001,
        "name": "美浜北小学校",
        "address": "浦安市美浜5-12-1",
        "lat": 35.655383,
        "lng": 139.915088
    },
    {
        "code": "B112210005699",
        "type": 16001,
        "name": "日の出小学校",
        "address": "浦安市日の出3-1-1",
        "lat": 35.647409,
        "lng": 139.925963
    },
    {
        "code": "B112210005706",
        "type": 16001,
        "name": "明海小学校",
        "address": "浦安市明海2-13-4",
        "lat": 35.64119,
        "lng": 139.917783
    },
    {
        "code": "B112210005715",
        "type": 16001,
        "name": "高洲小学校",
        "address": "浦安市高洲4-2-1",
        "lat": 35.63559,
        "lng": 139.917394
    },
    {
        "code": "B112210005724",
        "type": 16001,
        "name": "日の出南小学校",
        "address": "浦安市日の出5-4-4",
        "lat": 35.64232,
        "lng": 139.929325
    },
    {
        "code": "B112210005733",
        "type": 16001,
        "name": "高洲北小学校",
        "address": "浦安市高洲2-2-1",
        "lat": 35.638966,
        "lng": 139.911258
    },
    {
        "code": "B112210005742",
        "type": 16001,
        "name": "明海南小学校",
        "address": "浦安市明海5-5-1",
        "lat": 35.63888,
        "lng": 139.924587
    },
    {
        "code": "B112210005751",
        "type": 16001,
        "name": "東野小学校",
        "address": "浦安市東野1-7-3",
        "lat": 35.651001,
        "lng": 139.901376
    },
    {
        "code": "B112210005760",
        "type": 16001,
        "name": "入船小学校",
        "address": "浦安市入船3-66-1",
        "lat": 35.645662,
        "lng": 139.912672
    },
    {
        "code": "C112210002716",
        "type": 16002,
        "name": "浦安中学校",
        "address": "浦安市海楽2-36-1",
        "lat": 35.661549,
        "lng": 139.907033
    },
    {
        "code": "C112210002725",
        "type": 16002,
        "name": "堀江中学校",
        "address": "浦安市富士見2-19-1",
        "lat": 35.65055,
        "lng": 139.889701
    },
    {
        "code": "C112210002734",
        "type": 16002,
        "name": "見明川中学校",
        "address": "浦安市弁天3-1-1",
        "lat": 35.638273,
        "lng": 139.896951
    },
    {
        "code": "C112210002743",
        "type": 16002,
        "name": "入船中学校",
        "address": "浦安市入船3-66-3",
        "lat": 35.644717,
        "lng": 139.913866
    },
    {
        "code": "C112210002752",
        "type": 16002,
        "name": "富岡中学校",
        "address": "浦安市富岡1-23-1",
        "lat": 35.649245,
        "lng": 139.904395
    },
    {
        "code": "C112210002761",
        "type": 16002,
        "name": "美浜中学校",
        "address": "浦安市美浜5-12-2",
        "lat": 35.655994,
        "lng": 139.916255
    },
    {
        "code": "C112210002770",
        "type": 16002,
        "name": "日の出中学校",
        "address": "浦安市日の出3-1-2",
        "lat": 35.646398,
        "lng": 139.926976
    },
    {
        "code": "C112210002789",
        "type": 16002,
        "name": "明海中学校",
        "address": "浦安市明海5-5-1",
        "lat": 35.6394,
        "lng": 139.925075
    },
    {
        "code": "C112210003680",
        "type": 16002,
        "name": "高洲中学校",
        "address": "浦安市高洲7-3-1",
        "lat": 35.632883,
        "lng": 139.916678
    },
    {
        "code": "C112310000164",
        "type": 16002,
        "name": "東海大学付属浦安高等学校中等部",
        "address": "浦安市東野3-11-1",
        "lat": 35.645101,
        "lng": 139.892559
    },
    {
        "code": "D112210000967",
        "type": 16004,
        "name": "浦安高等学校",
        "address": "浦安市海楽2-36-2",
        "lat": 35.660744,
        "lng": 139.908199
    },
    {
        "code": "D112210000976",
        "type": 16004,
        "name": "浦安南高等学校",
        "address": "浦安市高洲9-4-1",
        "lat": 35.629976,
        "lng": 139.917678
    },
    {
        "code": "D112310000493",
        "type": 16004,
        "name": "東海大学付属浦安高等学校",
        "address": "浦安市東野3-11-1",
        "lat": 35.645078,
        "lng": 139.892562
    },
    {
        "code": "D112310000509",
        "type": 16004,
        "name": "東京学館浦安高等学校",
        "address": "浦安市高洲1-23-1",
        "lat": 35.639704,
        "lng": 139.912576
    },
    {
        "code": "F112310102574",
        "type": 16007,
        "name": "了徳寺大学",
        "address": "浦安市明海5-8-1",
        "lat": 35.638377,
        "lng": 139.926213
    }
]