[
    {
        "code": "A112310003165",
        "type": 16011,
        "name": "めばえ幼稚園",
        "address": "我孫子市白山2-7-5",
        "lat": 35.869571,
        "lng": 140.006203
    },
    {
        "code": "A112310003174",
        "type": 16011,
        "name": "ひかり幼稚園",
        "address": "我孫子市緑2-3-1",
        "lat": 35.869537,
        "lng": 140.014585
    },
    {
        "code": "A112310003183",
        "type": 16011,
        "name": "若草幼稚園",
        "address": "我孫子市中里515",
        "lat": 35.86419,
        "lng": 140.082464
    },
    {
        "code": "A112310003192",
        "type": 16011,
        "name": "湖北台幼稚園",
        "address": "我孫子市湖北台8-10-2",
        "lat": 35.86644,
        "lng": 140.070796
    },
    {
        "code": "A112310003209",
        "type": 16011,
        "name": "湖北白ばら幼稚園",
        "address": "我孫子市中峠村下1-2",
        "lat": 35.857588,
        "lng": 140.072962
    },
    {
        "code": "A112310003218",
        "type": 16011,
        "name": "わだ幼稚園",
        "address": "我孫子市布佐1275",
        "lat": 35.853678,
        "lng": 140.131523
    },
    {
        "code": "A112310003227",
        "type": 16011,
        "name": "二階堂幼稚園",
        "address": "我孫子市久寺家479-1",
        "lat": 35.884289,
        "lng": 140.016854
    },
    {
        "code": "A112310003236",
        "type": 16011,
        "name": "エーデル幼稚園",
        "address": "我孫子市泉24-32",
        "lat": 35.870824,
        "lng": 140.032839
    },
    {
        "code": "A112310003245",
        "type": 16011,
        "name": "つくしの幼稚園",
        "address": "我孫子市つくし野6-23-10",
        "lat": 35.881779,
        "lng": 140.010724
    },
    {
        "code": "A112310003254",
        "type": 16011,
        "name": "布佐台幼稚園",
        "address": "我孫子市布佐1849",
        "lat": 35.858438,
        "lng": 140.113608
    },
    {
        "code": "A212310000568",
        "type": 16013,
        "name": "布佐宝保育園",
        "address": "我孫子市布佐2318",
        "lat": 35.85574,
        "lng": 140.135129
    },
    {
        "code": "A212310000577",
        "type": 16013,
        "name": "恵愛こども園",
        "address": "我孫子市湖北台8-17-9",
        "lat": 35.867056,
        "lng": 140.070215
    },
    {
        "code": "A212310000586",
        "type": 16013,
        "name": "柏鳳保育園",
        "address": "我孫子市中峠台30-9",
        "lat": 35.871342,
        "lng": 140.069643
    },
    {
        "code": "B112210005109",
        "type": 16001,
        "name": "我孫子第一小学校",
        "address": "我孫子市寿1-22-10",
        "lat": 35.869135,
        "lng": 140.020293
    },
    {
        "code": "B112210005118",
        "type": 16001,
        "name": "我孫子第二小学校",
        "address": "我孫子市下ヶ戸610",
        "lat": 35.871664,
        "lng": 140.05815
    },
    {
        "code": "B112210005127",
        "type": 16001,
        "name": "我孫子第三小学校",
        "address": "我孫子市柴崎台3-3-1",
        "lat": 35.878478,
        "lng": 140.041754
    },
    {
        "code": "B112210005136",
        "type": 16001,
        "name": "我孫子第四小学校",
        "address": "我孫子市白山3-2-1",
        "lat": 35.871689,
        "lng": 140.004711
    },
    {
        "code": "B112210005145",
        "type": 16001,
        "name": "湖北小学校",
        "address": "我孫子市中里95",
        "lat": 35.866109,
        "lng": 140.087647
    },
    {
        "code": "B112210005154",
        "type": 16001,
        "name": "布佐小学校",
        "address": "我孫子市布佐1217",
        "lat": 35.856333,
        "lng": 140.131282
    },
    {
        "code": "B112210005163",
        "type": 16001,
        "name": "湖北台西小学校",
        "address": "我孫子市湖北台8-17-1",
        "lat": 35.866415,
        "lng": 140.07001
    },
    {
        "code": "B112210005172",
        "type": 16001,
        "name": "高野山小学校",
        "address": "我孫子市高野山198",
        "lat": 35.866386,
        "lng": 140.030708
    },
    {
        "code": "B112210005181",
        "type": 16001,
        "name": "根戸小学校",
        "address": "我孫子市つくし野4-17-1",
        "lat": 35.881938,
        "lng": 140.005794
    },
    {
        "code": "B112210005190",
        "type": 16001,
        "name": "湖北台東小学校",
        "address": "我孫子市湖北台4-3-1",
        "lat": 35.862443,
        "lng": 140.077426
    },
    {
        "code": "B112210005207",
        "type": 16001,
        "name": "新木小学校",
        "address": "我孫子市新木1460",
        "lat": 35.867914,
        "lng": 140.102339
    },
    {
        "code": "B112210005216",
        "type": 16001,
        "name": "並木小学校",
        "address": "我孫子市つくし野7-30-1",
        "lat": 35.8788,
        "lng": 140.020793
    },
    {
        "code": "B112210005225",
        "type": 16001,
        "name": "布佐南小学校",
        "address": "我孫子市布佐平和台5-1-1",
        "lat": 35.856888,
        "lng": 140.120699
    },
    {
        "code": "C112210002486",
        "type": 16002,
        "name": "布佐中学校",
        "address": "我孫子市布佐1301",
        "lat": 35.855749,
        "lng": 140.133087
    },
    {
        "code": "C112210002495",
        "type": 16002,
        "name": "湖北中学校",
        "address": "我孫子市古戸300",
        "lat": 35.868581,
        "lng": 140.091868
    },
    {
        "code": "C112210002501",
        "type": 16002,
        "name": "我孫子中学校",
        "address": "我孫子市高野山537",
        "lat": 35.865664,
        "lng": 140.038235
    },
    {
        "code": "C112210002510",
        "type": 16002,
        "name": "湖北台中学校",
        "address": "我孫子市湖北台6-9-1",
        "lat": 35.860721,
        "lng": 140.071371
    },
    {
        "code": "C112210002529",
        "type": 16002,
        "name": "久寺家中学校",
        "address": "我孫子市つくし野171",
        "lat": 35.88527,
        "lng": 140.003711
    },
    {
        "code": "C112210002538",
        "type": 16002,
        "name": "白山中学校",
        "address": "我孫子市白山3-7-3",
        "lat": 35.869773,
        "lng": 140.004739
    },
    {
        "code": "D112210000878",
        "type": 16004,
        "name": "我孫子高等学校",
        "address": "我孫子市若松18-4",
        "lat": 35.863164,
        "lng": 140.025626
    },
    {
        "code": "D112210001225",
        "type": 16004,
        "name": "我孫子東高等学校",
        "address": "我孫子市新々田172",
        "lat": 35.84473,
        "lng": 140.129993
    },
    {
        "code": "D112310000457",
        "type": 16004,
        "name": "我孫子二階堂高等学校",
        "address": "我孫子市久寺家479-1",
        "lat": 35.884826,
        "lng": 140.01621
    },
    {
        "code": "D112310000466",
        "type": 16004,
        "name": "中央学院高等学校",
        "address": "我孫子市都部765",
        "lat": 35.863637,
        "lng": 140.060483
    },
    {
        "code": "E112210000143",
        "type": 16012,
        "name": "我孫子特別支援学校",
        "address": "我孫子市新木字大山下1685",
        "lat": 35.86697,
        "lng": 140.100479
    },
    {
        "code": "E112210000303",
        "type": 16012,
        "name": "湖北特別支援学校",
        "address": "我孫子市日秀70",
        "lat": 35.863715,
        "lng": 140.08688
    },
    {
        "code": "F112310102459",
        "type": 16007,
        "name": "中央学院大学",
        "address": "我孫子市久寺家451",
        "lat": 35.882716,
        "lng": 140.018626
    },
    {
        "code": "F112310102529",
        "type": 16007,
        "name": "川村学園女子大学",
        "address": "我孫子市下ｹ戸1133",
        "lat": 35.874774,
        "lng": 140.053206
    },
    {
        "code": "H112310000742",
        "type": 16016,
        "name": "あびこ助産師専門学校",
        "address": "我孫子市我孫子1854-12",
        "lat": 35.865949,
        "lng": 140.027339
    },
    {
        "code": "H112310000751",
        "type": 16016,
        "name": "スカイ総合ペット専門学校",
        "address": "我孫子市台田4-1-41",
        "lat": 35.877044,
        "lng": 139.99487
    }
]