[
    {
        "code": "A112310003263",
        "type": 16011,
        "name": "鎌ヶ谷ふじ幼稚園",
        "address": "鎌ｹ谷市東道野辺5-1-57",
        "lat": 35.755276,
        "lng": 139.999331
    },
    {
        "code": "A112310003272",
        "type": 16011,
        "name": "かまがや幼稚園",
        "address": "鎌ｹ谷市中央1-16-3",
        "lat": 35.776396,
        "lng": 140.002798
    },
    {
        "code": "A112310003281",
        "type": 16011,
        "name": "鎌ヶ谷みどり幼稚園",
        "address": "鎌ｹ谷市粟野210",
        "lat": 35.784182,
        "lng": 139.998646
    },
    {
        "code": "A112310003290",
        "type": 16011,
        "name": "みちる幼稚園",
        "address": "鎌ｹ谷市東中沢3-5-1",
        "lat": 35.768042,
        "lng": 139.991661
    },
    {
        "code": "A112310003307",
        "type": 16011,
        "name": "鎌ヶ谷ひかり幼稚園",
        "address": "鎌ｹ谷市鎌ヶ谷6-7-38",
        "lat": 35.750613,
        "lng": 140.011191
    },
    {
        "code": "A112310003316",
        "type": 16011,
        "name": "鎌ヶ谷ふじ第二幼稚園",
        "address": "鎌ｹ谷市西道野辺12-25",
        "lat": 35.749824,
        "lng": 139.984213
    },
    {
        "code": "A112310003325",
        "type": 16011,
        "name": "東京聖栄大学附属わたなべ幼稚園",
        "address": "鎌ｹ谷市東初富5-25-16",
        "lat": 35.764992,
        "lng": 140.012523
    },
    {
        "code": "A112310003334",
        "type": 16011,
        "name": "さつま幼稚園",
        "address": "鎌ｹ谷市佐津間893",
        "lat": 35.799303,
        "lng": 140.006491
    },
    {
        "code": "A112310003343",
        "type": 16011,
        "name": "鎌ヶ谷さくら幼稚園",
        "address": "鎌ｹ谷市丸山2-11-1",
        "lat": 35.760262,
        "lng": 140.005416
    },
    {
        "code": "B112210005270",
        "type": 16001,
        "name": "鎌ケ谷小学校",
        "address": "鎌ｹ谷市中央2-1-1",
        "lat": 35.772897,
        "lng": 140.002715
    },
    {
        "code": "B112210005289",
        "type": 16001,
        "name": "南部小学校",
        "address": "鎌ｹ谷市中沢726-41",
        "lat": 35.756593,
        "lng": 139.986495
    },
    {
        "code": "B112210005298",
        "type": 16001,
        "name": "北部小学校",
        "address": "鎌ｹ谷市粟野735",
        "lat": 35.79034,
        "lng": 140.005659
    },
    {
        "code": "B112210005305",
        "type": 16001,
        "name": "東部小学校",
        "address": "鎌ｹ谷市鎌ｹ谷8-3-11",
        "lat": 35.755343,
        "lng": 140.008466
    },
    {
        "code": "B112210005314",
        "type": 16001,
        "name": "西部小学校",
        "address": "鎌ｹ谷市初富110",
        "lat": 35.784979,
        "lng": 139.984883
    },
    {
        "code": "B112210005323",
        "type": 16001,
        "name": "中部小学校",
        "address": "鎌ｹ谷市道野辺中央3-12-3",
        "lat": 35.764453,
        "lng": 139.991689
    },
    {
        "code": "B112210005332",
        "type": 16001,
        "name": "初富小学校",
        "address": "鎌ｹ谷市東初富1-20-1",
        "lat": 35.771425,
        "lng": 140.014992
    },
    {
        "code": "B112210005341",
        "type": 16001,
        "name": "道野辺小学校",
        "address": "鎌ｹ谷市東道野辺5-5-1",
        "lat": 35.752037,
        "lng": 139.999995
    },
    {
        "code": "B112210005350",
        "type": 16001,
        "name": "五本松小学校",
        "address": "鎌ｹ谷市南初富1-16-1",
        "lat": 35.77548,
        "lng": 140.008437
    },
    {
        "code": "C112210002565",
        "type": 16002,
        "name": "鎌ケ谷中学校",
        "address": "鎌ｹ谷市富岡1-2-1",
        "lat": 35.769869,
        "lng": 139.999521
    },
    {
        "code": "C112210002574",
        "type": 16002,
        "name": "第二中学校",
        "address": "鎌ｹ谷市東道野辺4-19-26",
        "lat": 35.757481,
        "lng": 140.00441
    },
    {
        "code": "C112210002583",
        "type": 16002,
        "name": "第三中学校",
        "address": "鎌ｹ谷市粟野450",
        "lat": 35.78484,
        "lng": 139.996382
    },
    {
        "code": "C112210002592",
        "type": 16002,
        "name": "第四中学校",
        "address": "鎌ｹ谷市中沢1024-1",
        "lat": 35.763814,
        "lng": 139.979746
    },
    {
        "code": "C112210002609",
        "type": 16002,
        "name": "第五中学校",
        "address": "鎌ｹ谷市初富806-262",
        "lat": 35.779425,
        "lng": 140.021518
    },
    {
        "code": "D112210000896",
        "type": 16004,
        "name": "鎌ヶ谷高等学校",
        "address": "鎌ｹ谷市東道野辺1-4-1",
        "lat": 35.756954,
        "lng": 139.994856
    },
    {
        "code": "D112210000903",
        "type": 16004,
        "name": "鎌ヶ谷西高等学校",
        "address": "鎌ｹ谷市初富284-7",
        "lat": 35.789562,
        "lng": 139.98841
    }
]