[
    {
        "code": "A112310003682",
        "type": 16011,
        "name": "白井幼稚園",
        "address": "白井市根1827-27",
        "lat": 35.799518,
        "lng": 140.035788
    },
    {
        "code": "A112310003691",
        "type": 16011,
        "name": "宝幼稚園",
        "address": "白井市根1363-2",
        "lat": 35.790247,
        "lng": 140.042329
    },
    {
        "code": "A112310003708",
        "type": 16011,
        "name": "まどか幼稚園",
        "address": "白井市清水口3-22-1",
        "lat": 35.788925,
        "lng": 140.035735
    },
    {
        "code": "A112310003717",
        "type": 16011,
        "name": "まこと南山幼稚園",
        "address": "白井市南山1-7-2",
        "lat": 35.781999,
        "lng": 140.060943
    },
    {
        "code": "A112310003726",
        "type": 16011,
        "name": "英幼稚園",
        "address": "白井市大山口2-2-2",
        "lat": 35.786613,
        "lng": 140.023062
    },
    {
        "code": "A112310003735",
        "type": 16011,
        "name": "白井若葉幼稚園",
        "address": "白井市堀込1-8",
        "lat": 35.781249,
        "lng": 140.052996
    },
    {
        "code": "A212310000675",
        "type": 16013,
        "name": "はなぶさ認定こども園",
        "address": "白井市大山口2-2-4",
        "lat": 35.786713,
        "lng": 140.023174
    },
    {
        "code": "A212310000835",
        "type": 16013,
        "name": "ひまわりこども園",
        "address": "白井市折立618-10",
        "lat": 35.806148,
        "lng": 140.046139
    },
    {
        "code": "B112210006224",
        "type": 16001,
        "name": "白井第一小学校",
        "address": "白井市根105",
        "lat": 35.794564,
        "lng": 140.055652
    },
    {
        "code": "B112210006233",
        "type": 16001,
        "name": "白井第二小学校",
        "address": "白井市中181-2",
        "lat": 35.818365,
        "lng": 140.046291
    },
    {
        "code": "B112210006242",
        "type": 16001,
        "name": "白井第三小学校",
        "address": "白井市根336-15",
        "lat": 35.774259,
        "lng": 140.029628
    },
    {
        "code": "B112210006251",
        "type": 16001,
        "name": "大山口小学校",
        "address": "白井市大山口2-2-1",
        "lat": 35.786785,
        "lng": 140.0241
    },
    {
        "code": "B112210006260",
        "type": 16001,
        "name": "清水口小学校",
        "address": "白井市清水口2-3-1",
        "lat": 35.789508,
        "lng": 140.03396
    },
    {
        "code": "B112210006279",
        "type": 16001,
        "name": "南山小学校",
        "address": "白井市南山1-7-1",
        "lat": 35.781593,
        "lng": 140.059929
    },
    {
        "code": "B112210006288",
        "type": 16001,
        "name": "七次台小学校",
        "address": "白井市七次台3-17-1",
        "lat": 35.798618,
        "lng": 140.042792
    },
    {
        "code": "B112210006297",
        "type": 16001,
        "name": "池の上小学校",
        "address": "白井市池の上2-21",
        "lat": 35.777815,
        "lng": 140.048181
    },
    {
        "code": "B112210006304",
        "type": 16001,
        "name": "桜台小学校",
        "address": "白井市桜台3-28",
        "lat": 35.801896,
        "lng": 140.099619
    },
    {
        "code": "C112210003010",
        "type": 16002,
        "name": "白井中学校",
        "address": "白井市根54",
        "lat": 35.800813,
        "lng": 140.056457
    },
    {
        "code": "C112210003029",
        "type": 16002,
        "name": "大山口中学校",
        "address": "白井市大山口2-1-1",
        "lat": 35.787674,
        "lng": 140.023462
    },
    {
        "code": "C112210003038",
        "type": 16002,
        "name": "南山中学校",
        "address": "白井市南山1-6-1",
        "lat": 35.780316,
        "lng": 140.058179
    },
    {
        "code": "C112210003047",
        "type": 16002,
        "name": "七次台中学校",
        "address": "白井市七次台1-21-1",
        "lat": 35.795146,
        "lng": 140.041015
    },
    {
        "code": "C112210003056",
        "type": 16002,
        "name": "桜台中学校",
        "address": "白井市桜台3-27",
        "lat": 35.80234,
        "lng": 140.100564
    },
    {
        "code": "D112210001056",
        "type": 16004,
        "name": "白井高等学校",
        "address": "白井市池の上1-8-1",
        "lat": 35.776344,
        "lng": 140.056319
    },
    {
        "code": "H112310000804",
        "type": 16016,
        "name": "中央自動車大学校",
        "address": "白井市根字大山口1920-7",
        "lat": 35.7902,
        "lng": 140.026507
    }
]