[
    {
        "code": "A112210000721",
        "type": 16011,
        "name": "日向幼稚園",
        "address": "山武市雨坪12",
        "lat": 35.629935,
        "lng": 140.356403
    },
    {
        "code": "A212210000267",
        "type": 16013,
        "name": "なるとうこども園",
        "address": "山武市成東210-3",
        "lat": 35.5994,
        "lng": 140.41207
    },
    {
        "code": "A212210000276",
        "type": 16013,
        "name": "なんごうこども園",
        "address": "山武市上横地887-1",
        "lat": 35.60074,
        "lng": 140.443797
    },
    {
        "code": "A212210000285",
        "type": 16013,
        "name": "しらはたこども園",
        "address": "山武市白幡1919",
        "lat": 35.588791,
        "lng": 140.435515
    },
    {
        "code": "A212210000294",
        "type": 16013,
        "name": "まつおこども園",
        "address": "山武市松尾町金尾441",
        "lat": 35.653949,
        "lng": 140.43496
    },
    {
        "code": "B112210006929",
        "type": 16001,
        "name": "成東小学校",
        "address": "山武市成東2692",
        "lat": 35.601202,
        "lng": 140.402432
    },
    {
        "code": "B112210006938",
        "type": 16001,
        "name": "大富小学校",
        "address": "山武市新泉ﾄ60",
        "lat": 35.613923,
        "lng": 140.416402
    },
    {
        "code": "B112210006947",
        "type": 16001,
        "name": "南郷小学校",
        "address": "山武市上横地884-1",
        "lat": 35.599954,
        "lng": 140.444345
    },
    {
        "code": "B112210006956",
        "type": 16001,
        "name": "緑海小学校",
        "address": "山武市松ヶ谷ﾛ471-1",
        "lat": 35.579119,
        "lng": 140.472884
    },
    {
        "code": "B112210006965",
        "type": 16001,
        "name": "鳴浜小学校",
        "address": "山武市本須賀1090",
        "lat": 35.568152,
        "lng": 140.44529
    },
    {
        "code": "B112210006983",
        "type": 16001,
        "name": "睦岡小学校",
        "address": "山武市埴谷771",
        "lat": 35.652421,
        "lng": 140.378877
    },
    {
        "code": "B112210006992",
        "type": 16001,
        "name": "山武北小学校",
        "address": "山武市沖渡699",
        "lat": 35.674335,
        "lng": 140.360127
    },
    {
        "code": "B112210007018",
        "type": 16001,
        "name": "蓮沼小学校",
        "address": "山武市蓮沼ｲ-2784",
        "lat": 35.606039,
        "lng": 140.497874
    },
    {
        "code": "B112210007027",
        "type": 16001,
        "name": "大平小学校",
        "address": "山武市松尾町広根1140",
        "lat": 35.619967,
        "lng": 140.478978
    },
    {
        "code": "B112210007036",
        "type": 16001,
        "name": "松尾小学校",
        "address": "山武市松尾町猿尾383",
        "lat": 35.639453,
        "lng": 140.457591
    },
    {
        "code": "B112210007713",
        "type": 16001,
        "name": "日向小学校",
        "address": "山武市木原2370",
        "lat": 35.629688,
        "lng": 140.347001
    },
    {
        "code": "C112210003314",
        "type": 16002,
        "name": "成東中学校",
        "address": "山武市和田567",
        "lat": 35.610701,
        "lng": 140.406515
    },
    {
        "code": "C112210003323",
        "type": 16002,
        "name": "成東東中学校",
        "address": "山武市五木田2452-1",
        "lat": 35.584956,
        "lng": 140.447539
    },
    {
        "code": "C112210003332",
        "type": 16002,
        "name": "山武中学校",
        "address": "山武市埴谷1855",
        "lat": 35.646588,
        "lng": 140.365767
    },
    {
        "code": "C112210003341",
        "type": 16002,
        "name": "蓮沼中学校",
        "address": "山武市蓮沼ﾊ-1036",
        "lat": 35.600788,
        "lng": 140.499095
    },
    {
        "code": "C112210003350",
        "type": 16002,
        "name": "松尾中学校",
        "address": "山武市松尾町松尾112",
        "lat": 35.641276,
        "lng": 140.455931
    },
    {
        "code": "D112210001118",
        "type": 16004,
        "name": "成東高等学校",
        "address": "山武市成東3596",
        "lat": 35.600591,
        "lng": 140.395544
    },
    {
        "code": "D112210001127",
        "type": 16004,
        "name": "松尾高等学校",
        "address": "山武市松尾町大堤546",
        "lat": 35.635417,
        "lng": 140.450512
    }
]