[
    {
        "code": "A112210000632",
        "type": 16011,
        "name": "瀬戸幼稚園",
        "address": "印西市瀬戸1580",
        "lat": 35.777244,
        "lng": 140.227365
    },
    {
        "code": "A112210000641",
        "type": 16011,
        "name": "もとの幼稚園",
        "address": "印西市中根1403-10",
        "lat": 35.811231,
        "lng": 140.199362
    },
    {
        "code": "A112310003744",
        "type": 16011,
        "name": "印西しおん幼稚園",
        "address": "印西市松崎517",
        "lat": 35.77659,
        "lng": 140.135487
    },
    {
        "code": "A112310003753",
        "type": 16011,
        "name": "天神幼稚園",
        "address": "印西市大森2428-13",
        "lat": 35.83079,
        "lng": 140.14991
    },
    {
        "code": "A112310003762",
        "type": 16011,
        "name": "小林天神幼雅園",
        "address": "印西市小林北3-3-13",
        "lat": 35.832182,
        "lng": 140.197275
    },
    {
        "code": "A112310003771",
        "type": 16011,
        "name": "きかり幼稚園",
        "address": "印西市木刈2-5",
        "lat": 35.809273,
        "lng": 140.106112
    },
    {
        "code": "A112310003780",
        "type": 16011,
        "name": "原山幼稚園",
        "address": "印西市原山2-1461",
        "lat": 35.800588,
        "lng": 140.130977
    },
    {
        "code": "A112310003799",
        "type": 16011,
        "name": "市川学園西の原幼稚園",
        "address": "印西市西の原3-15",
        "lat": 35.801912,
        "lng": 140.153497
    },
    {
        "code": "A212310000648",
        "type": 16013,
        "name": "牧の原宝保育園",
        "address": "印西市牧の原3-1-3",
        "lat": 35.812304,
        "lng": 140.159628
    },
    {
        "code": "A212310000657",
        "type": 16013,
        "name": "印西ひかりこども園",
        "address": "印西市木下804-6",
        "lat": 35.838058,
        "lng": 140.157223
    },
    {
        "code": "A212310000666",
        "type": 16013,
        "name": "草深こじか保育園",
        "address": "印西市草深2496-10",
        "lat": 35.796561,
        "lng": 140.156037
    },
    {
        "code": "B112210006199",
        "type": 16001,
        "name": "六合小学校",
        "address": "印西市瀬戸1580",
        "lat": 35.77768,
        "lng": 140.227471
    },
    {
        "code": "B112210006206",
        "type": 16001,
        "name": "平賀小学校",
        "address": "印西市平賀1161-2",
        "lat": 35.755017,
        "lng": 140.246998
    },
    {
        "code": "B112210006215",
        "type": 16001,
        "name": "いには野小学校",
        "address": "印西市若萩3-9",
        "lat": 35.789996,
        "lng": 140.207611
    },
    {
        "code": "B112210006313",
        "type": 16001,
        "name": "木下小学校",
        "address": "印西市木下1502",
        "lat": 35.839335,
        "lng": 140.154392
    },
    {
        "code": "B112210006322",
        "type": 16001,
        "name": "大森小学校",
        "address": "印西市大森3350",
        "lat": 35.836169,
        "lng": 140.140754
    },
    {
        "code": "B112210006331",
        "type": 16001,
        "name": "船穂小学校",
        "address": "印西市船尾1292",
        "lat": 35.783704,
        "lng": 140.12881
    },
    {
        "code": "B112210006340",
        "type": 16001,
        "name": "小林小学校",
        "address": "印西市小林2448-2",
        "lat": 35.831162,
        "lng": 140.187255
    },
    {
        "code": "B112210006359",
        "type": 16001,
        "name": "内野小学校",
        "address": "印西市内野1-1",
        "lat": 35.797924,
        "lng": 140.125283
    },
    {
        "code": "B112210006368",
        "type": 16001,
        "name": "木刈小学校",
        "address": "印西市木刈2-6",
        "lat": 35.810616,
        "lng": 140.106758
    },
    {
        "code": "B112210006377",
        "type": 16001,
        "name": "原山小学校",
        "address": "印西市原山3-4",
        "lat": 35.799757,
        "lng": 140.130699
    },
    {
        "code": "B112210006386",
        "type": 16001,
        "name": "小林北小学校",
        "address": "印西市小林北5-1-5",
        "lat": 35.831616,
        "lng": 140.198528
    },
    {
        "code": "B112210006395",
        "type": 16001,
        "name": "小倉台小学校",
        "address": "印西市小倉台2-3",
        "lat": 35.804256,
        "lng": 140.109868
    },
    {
        "code": "B112210006402",
        "type": 16001,
        "name": "高花小学校",
        "address": "印西市高花2-4",
        "lat": 35.797147,
        "lng": 140.138588
    },
    {
        "code": "B112210006411",
        "type": 16001,
        "name": "西の原小学校",
        "address": "印西市西の原2-7",
        "lat": 35.800063,
        "lng": 140.152226
    },
    {
        "code": "B112210006420",
        "type": 16001,
        "name": "原小学校",
        "address": "印西市原3-5",
        "lat": 35.799424,
        "lng": 140.16353
    },
    {
        "code": "B112210006439",
        "type": 16001,
        "name": "滝野小学校",
        "address": "印西市滝野5-1",
        "lat": 35.809219,
        "lng": 140.175581
    },
    {
        "code": "B112210006448",
        "type": 16001,
        "name": "牧の原小学校",
        "address": "印西市牧の原3-1-1",
        "lat": 35.812187,
        "lng": 140.160756
    },
    {
        "code": "B112210006457",
        "type": 16001,
        "name": "本埜小学校",
        "address": "印西市中根1281-2",
        "lat": 35.806647,
        "lng": 140.19474
    },
    {
        "code": "C112210003001",
        "type": 16002,
        "name": "印旛中学校",
        "address": "印西市舞姫2-1-1",
        "lat": 35.785266,
        "lng": 140.204668
    },
    {
        "code": "C112210003065",
        "type": 16002,
        "name": "船穂中学校",
        "address": "印西市高花1-3",
        "lat": 35.795508,
        "lng": 140.13231
    },
    {
        "code": "C112210003074",
        "type": 16002,
        "name": "印西中学校",
        "address": "印西市大森2244",
        "lat": 35.828199,
        "lng": 140.14731
    },
    {
        "code": "C112210003083",
        "type": 16002,
        "name": "木刈中学校",
        "address": "印西市木刈2-1",
        "lat": 35.807423,
        "lng": 140.110369
    },
    {
        "code": "C112210003092",
        "type": 16002,
        "name": "小林中学校",
        "address": "印西市小林大門下1-4-1",
        "lat": 35.82345,
        "lng": 140.186807
    },
    {
        "code": "C112210003109",
        "type": 16002,
        "name": "原山中学校",
        "address": "印西市原山1-2",
        "lat": 35.798841,
        "lng": 140.127394
    },
    {
        "code": "C112210003118",
        "type": 16002,
        "name": "西の原中学校",
        "address": "印西市西の原1-3",
        "lat": 35.803146,
        "lng": 140.156336
    },
    {
        "code": "C112210003127",
        "type": 16002,
        "name": "本埜中学校",
        "address": "印西市笠神250",
        "lat": 35.817118,
        "lng": 140.199139
    },
    {
        "code": "C112210003136",
        "type": 16002,
        "name": "滝野中学校",
        "address": "印西市滝野5-2",
        "lat": 35.808396,
        "lng": 140.174779
    },
    {
        "code": "D112210001047",
        "type": 16004,
        "name": "印旛明誠高等学校",
        "address": "印西市草深1420-9",
        "lat": 35.807316,
        "lng": 140.14928
    },
    {
        "code": "D212310000018",
        "type": 16003,
        "name": "時任学園中等教育学校",
        "address": "印西市岩戸3315",
        "lat": 35.776974,
        "lng": 140.170749
    },
    {
        "code": "E112210000170",
        "type": 16012,
        "name": "印旛特別支援学校",
        "address": "印西市平賀1160-2",
        "lat": 35.753545,
        "lng": 140.247414
    },
    {
        "code": "F112310102547",
        "type": 16007,
        "name": "東京基督教大学",
        "address": "印西市内野3-301-5",
        "lat": 35.790175,
        "lng": 140.126227
    },
    {
        "code": "H112310000797",
        "type": 16016,
        "name": "日本医科大学看護専門学校",
        "address": "印西市鎌苅1955",
        "lat": 35.78291,
        "lng": 140.199981
    }
]