[
    {
        "code": "A101322400019",
        "type": 16011,
        "name": "メリー幼稚園",
        "address": "千歳市末広5-1-6",
        "lat": 42.828773,
        "lng": 141.653658
    },
    {
        "code": "A101322400028",
        "type": 16011,
        "name": "千歳青葉幼稚園",
        "address": "千歳市青葉5-13-7",
        "lat": 42.827451,
        "lng": 141.665751
    },
    {
        "code": "A101322400037",
        "type": 16011,
        "name": "千歳幼稚園",
        "address": "千歳市清水町4-25",
        "lat": 42.82276,
        "lng": 141.650492
    },
    {
        "code": "A101322400046",
        "type": 16011,
        "name": "くるみ幼稚園",
        "address": "千歳市幸福1-847",
        "lat": 42.846476,
        "lng": 141.669246
    },
    {
        "code": "A101322400055",
        "type": 16011,
        "name": "第二メリー幼稚園",
        "address": "千歳市富丘4-13-20",
        "lat": 42.839777,
        "lng": 141.643052
    },
    {
        "code": "A101322400064",
        "type": 16011,
        "name": "千歳わかば幼稚園",
        "address": "千歳市富士2-5-6",
        "lat": 42.838279,
        "lng": 141.628707
    },
    {
        "code": "A101322400073",
        "type": 16011,
        "name": "千歳つくし幼稚園",
        "address": "千歳市高台2-3-11",
        "lat": 42.834753,
        "lng": 141.648647
    },
    {
        "code": "A101322400082",
        "type": 16011,
        "name": "第２わかば幼稚園",
        "address": "千歳市勇舞1-4-1",
        "lat": 42.85072,
        "lng": 141.635252
    },
    {
        "code": "A201222400010",
        "type": 16013,
        "name": "認定こども園ひまわり",
        "address": "千歳市新富2-4-60",
        "lat": 42.832697,
        "lng": 141.639459
    },
    {
        "code": "A201222400029",
        "type": 16013,
        "name": "認定こども園つばさ",
        "address": "千歳市花園4-3-1",
        "lat": 42.83472,
        "lng": 141.654979
    },
    {
        "code": "A201322400036",
        "type": 16013,
        "name": "アリス認定こども園",
        "address": "千歳市勇舞1-1-1",
        "lat": 42.849964,
        "lng": 141.637586
    },
    {
        "code": "A201322400045",
        "type": 16013,
        "name": "北斗認定こども園",
        "address": "千歳市北斗5-6-3",
        "lat": 42.832571,
        "lng": 141.623905
    },
    {
        "code": "A201322400054",
        "type": 16013,
        "name": "千歳春日保育園",
        "address": "千歳市春日町2-1-9",
        "lat": 42.820932,
        "lng": 141.642843
    },
    {
        "code": "A201322400063",
        "type": 16013,
        "name": "あずさ認定こども園",
        "address": "千歳市あずさ5-21-1",
        "lat": 42.848526,
        "lng": 141.650798
    },
    {
        "code": "A201322400072",
        "type": 16013,
        "name": "北陽幼稚園・第２北陽保育園",
        "address": "千歳市北陽8-2-8",
        "lat": 42.851991,
        "lng": 141.643784
    },
    {
        "code": "A201322400081",
        "type": 16013,
        "name": "千歳第２幼稚園",
        "address": "千歳市新富1-6-21",
        "lat": 42.831367,
        "lng": 141.638303
    },
    {
        "code": "A201322400090",
        "type": 16013,
        "name": "住吉認定こども園",
        "address": "千歳市豊里3-9-5",
        "lat": 42.836759,
        "lng": 141.667934
    },
    {
        "code": "A201322400107",
        "type": 16013,
        "name": "つくし保育園",
        "address": "千歳市富丘1-5-13",
        "lat": 42.834519,
        "lng": 141.64776
    },
    {
        "code": "A201322400116",
        "type": 16013,
        "name": "向陽台つくし幼稚園",
        "address": "千歳市若草5-3-1",
        "lat": 42.792008,
        "lng": 141.596816
    },
    {
        "code": "A201322400125",
        "type": 16013,
        "name": "認定こども園おひさま",
        "address": "千歳市みどり台南2-12",
        "lat": 42.85884,
        "lng": 141.616787
    },
    {
        "code": "A201322400134",
        "type": 16013,
        "name": "あんじゅ認定こども園",
        "address": "千歳市春日町5-1-10",
        "lat": 42.821337,
        "lng": 141.635352
    },
    {
        "code": "A201322400143",
        "type": 16013,
        "name": "認定こども園向陽台",
        "address": "千歳市若草5-2-2",
        "lat": 42.792017,
        "lng": 141.598177
    },
    {
        "code": "B101222400019",
        "type": 16001,
        "name": "千歳小学校",
        "address": "千歳市本町3-4-1",
        "lat": 42.818454,
        "lng": 141.645965
    },
    {
        "code": "B101222400028",
        "type": 16001,
        "name": "北進小学校",
        "address": "千歳市北栄1-2-6",
        "lat": 42.827455,
        "lng": 141.642109
    },
    {
        "code": "B101222400037",
        "type": 16001,
        "name": "北栄小学校",
        "address": "千歳市北栄1-10-2",
        "lat": 42.826537,
        "lng": 141.640687
    },
    {
        "code": "B101222400046",
        "type": 16001,
        "name": "末広小学校",
        "address": "千歳市富丘2-6-2",
        "lat": 42.83973,
        "lng": 141.651157
    },
    {
        "code": "B101222400055",
        "type": 16001,
        "name": "緑小学校",
        "address": "千歳市緑町4-4-1",
        "lat": 42.824052,
        "lng": 141.636435
    },
    {
        "code": "B101222400064",
        "type": 16001,
        "name": "千歳第二小学校",
        "address": "千歳市清流1-4-1",
        "lat": 42.845869,
        "lng": 141.668183
    },
    {
        "code": "B101222400073",
        "type": 16001,
        "name": "駒里小学校",
        "address": "千歳市駒里945",
        "lat": 42.812096,
        "lng": 141.742521
    },
    {
        "code": "B101222400082",
        "type": 16001,
        "name": "支笏湖小学校",
        "address": "千歳市支笏湖温泉2",
        "lat": 42.773366,
        "lng": 141.407633
    },
    {
        "code": "B101222400091",
        "type": 16001,
        "name": "日の出小学校",
        "address": "千歳市日の出2-3-20",
        "lat": 42.829649,
        "lng": 141.671656
    },
    {
        "code": "B101222400108",
        "type": 16001,
        "name": "信濃小学校",
        "address": "千歳市信濃2-34-12",
        "lat": 42.836202,
        "lng": 141.629937
    },
    {
        "code": "B101222400117",
        "type": 16001,
        "name": "高台小学校",
        "address": "千歳市富丘1-19-4",
        "lat": 42.83577,
        "lng": 141.646736
    },
    {
        "code": "B101222400126",
        "type": 16001,
        "name": "東小学校",
        "address": "千歳市東丘824-30",
        "lat": 42.914421,
        "lng": 141.80214
    },
    {
        "code": "B101222400135",
        "type": 16001,
        "name": "祝梅小学校",
        "address": "千歳市梅ヶ丘3-2-1",
        "lat": 42.831593,
        "lng": 141.678517
    },
    {
        "code": "B101222400144",
        "type": 16001,
        "name": "桜木小学校",
        "address": "千歳市自由ヶ丘7-1-1",
        "lat": 42.835062,
        "lng": 141.613772
    },
    {
        "code": "B101222400153",
        "type": 16001,
        "name": "向陽台小学校",
        "address": "千歳市若草5-1",
        "lat": 42.79265,
        "lng": 141.598277
    },
    {
        "code": "B101222400162",
        "type": 16001,
        "name": "北陽小学校",
        "address": "千歳市北陽3-9-1",
        "lat": 42.848173,
        "lng": 141.633825
    },
    {
        "code": "B101222400171",
        "type": 16001,
        "name": "泉沢小学校",
        "address": "千歳市柏陽2-9",
        "lat": 42.779874,
        "lng": 141.595611
    },
    {
        "code": "C101222400017",
        "type": 16002,
        "name": "千歳中学校",
        "address": "千歳市栄町4-35",
        "lat": 42.827259,
        "lng": 141.646742
    },
    {
        "code": "C101222400026",
        "type": 16002,
        "name": "北進中学校",
        "address": "千歳市北栄1-2-6",
        "lat": 42.827398,
        "lng": 141.642131
    },
    {
        "code": "C101222400035",
        "type": 16002,
        "name": "青葉中学校",
        "address": "千歳市豊里4-1-1",
        "lat": 42.833148,
        "lng": 141.66985
    },
    {
        "code": "C101222400044",
        "type": 16002,
        "name": "東千歳中学校",
        "address": "千歳市幌加731-117",
        "lat": 42.91196,
        "lng": 141.80031
    },
    {
        "code": "C101222400053",
        "type": 16002,
        "name": "駒里中学校",
        "address": "千歳市駒里945",
        "lat": 42.811979,
        "lng": 141.742502
    },
    {
        "code": "C101222400062",
        "type": 16002,
        "name": "富丘中学校",
        "address": "千歳市あずさ1-2-1",
        "lat": 42.842341,
        "lng": 141.649296
    },
    {
        "code": "C101222400071",
        "type": 16002,
        "name": "北斗中学校",
        "address": "千歳市北斗5-1-1",
        "lat": 42.831785,
        "lng": 141.625132
    },
    {
        "code": "C101222400080",
        "type": 16002,
        "name": "向陽台中学校",
        "address": "千歳市若草5-5",
        "lat": 42.789734,
        "lng": 141.596583
    },
    {
        "code": "C101222400099",
        "type": 16002,
        "name": "勇舞中学校",
        "address": "千歳市勇舞1-4-1",
        "lat": 42.854503,
        "lng": 141.634789
    },
    {
        "code": "D101222400015",
        "type": 16004,
        "name": "千歳高等学校",
        "address": "千歳市北栄1-4-1",
        "lat": 42.828509,
        "lng": 141.643436
    },
    {
        "code": "D101222400024",
        "type": 16004,
        "name": "千歳北陽高等学校",
        "address": "千歳市北陽2-10-53",
        "lat": 42.848312,
        "lng": 141.639363
    },
    {
        "code": "E101222400012",
        "type": 16012,
        "name": "千歳高等支援学校",
        "address": "千歳市真々地2-3-1",
        "lat": 42.813191,
        "lng": 141.643277
    },
    {
        "code": "F101210100134",
        "type": 16007,
        "name": "千歳科学技術大学",
        "address": "千歳市美々758-65",
        "lat": 42.793487,
        "lng": 141.695934
    },
    {
        "code": "F101310100374",
        "type": 16007,
        "name": "北海道千歳リハビリテーション大学",
        "address": "千歳市里美2-10",
        "lat": 42.78544,
        "lng": 141.598206
    },
    {
        "code": "H101322400014",
        "type": 16016,
        "name": "日本航空大学校",
        "address": "千歳市泉沢1007-95",
        "lat": 42.782855,
        "lng": 141.622569
    }
]