[
    {
        "code": "A101322500018",
        "type": 16011,
        "name": "滝川幼稚園",
        "address": "滝川市栄町2-7-13",
        "lat": 43.555608,
        "lng": 141.904406
    },
    {
        "code": "A101322500027",
        "type": 16011,
        "name": "滝川白樺幼稚園",
        "address": "滝川市一の坂西1-1-5",
        "lat": 43.564939,
        "lng": 141.911441
    },
    {
        "code": "B101222500018",
        "type": 16001,
        "name": "滝川第一小学校",
        "address": "滝川市一の坂町西2-1-70",
        "lat": 43.565796,
        "lng": 141.910652
    },
    {
        "code": "B101222500027",
        "type": 16001,
        "name": "滝川第二小学校",
        "address": "滝川市滝の川町東1-1-45",
        "lat": 43.582767,
        "lng": 141.922678
    },
    {
        "code": "B101222500036",
        "type": 16001,
        "name": "滝川第三小学校",
        "address": "滝川市花月町2-2-12",
        "lat": 43.552742,
        "lng": 141.907487
    },
    {
        "code": "B101222500045",
        "type": 16001,
        "name": "西小学校",
        "address": "滝川市西町6-7-17",
        "lat": 43.567962,
        "lng": 141.896598
    },
    {
        "code": "B101222500054",
        "type": 16001,
        "name": "東小学校",
        "address": "滝川市文京町2-1-1",
        "lat": 43.566241,
        "lng": 141.925873
    },
    {
        "code": "B101222500063",
        "type": 16001,
        "name": "江部乙小学校",
        "address": "滝川市江部乙町東13-1426",
        "lat": 43.629514,
        "lng": 141.94734
    },
    {
        "code": "C101222500016",
        "type": 16002,
        "name": "江陵中学校",
        "address": "滝川市黄金町西1-7-18",
        "lat": 43.574156,
        "lng": 141.911485
    },
    {
        "code": "C101222500025",
        "type": 16002,
        "name": "明苑中学校",
        "address": "滝川市新町4-9-1",
        "lat": 43.552159,
        "lng": 141.919208
    },
    {
        "code": "C101222500034",
        "type": 16002,
        "name": "開西中学校",
        "address": "滝川市西町3-7-12",
        "lat": 43.56624,
        "lng": 141.900986
    },
    {
        "code": "C101222500043",
        "type": 16002,
        "name": "江部乙中学校",
        "address": "滝川市江部乙町1118-1",
        "lat": 43.620649,
        "lng": 141.952305
    },
    {
        "code": "D101222500014",
        "type": 16004,
        "name": "滝川高等学校",
        "address": "滝川市緑町4-5-77",
        "lat": 43.558492,
        "lng": 141.919735
    },
    {
        "code": "D101222500023",
        "type": 16004,
        "name": "滝川工業高等学校",
        "address": "滝川市二の坂町西1-1-5",
        "lat": 43.57924,
        "lng": 141.915151
    },
    {
        "code": "D101222500032",
        "type": 16004,
        "name": "滝川西高等学校",
        "address": "滝川市西町6-3-1",
        "lat": 43.563407,
        "lng": 141.895181
    },
    {
        "code": "F201310100523",
        "type": 16006,
        "name": "國學院大學北海道短期大学部",
        "address": "滝川市文京町3-1-1",
        "lat": 43.56838,
        "lng": 141.926762
    },
    {
        "code": "H101222500015",
        "type": 16016,
        "name": "滝川市立高等看護学院",
        "address": "滝川市新町2-8-10",
        "lat": 43.553031,
        "lng": 141.916644
    }
]