[
    {
        "code": "A112310003806",
        "type": 16011,
        "name": "ながと幼稚園",
        "address": "印旛郡栄町脇川116",
        "lat": 35.840791,
        "lng": 140.227827
    },
    {
        "code": "A112310003815",
        "type": 16011,
        "name": "酒直幼稚園",
        "address": "印旛郡栄町酒直台1-19-1",
        "lat": 35.832946,
        "lng": 140.259587
    },
    {
        "code": "B112210006466",
        "type": 16001,
        "name": "安食小学校",
        "address": "印旛郡栄町安食305",
        "lat": 35.8397,
        "lng": 140.238634
    },
    {
        "code": "B112210006475",
        "type": 16001,
        "name": "布鎌小学校",
        "address": "印旛郡栄町請方157-1",
        "lat": 35.849086,
        "lng": 140.196666
    },
    {
        "code": "B112210006484",
        "type": 16001,
        "name": "竜角寺台小学校",
        "address": "印旛郡栄町竜角寺台6-26-1",
        "lat": 35.833063,
        "lng": 140.281684
    },
    {
        "code": "B112210006493",
        "type": 16001,
        "name": "安食台小学校",
        "address": "印旛郡栄町安食台4-34-1",
        "lat": 35.845616,
        "lng": 140.246577
    },
    {
        "code": "C112210003145",
        "type": 16002,
        "name": "栄中学校",
        "address": "印旛郡栄町安食55",
        "lat": 35.846532,
        "lng": 140.237578
    },
    {
        "code": "E112210000438",
        "type": 16012,
        "name": "栄特別支援学校",
        "address": "印旛郡栄町龍角寺1112-2",
        "lat": 35.829033,
        "lng": 140.272661
    }
]