[
    {
        "code": "A101323300018",
        "type": 16011,
        "name": "伊達幼稚園",
        "address": "伊達市元町31",
        "lat": 42.468815,
        "lng": 140.867193
    },
    {
        "code": "A101323300027",
        "type": 16011,
        "name": "京王幼稚園",
        "address": "伊達市館山町15",
        "lat": 42.478314,
        "lng": 140.857439
    },
    {
        "code": "B101222300083",
        "type": 16001,
        "name": "星の丘小学校",
        "address": "伊達市松ヶ枝町240-5",
        "lat": 42.485861,
        "lng": 140.895024
    },
    {
        "code": "B101223300018",
        "type": 16001,
        "name": "伊達小学校",
        "address": "伊達市元町78-1",
        "lat": 42.468575,
        "lng": 140.871254
    },
    {
        "code": "B101223300027",
        "type": 16001,
        "name": "伊達西小学校",
        "address": "伊達市末永町8-21",
        "lat": 42.474998,
        "lng": 140.861189
    },
    {
        "code": "B101223300036",
        "type": 16001,
        "name": "有珠小学校",
        "address": "伊達市向有珠町195-2",
        "lat": 42.511433,
        "lng": 140.789454
    },
    {
        "code": "B101223300045",
        "type": 16001,
        "name": "長和小学校",
        "address": "伊達市長和町462-1",
        "lat": 42.48917,
        "lng": 140.839427
    },
    {
        "code": "B101223300054",
        "type": 16001,
        "name": "稀府小学校",
        "address": "伊達市中稀府町85",
        "lat": 42.435752,
        "lng": 140.902271
    },
    {
        "code": "B101223300063",
        "type": 16001,
        "name": "関内小学校",
        "address": "伊達市東関内町78-1",
        "lat": 42.500455,
        "lng": 140.885833
    },
    {
        "code": "B101223300072",
        "type": 16001,
        "name": "東小学校",
        "address": "伊達市弄月町207",
        "lat": 42.467305,
        "lng": 140.886382
    },
    {
        "code": "C101223300016",
        "type": 16002,
        "name": "伊達中学校",
        "address": "伊達市舟岡町226-12",
        "lat": 42.468666,
        "lng": 140.880105
    },
    {
        "code": "C101223300025",
        "type": 16002,
        "name": "光陵中学校",
        "address": "伊達市館山町49-1",
        "lat": 42.483191,
        "lng": 140.862521
    },
    {
        "code": "C101223300034",
        "type": 16002,
        "name": "星の丘中学校",
        "address": "伊達市松ヶ枝町240-5",
        "lat": 42.485745,
        "lng": 140.895034
    },
    {
        "code": "C201223300015",
        "type": 16014,
        "name": "大滝徳舜瞥学校",
        "address": "伊達市大滝区優徳町90-11",
        "lat": 42.644926,
        "lng": 141.048804
    },
    {
        "code": "D101223300023",
        "type": 16004,
        "name": "伊達緑丘高等学校",
        "address": "伊達市南稀府町180-4",
        "lat": 42.428392,
        "lng": 140.909187
    },
    {
        "code": "D101223300032",
        "type": 16004,
        "name": "伊達開来高等学校",
        "address": "伊達市竹原町44",
        "lat": 42.477455,
        "lng": 140.875606
    },
    {
        "code": "E101223300011",
        "type": 16012,
        "name": "伊達高等養護学校",
        "address": "伊達市伊達市松ヶ枝町105-13",
        "lat": 42.47136,
        "lng": 140.88827
    },
    {
        "code": "H101323300013",
        "type": 16016,
        "name": "伊達赤十字看護専門学校",
        "address": "伊達市末永町81-12",
        "lat": 42.476223,
        "lng": 140.8701
    },
    {
        "code": "H101323300022",
        "type": 16016,
        "name": "情報芸術学院",
        "address": "伊達市館山下町22-2",
        "lat": 42.477531,
        "lng": 140.845841
    }
]