[
    {
        "code": "A212210000301",
        "type": 16013,
        "name": "多古こども園",
        "address": "香取郡多古町多古2000-6",
        "lat": 35.733261,
        "lng": 140.462192
    },
    {
        "code": "B112210006652",
        "type": 16001,
        "name": "多古第一小学校",
        "address": "香取郡多古町多古2547",
        "lat": 35.734747,
        "lng": 140.464419
    },
    {
        "code": "B112210006661",
        "type": 16001,
        "name": "中村小学校",
        "address": "香取郡多古町南中349-2",
        "lat": 35.739942,
        "lng": 140.490416
    },
    {
        "code": "B112210006670",
        "type": 16001,
        "name": "久賀小学校",
        "address": "香取郡多古町大門205-6",
        "lat": 35.778958,
        "lng": 140.460316
    },
    {
        "code": "C112210003207",
        "type": 16002,
        "name": "多古中学校",
        "address": "香取郡多古町多古2920",
        "lat": 35.744163,
        "lng": 140.471363
    },
    {
        "code": "D112210001092",
        "type": 16004,
        "name": "多古高等学校",
        "address": "香取郡多古町多古3236",
        "lat": 35.741635,
        "lng": 140.466224
    },
    {
        "code": "D112310000581",
        "type": 16004,
        "name": "わせがく高等学校",
        "address": "香取郡多古町飯笹字向台252-2",
        "lat": 35.758973,
        "lng": 140.453338
    }
]