[
    {
        "code": "B112210007189",
        "type": 16001,
        "name": "西小学校",
        "address": "夷隅郡大多喜町松尾277",
        "lat": 35.2518,
        "lng": 140.216295
    },
    {
        "code": "B112210007198",
        "type": 16001,
        "name": "大多喜小学校",
        "address": "夷隅郡大多喜町大多喜12",
        "lat": 35.283935,
        "lng": 140.244069
    },
    {
        "code": "C112210003449",
        "type": 16002,
        "name": "大多喜中学校",
        "address": "夷隅郡大多喜町船子197",
        "lat": 35.287801,
        "lng": 140.248591
    },
    {
        "code": "C112310000253",
        "type": 16002,
        "name": "三育学院中学校",
        "address": "夷隅郡大多喜町中野589",
        "lat": 35.250339,
        "lng": 140.203918
    },
    {
        "code": "D112210001154",
        "type": 16004,
        "name": "大多喜高等学校",
        "address": "夷隅郡大多喜町大多喜481",
        "lat": 35.285768,
        "lng": 140.24068
    },
    {
        "code": "F112310102592",
        "type": 16007,
        "name": "三育学院大学",
        "address": "夷隅郡大多喜町久我原1500",
        "lat": 35.241462,
        "lng": 140.263263
    },
    {
        "code": "H112310000859",
        "type": 16016,
        "name": "三育学院カレッジ",
        "address": "夷隅郡大多喜町久我原1500",
        "lat": 35.241732,
        "lng": 140.263666
    }
]