[
    {
        "code": "A113210900017",
        "type": 16011,
        "name": "城南幼稚園",
        "address": "品川区南品川2-8-21",
        "lat": 35.612451,
        "lng": 139.743514
    },
    {
        "code": "A113210900026",
        "type": 16011,
        "name": "平塚幼稚園",
        "address": "品川区荏原4-5-22",
        "lat": 35.615424,
        "lng": 139.707424
    },
    {
        "code": "A113210900035",
        "type": 16011,
        "name": "浜川幼稚園",
        "address": "品川区南大井4-3-14",
        "lat": 35.597626,
        "lng": 139.736178
    },
    {
        "code": "A113210900044",
        "type": 16011,
        "name": "御殿山幼稚園",
        "address": "品川区北品川5-10-7",
        "lat": 35.622724,
        "lng": 139.731856
    },
    {
        "code": "A113210900053",
        "type": 16011,
        "name": "伊藤幼稚園",
        "address": "品川区西大井5-22-8",
        "lat": 35.598234,
        "lng": 139.716697
    },
    {
        "code": "A113210900062",
        "type": 16011,
        "name": "第一日野幼稚園",
        "address": "品川区西五反田6-6-6",
        "lat": 35.62248,
        "lng": 139.716749
    },
    {
        "code": "A113210900071",
        "type": 16011,
        "name": "台場幼稚園",
        "address": "品川区東品川1-8-30",
        "lat": 35.621319,
        "lng": 139.743214
    },
    {
        "code": "A113210900080",
        "type": 16011,
        "name": "二葉幼稚園",
        "address": "品川区二葉1-3-40",
        "lat": 35.606983,
        "lng": 139.725506
    },
    {
        "code": "A113210900099",
        "type": 16011,
        "name": "八潮わかば幼稚園",
        "address": "品川区八潮5-6-32",
        "lat": 35.596633,
        "lng": 139.750013
    },
    {
        "code": "A113310900015",
        "type": 16011,
        "name": "文教大学付属幼稚園",
        "address": "品川区旗の台3-2-17",
        "lat": 35.605854,
        "lng": 139.706881
    },
    {
        "code": "A113310900024",
        "type": 16011,
        "name": "帝京にしき幼稚園",
        "address": "品川区旗の台6-5-30",
        "lat": 35.608788,
        "lng": 139.700244
    },
    {
        "code": "A113310900033",
        "type": 16011,
        "name": "エトワール幼稚園",
        "address": "品川区南品川5-12-4",
        "lat": 35.608289,
        "lng": 139.740513
    },
    {
        "code": "A113310900042",
        "type": 16011,
        "name": "品川翔英幼稚園",
        "address": "品川区西大井1-6-13",
        "lat": 35.602526,
        "lng": 139.726286
    },
    {
        "code": "A113310900051",
        "type": 16011,
        "name": "日本音楽学校幼稚園",
        "address": "品川区豊町2-16-12",
        "lat": 35.610189,
        "lng": 139.724636
    },
    {
        "code": "A113310900060",
        "type": 16011,
        "name": "八潮幼稚園",
        "address": "品川区東品川3-24-8",
        "lat": 35.612395,
        "lng": 139.745729
    },
    {
        "code": "A113310900079",
        "type": 16011,
        "name": "あけぼの幼稚園",
        "address": "品川区大井5-10-12",
        "lat": 35.598268,
        "lng": 139.730081
    },
    {
        "code": "A113310900088",
        "type": 16011,
        "name": "アライアンス幼稚園",
        "address": "品川区小山4-4-13",
        "lat": 35.618401,
        "lng": 139.704101
    },
    {
        "code": "A113310900097",
        "type": 16011,
        "name": "専修幼稚園",
        "address": "品川区西五反田6-11-5",
        "lat": 35.620993,
        "lng": 139.717545
    },
    {
        "code": "A113310900104",
        "type": 16011,
        "name": "品川教会附属幼稚園",
        "address": "品川区北品川4-7-40",
        "lat": 35.622735,
        "lng": 139.737643
    },
    {
        "code": "A113310900122",
        "type": 16011,
        "name": "ひまわり幼稚園",
        "address": "品川区小山6-10-11",
        "lat": 35.613655,
        "lng": 139.69793
    },
    {
        "code": "A113310900131",
        "type": 16011,
        "name": "荏原学園旭幼稚園",
        "address": "品川区中延5-6-18",
        "lat": 35.602985,
        "lng": 139.708691
    },
    {
        "code": "A113310900140",
        "type": 16011,
        "name": "亀田幼稚園",
        "address": "品川区中延6-1-3",
        "lat": 35.603903,
        "lng": 139.710377
    },
    {
        "code": "A113310900159",
        "type": 16011,
        "name": "大井うさぎ幼稚園",
        "address": "品川区大井7-1-5",
        "lat": 35.597387,
        "lng": 139.725178
    },
    {
        "code": "A113310900168",
        "type": 16011,
        "name": "大崎幼稚園",
        "address": "品川区大崎3-11-1",
        "lat": 35.619309,
        "lng": 139.723696
    },
    {
        "code": "A113310900177",
        "type": 16011,
        "name": "洗足うさぎ幼稚園",
        "address": "品川区荏原7-18-15",
        "lat": 35.609947,
        "lng": 139.698694
    },
    {
        "code": "A113310900186",
        "type": 16011,
        "name": "鈴ヶ森めばえ幼稚園",
        "address": "品川区南大井2-4-1",
        "lat": 35.593227,
        "lng": 139.736869
    },
    {
        "code": "A113310900195",
        "type": 16011,
        "name": "戸越幼稚園",
        "address": "品川区戸越1-21-15",
        "lat": 35.615121,
        "lng": 139.721336
    },
    {
        "code": "B113210900015",
        "type": 16001,
        "name": "城南小学校",
        "address": "品川区南品川2-8-21",
        "lat": 35.613106,
        "lng": 139.742604
    },
    {
        "code": "B113210900024",
        "type": 16001,
        "name": "浅間台小学校",
        "address": "品川区南品川6-8-8",
        "lat": 35.61155,
        "lng": 139.736271
    },
    {
        "code": "B113210900033",
        "type": 16001,
        "name": "三木小学校",
        "address": "品川区西品川3-16-28",
        "lat": 35.615494,
        "lng": 139.726744
    },
    {
        "code": "B113210900042",
        "type": 16001,
        "name": "御殿山小学校",
        "address": "品川区北品川5-2-6",
        "lat": 35.623215,
        "lng": 139.73166
    },
    {
        "code": "B113210900051",
        "type": 16001,
        "name": "城南第二小学校",
        "address": "品川区東品川3-4-5",
        "lat": 35.61555,
        "lng": 139.745993
    },
    {
        "code": "B113210900060",
        "type": 16001,
        "name": "第一日野小学校",
        "address": "品川区西五反田6-5-32",
        "lat": 35.622168,
        "lng": 139.716039
    },
    {
        "code": "B113210900079",
        "type": 16001,
        "name": "芳水小学校",
        "address": "品川区大崎3-12-22",
        "lat": 35.61916,
        "lng": 139.724855
    },
    {
        "code": "B113210900088",
        "type": 16001,
        "name": "第三日野小学校",
        "address": "品川区上大崎1-19-19",
        "lat": 35.63288,
        "lng": 139.723661
    },
    {
        "code": "B113210900097",
        "type": 16001,
        "name": "第四日野小学校",
        "address": "品川区西五反田4-29-9",
        "lat": 35.625659,
        "lng": 139.712384
    },
    {
        "code": "B113210900104",
        "type": 16001,
        "name": "大井第一小学校",
        "address": "品川区大井6-1-32",
        "lat": 35.598524,
        "lng": 139.731522
    },
    {
        "code": "B113210900113",
        "type": 16001,
        "name": "鮫浜小学校",
        "address": "品川区東大井2-10-14",
        "lat": 35.601524,
        "lng": 139.740716
    },
    {
        "code": "B113210900122",
        "type": 16001,
        "name": "山中小学校",
        "address": "品川区大井3-7-19",
        "lat": 35.60294,
        "lng": 139.729994
    },
    {
        "code": "B113210900131",
        "type": 16001,
        "name": "立会小学校",
        "address": "品川区東大井4-15-9",
        "lat": 35.604523,
        "lng": 139.740188
    },
    {
        "code": "B113210900140",
        "type": 16001,
        "name": "浜川小学校",
        "address": "品川区南大井4-3-27",
        "lat": 35.598246,
        "lng": 139.735883
    },
    {
        "code": "B113210900159",
        "type": 16001,
        "name": "伊藤小学校",
        "address": "品川区西大井5-6-8",
        "lat": 35.598662,
        "lng": 139.717329
    },
    {
        "code": "B113210900168",
        "type": 16001,
        "name": "鈴ケ森小学校",
        "address": "品川区南大井4-16-2",
        "lat": 35.594385,
        "lng": 139.735328
    },
    {
        "code": "B113210900177",
        "type": 16001,
        "name": "台場小学校",
        "address": "品川区東品川1-8-30",
        "lat": 35.62116,
        "lng": 139.743687
    },
    {
        "code": "B113210900186",
        "type": 16001,
        "name": "京陽小学校",
        "address": "品川区平塚2-19-20",
        "lat": 35.615132,
        "lng": 139.713134
    },
    {
        "code": "B113210900195",
        "type": 16001,
        "name": "延山小学校",
        "address": "品川区西中延2-17-5",
        "lat": 35.608689,
        "lng": 139.707802
    },
    {
        "code": "B113210900202",
        "type": 16001,
        "name": "中延小学校",
        "address": "品川区中延1-11-15",
        "lat": 35.612494,
        "lng": 139.709607
    },
    {
        "code": "B113210900211",
        "type": 16001,
        "name": "小山小学校",
        "address": "品川区小山5-10-6",
        "lat": 35.616021,
        "lng": 139.703163
    },
    {
        "code": "B113210900220",
        "type": 16001,
        "name": "大原小学校",
        "address": "品川区戸越6-17-3",
        "lat": 35.607272,
        "lng": 139.716245
    },
    {
        "code": "B113210900239",
        "type": 16001,
        "name": "宮前小学校",
        "address": "品川区戸越4-5-10",
        "lat": 35.611827,
        "lng": 139.718356
    },
    {
        "code": "B113210900248",
        "type": 16001,
        "name": "源氏前小学校",
        "address": "品川区中延6-2-18",
        "lat": 35.603467,
        "lng": 139.711885
    },
    {
        "code": "B113210900257",
        "type": 16001,
        "name": "第二延山小学校",
        "address": "品川区旗の台1-6-1",
        "lat": 35.609827,
        "lng": 139.703413
    },
    {
        "code": "B113210900266",
        "type": 16001,
        "name": "後地小学校",
        "address": "品川区小山2-4-6",
        "lat": 35.621604,
        "lng": 139.708579
    },
    {
        "code": "B113210900275",
        "type": 16001,
        "name": "戸越小学校",
        "address": "品川区豊町2-1-20",
        "lat": 35.611077,
        "lng": 139.721522
    },
    {
        "code": "B113210900284",
        "type": 16001,
        "name": "旗台小学校",
        "address": "品川区旗の台4-7-11",
        "lat": 35.603272,
        "lng": 139.704358
    },
    {
        "code": "B113210900293",
        "type": 16001,
        "name": "上神明小学校",
        "address": "品川区二葉4-4-10",
        "lat": 35.603245,
        "lng": 139.71544
    },
    {
        "code": "B113210900300",
        "type": 16001,
        "name": "清水台小学校",
        "address": "品川区旗の台1-11-17",
        "lat": 35.607411,
        "lng": 139.702219
    },
    {
        "code": "B113210900319",
        "type": 16001,
        "name": "小山台小学校",
        "address": "品川区小山台1-18-24",
        "lat": 35.622798,
        "lng": 139.703329
    },
    {
        "code": "B113310900013",
        "type": 16001,
        "name": "品川翔英小学校",
        "address": "品川区西大井1-6-13",
        "lat": 35.602495,
        "lng": 139.726245
    },
    {
        "code": "C113210900013",
        "type": 16002,
        "name": "東海中学校",
        "address": "品川区東品川3-30-15",
        "lat": 35.61262,
        "lng": 139.74897
    },
    {
        "code": "C113210900022",
        "type": 16002,
        "name": "大崎中学校",
        "address": "品川区西品川3-10-6",
        "lat": 35.615835,
        "lng": 139.723011
    },
    {
        "code": "C113210900031",
        "type": 16002,
        "name": "浜川中学校",
        "address": "品川区東大井3-18-34",
        "lat": 35.600199,
        "lng": 139.737944
    },
    {
        "code": "C113210900040",
        "type": 16002,
        "name": "鈴ケ森中学校",
        "address": "品川区南大井2-3-14",
        "lat": 35.593097,
        "lng": 139.73773
    },
    {
        "code": "C113210900059",
        "type": 16002,
        "name": "冨士見台中学校",
        "address": "品川区西大井5-5-14",
        "lat": 35.598554,
        "lng": 139.715262
    },
    {
        "code": "C113210900068",
        "type": 16002,
        "name": "荏原第一中学校",
        "address": "品川区荏原1-24-30",
        "lat": 35.619446,
        "lng": 139.712868
    },
    {
        "code": "C113210900077",
        "type": 16002,
        "name": "荏原第五中学校",
        "address": "品川区旗の台5-11-13",
        "lat": 35.603156,
        "lng": 139.702102
    },
    {
        "code": "C113210900086",
        "type": 16002,
        "name": "荏原第六中学校",
        "address": "品川区小山5-20-19",
        "lat": 35.616363,
        "lng": 139.699877
    },
    {
        "code": "C113210900095",
        "type": 16002,
        "name": "戸越台中学校",
        "address": "品川区戸越1-15-23",
        "lat": 35.615777,
        "lng": 139.717226
    },
    {
        "code": "C113310900011",
        "type": 16002,
        "name": "品川翔英中学校",
        "address": "品川区西大井1-6-13",
        "lat": 35.602246,
        "lng": 139.72613
    },
    {
        "code": "C113310900020",
        "type": 16002,
        "name": "攻玉社中学校",
        "address": "品川区西五反田5-14-2",
        "lat": 35.624442,
        "lng": 139.713183
    },
    {
        "code": "C113310900039",
        "type": 16002,
        "name": "香蘭女学校中等科",
        "address": "品川区旗の台6-22-21",
        "lat": 35.607755,
        "lng": 139.701513
    },
    {
        "code": "C113310900048",
        "type": 16002,
        "name": "品川女子学院中等部",
        "address": "品川区北品川3-3-12",
        "lat": 35.621073,
        "lng": 139.73915
    },
    {
        "code": "C113310900057",
        "type": 16002,
        "name": "青稜中学校",
        "address": "品川区二葉1-6-6",
        "lat": 35.608805,
        "lng": 139.727838
    },
    {
        "code": "C113310900066",
        "type": 16002,
        "name": "文教大学付属中学校",
        "address": "品川区旗の台3-2-17",
        "lat": 35.605425,
        "lng": 139.706242
    },
    {
        "code": "C213210900012",
        "type": 16014,
        "name": "日野学園",
        "address": "品川区東五反田2-11-1",
        "lat": 35.624534,
        "lng": 139.728175
    },
    {
        "code": "C213210900021",
        "type": 16014,
        "name": "伊藤学園",
        "address": "品川区大井5-1-37",
        "lat": 35.60006,
        "lng": 139.72597
    },
    {
        "code": "C213210900030",
        "type": 16014,
        "name": "八潮学園",
        "address": "品川区八潮5-11-2",
        "lat": 35.601392,
        "lng": 139.752536
    },
    {
        "code": "C213210900049",
        "type": 16014,
        "name": "荏原平塚学園",
        "address": "品川区平塚3-16-26",
        "lat": 35.6156,
        "lng": 139.709997
    },
    {
        "code": "C213210900058",
        "type": 16014,
        "name": "品川学園",
        "address": "品川区北品川3-9-30",
        "lat": 35.617883,
        "lng": 139.737854
    },
    {
        "code": "C213210900067",
        "type": 16014,
        "name": "豊葉の杜学園",
        "address": "品川区二葉1-3-40",
        "lat": 35.607276,
        "lng": 139.725529
    },
    {
        "code": "D113299901040",
        "type": 16004,
        "name": "大崎高等学校",
        "address": "品川区豊町2-1-7",
        "lat": 35.609716,
        "lng": 139.720578
    },
    {
        "code": "D113299901059",
        "type": 16004,
        "name": "八潮高等学校",
        "address": "品川区東品川3-27-22",
        "lat": 35.611884,
        "lng": 139.746993
    },
    {
        "code": "D113299901068",
        "type": 16004,
        "name": "小山台高等学校",
        "address": "品川区小山3-3-32",
        "lat": 35.621187,
        "lng": 139.703579
    },
    {
        "code": "D113310900019",
        "type": 16004,
        "name": "品川翔英高等学校",
        "address": "品川区西大井1-6-13",
        "lat": 35.602495,
        "lng": 139.726245
    },
    {
        "code": "D113310900028",
        "type": 16004,
        "name": "攻玉社高等学校",
        "address": "品川区西五反田5-14-2",
        "lat": 35.62452,
        "lng": 139.713662
    },
    {
        "code": "D113310900037",
        "type": 16004,
        "name": "品川女子学院高等部",
        "address": "品川区北品川3-3-12",
        "lat": 35.620827,
        "lng": 139.739326
    },
    {
        "code": "D113310900046",
        "type": 16004,
        "name": "青稜高等学校",
        "address": "品川区二葉1-6-6",
        "lat": 35.608772,
        "lng": 139.727744
    },
    {
        "code": "D113310900055",
        "type": 16004,
        "name": "香蘭女学校高等科",
        "address": "品川区旗の台6-22-21",
        "lat": 35.607744,
        "lng": 139.70133
    },
    {
        "code": "D113310900064",
        "type": 16004,
        "name": "朋優学院高等学校",
        "address": "品川区西大井6-1-23",
        "lat": 35.600551,
        "lng": 139.714468
    },
    {
        "code": "D113310900073",
        "type": 16004,
        "name": "日本音楽高等学校",
        "address": "品川区豊町2-16-12",
        "lat": 35.610133,
        "lng": 139.724994
    },
    {
        "code": "D113310900082",
        "type": 16004,
        "name": "品川エトワール女子高等学校",
        "address": "品川区南品川5-12-4",
        "lat": 35.608884,
        "lng": 139.740743
    },
    {
        "code": "D113310900091",
        "type": 16004,
        "name": "文教大学付属高等学校",
        "address": "品川区旗の台3-2-17",
        "lat": 35.605606,
        "lng": 139.706496
    },
    {
        "code": "E113299940291",
        "type": 16012,
        "name": "品川特別支援学校",
        "address": "品川区南品川6-15-20",
        "lat": 35.609756,
        "lng": 139.738126
    },
    {
        "code": "E113310900016",
        "type": 16012,
        "name": "明晴学園",
        "address": "品川区八潮5-2-1",
        "lat": 35.603882,
        "lng": 139.753095
    },
    {
        "code": "F113210102833",
        "type": 16007,
        "name": "東京都立産業技術大学院大学",
        "address": "品川区東大井1-10-40",
        "lat": 35.606652,
        "lng": 139.748913
    },
    {
        "code": "F113310102868",
        "type": 16007,
        "name": "文教大学",
        "address": "品川区旗の台3-2-17",
        "lat": 35.605392,
        "lng": 139.706435
    },
    {
        "code": "F113310103073",
        "type": 16007,
        "name": "昭和大学",
        "address": "品川区旗の台1-5-8",
        "lat": 35.607772,
        "lng": 139.70358
    },
    {
        "code": "F113310103117",
        "type": 16007,
        "name": "杉野服飾大学",
        "address": "品川区上大崎4-6-19",
        "lat": 35.631622,
        "lng": 139.715856
    },
    {
        "code": "F113310103144",
        "type": 16007,
        "name": "清泉女子大学",
        "address": "品川区東五反田3-16-21",
        "lat": 35.627159,
        "lng": 139.728438
    },
    {
        "code": "F113310103493",
        "type": 16007,
        "name": "星薬科大学",
        "address": "品川区荏原2-4-41",
        "lat": 35.619354,
        "lng": 139.711329
    },
    {
        "code": "F113310103572",
        "type": 16007,
        "name": "立正大学",
        "address": "品川区大崎4-2-16",
        "lat": 35.62091,
        "lng": 139.7233
    },
    {
        "code": "F113310104009",
        "type": 16007,
        "name": "東京医療保健大学",
        "address": "品川区東五反田4-1-17",
        "lat": 35.63115,
        "lng": 139.726606
    },
    {
        "code": "F213310104302",
        "type": 16006,
        "name": "杉野服飾大学短期大学部",
        "address": "品川区上大崎4-6-19",
        "lat": 35.63002,
        "lng": 139.715606
    },
    {
        "code": "G113210104571",
        "type": 16005,
        "name": "産業技術高等専門学校",
        "address": "品川区東大井1-10-40",
        "lat": 35.60694,
        "lng": 139.749071
    },
    {
        "code": "H113310900010",
        "type": 16016,
        "name": "東京マックス美容専門学校",
        "address": "品川区大井1-48-11",
        "lat": 35.605356,
        "lng": 139.732972
    },
    {
        "code": "H113310900029",
        "type": 16016,
        "name": "ドレスメーカー学院",
        "address": "品川区上大崎4-6-19",
        "lat": 35.631622,
        "lng": 139.715856
    },
    {
        "code": "H113310900038",
        "type": 16016,
        "name": "宮川文化服装専門学校",
        "address": "品川区大崎4-5-20",
        "lat": 35.620125,
        "lng": 139.722483
    },
    {
        "code": "H113310900047",
        "type": 16016,
        "name": "日本書道専門学校",
        "address": "品川区上大崎2-19-6",
        "lat": 35.637041,
        "lng": 139.714539
    },
    {
        "code": "H113310900056",
        "type": 16016,
        "name": "昭和大学医学部附属看護専門学校",
        "address": "品川区旗の台1-2-26",
        "lat": 35.610013,
        "lng": 139.704227
    },
    {
        "code": "H113310900065",
        "type": 16016,
        "name": "池見東京医療専門学校",
        "address": "品川区東大井3-5-6",
        "lat": 35.603262,
        "lng": 139.739166
    },
    {
        "code": "H113310900083",
        "type": 16016,
        "name": "東京健康科学専門学校",
        "address": "品川区南品川6-10-5",
        "lat": 35.609759,
        "lng": 139.736208
    },
    {
        "code": "H113310900092",
        "type": 16016,
        "name": "東京工科自動車大学校品川校",
        "address": "品川区南品川3-7-12",
        "lat": 35.606895,
        "lng": 139.744832
    },
    {
        "code": "H113310900109",
        "type": 16016,
        "name": "品川介護福祉専門学校",
        "address": "品川区西品川1-28-3",
        "lat": 35.609292,
        "lng": 139.727733
    },
    {
        "code": "H213310900019",
        "type": 16015,
        "name": "日本高等洋裁学院",
        "address": "品川区西大井1-6-13",
        "lat": 35.602619,
        "lng": 139.7266
    }
]