[
    {
        "code": "A113210600010",
        "type": 16011,
        "name": "根岸幼稚園",
        "address": "台東区根岸3-9-7",
        "lat": 35.723517,
        "lng": 139.778767
    },
    {
        "code": "A113210600029",
        "type": 16011,
        "name": "竹町幼稚園",
        "address": "台東区台東4-21-9",
        "lat": 35.706081,
        "lng": 139.780143
    },
    {
        "code": "A113210600038",
        "type": 16011,
        "name": "大正幼稚園",
        "address": "台東区入谷2-23-8",
        "lat": 35.720918,
        "lng": 139.78851
    },
    {
        "code": "A113210600047",
        "type": 16011,
        "name": "清島幼稚園",
        "address": "台東区東上野6-16-8",
        "lat": 35.71337,
        "lng": 139.783891
    },
    {
        "code": "A113210600056",
        "type": 16011,
        "name": "富士幼稚園",
        "address": "台東区浅草4-48-18",
        "lat": 35.718881,
        "lng": 139.798321
    },
    {
        "code": "A113210600065",
        "type": 16011,
        "name": "千束幼稚園",
        "address": "台東区浅草4-24-15",
        "lat": 35.719466,
        "lng": 139.794022
    },
    {
        "code": "A113210600074",
        "type": 16011,
        "name": "金竜幼稚園",
        "address": "台東区千束1-9-21",
        "lat": 35.718677,
        "lng": 139.790606
    },
    {
        "code": "A113210600083",
        "type": 16011,
        "name": "田原幼稚園",
        "address": "台東区雷門1-5-17",
        "lat": 35.710112,
        "lng": 139.793121
    },
    {
        "code": "A113210600092",
        "type": 16011,
        "name": "台桜幼稚園",
        "address": "台東区谷中2-9-4",
        "lat": 35.72394,
        "lng": 139.765518
    },
    {
        "code": "A113210600109",
        "type": 16011,
        "name": "育英幼稚園",
        "address": "台東区浅草橋2-26-5",
        "lat": 35.699803,
        "lng": 139.785546
    },
    {
        "code": "A113310600018",
        "type": 16011,
        "name": "蔵前幼稚園",
        "address": "台東区蔵前2-11-10",
        "lat": 35.703516,
        "lng": 139.792889
    },
    {
        "code": "A113310600027",
        "type": 16011,
        "name": "徳風幼稚園",
        "address": "台東区西浅草1-5-5",
        "lat": 35.710973,
        "lng": 139.789799
    },
    {
        "code": "A113310600036",
        "type": 16011,
        "name": "仰願寺幼稚園",
        "address": "台東区清川1-4-3",
        "lat": 35.723198,
        "lng": 139.802543
    },
    {
        "code": "A113310600045",
        "type": 16011,
        "name": "台東初音幼稚園",
        "address": "台東区谷中5-2-4",
        "lat": 35.723731,
        "lng": 139.768449
    },
    {
        "code": "A113310600054",
        "type": 16011,
        "name": "慈愛幼稚園",
        "address": "台東区下谷2-18-2",
        "lat": 35.722567,
        "lng": 139.784017
    },
    {
        "code": "A113310600063",
        "type": 16011,
        "name": "浅草寺幼稚園",
        "address": "台東区浅草2-3-1",
        "lat": 35.713395,
        "lng": 139.795907
    },
    {
        "code": "A113310600072",
        "type": 16011,
        "name": "同善幼稚園",
        "address": "台東区三ﾉ輪2-12-12",
        "lat": 35.730004,
        "lng": 139.79306
    },
    {
        "code": "A113310600081",
        "type": 16011,
        "name": "寛永寺幼稚園",
        "address": "台東区上野桜木1-14-11",
        "lat": 35.721817,
        "lng": 139.773684
    },
    {
        "code": "A113310600090",
        "type": 16011,
        "name": "谷中幼稚園",
        "address": "台東区谷中3-17-1",
        "lat": 35.729741,
        "lng": 139.764893
    },
    {
        "code": "A213210600019",
        "type": 16013,
        "name": "石浜橋場こども園",
        "address": "台東区橋場1-35-1",
        "lat": 35.725477,
        "lng": 139.807115
    },
    {
        "code": "B113210600018",
        "type": 16001,
        "name": "根岸小学校",
        "address": "台東区根岸3-9-8",
        "lat": 35.723678,
        "lng": 139.778875
    },
    {
        "code": "B113210600027",
        "type": 16001,
        "name": "東泉小学校",
        "address": "台東区三ﾉ輪1-23-9",
        "lat": 35.728427,
        "lng": 139.792096
    },
    {
        "code": "B113210600036",
        "type": 16001,
        "name": "忍岡小学校",
        "address": "台東区池之端2-1-22",
        "lat": 35.713954,
        "lng": 139.766834
    },
    {
        "code": "B113210600045",
        "type": 16001,
        "name": "谷中小学校",
        "address": "台東区谷中2-9-16",
        "lat": 35.723705,
        "lng": 139.765182
    },
    {
        "code": "B113210600054",
        "type": 16001,
        "name": "金曾木小学校",
        "address": "台東区根岸4-16-22",
        "lat": 35.725928,
        "lng": 139.785236
    },
    {
        "code": "B113210600063",
        "type": 16001,
        "name": "黒門小学校",
        "address": "台東区上野1-16-20",
        "lat": 35.706957,
        "lng": 139.770987
    },
    {
        "code": "B113210600072",
        "type": 16001,
        "name": "大正小学校",
        "address": "台東区入谷2-23-8",
        "lat": 35.720928,
        "lng": 139.788125
    },
    {
        "code": "B113210600081",
        "type": 16001,
        "name": "浅草小学校",
        "address": "台東区花川戸1-14-15",
        "lat": 35.713568,
        "lng": 139.799096
    },
    {
        "code": "B113210600090",
        "type": 16001,
        "name": "富士小学校",
        "address": "台東区浅草4-48-9",
        "lat": 35.718651,
        "lng": 139.798374
    },
    {
        "code": "B113210600107",
        "type": 16001,
        "name": "松葉小学校",
        "address": "台東区松が谷1-13-16",
        "lat": 35.712429,
        "lng": 139.786459
    },
    {
        "code": "B113210600116",
        "type": 16001,
        "name": "千束小学校",
        "address": "台東区浅草4-24-11",
        "lat": 35.719428,
        "lng": 139.794318
    },
    {
        "code": "B113210600125",
        "type": 16001,
        "name": "石浜小学校",
        "address": "台東区清川1-14-21",
        "lat": 35.724595,
        "lng": 139.803374
    },
    {
        "code": "B113210600134",
        "type": 16001,
        "name": "田原小学校",
        "address": "台東区雷門1-5-14",
        "lat": 35.710013,
        "lng": 139.792458
    },
    {
        "code": "B113210600143",
        "type": 16001,
        "name": "金竜小学校",
        "address": "台東区千束1-9-9",
        "lat": 35.718623,
        "lng": 139.790291
    },
    {
        "code": "B113210600152",
        "type": 16001,
        "name": "上野小学校",
        "address": "台東区東上野6-16-8",
        "lat": 35.713568,
        "lng": 139.783875
    },
    {
        "code": "B113210600161",
        "type": 16001,
        "name": "平成小学校",
        "address": "台東区台東4-21-15",
        "lat": 35.706124,
        "lng": 139.780154
    },
    {
        "code": "B113210600170",
        "type": 16001,
        "name": "台東育英小学校",
        "address": "台東区浅草橋2-26-8",
        "lat": 35.700097,
        "lng": 139.785515
    },
    {
        "code": "B113210600189",
        "type": 16001,
        "name": "東浅草小学校",
        "address": "台東区東浅草2-27-19",
        "lat": 35.724345,
        "lng": 139.798457
    },
    {
        "code": "B113210600198",
        "type": 16001,
        "name": "蔵前小学校",
        "address": "台東区蔵前4-19-11",
        "lat": 35.70443,
        "lng": 139.789292
    },
    {
        "code": "C113210600016",
        "type": 16002,
        "name": "上野中学校",
        "address": "台東区上野桜木1-14-55",
        "lat": 35.721345,
        "lng": 139.774903
    },
    {
        "code": "C113210600025",
        "type": 16002,
        "name": "忍岡中学校",
        "address": "台東区上野公園18-20",
        "lat": 35.719317,
        "lng": 139.778986
    },
    {
        "code": "C113210600034",
        "type": 16002,
        "name": "駒形中学校",
        "address": "台東区北上野2-15-1",
        "lat": 35.717512,
        "lng": 139.784264
    },
    {
        "code": "C113210600043",
        "type": 16002,
        "name": "浅草中学校",
        "address": "台東区蔵前1-3-4",
        "lat": 35.69993,
        "lng": 139.789932
    },
    {
        "code": "C113210600052",
        "type": 16002,
        "name": "御徒町台東中学校",
        "address": "台東区台東4-13-16",
        "lat": 35.706957,
        "lng": 139.777515
    },
    {
        "code": "C113210600061",
        "type": 16002,
        "name": "柏葉中学校",
        "address": "台東区下谷3-1-29",
        "lat": 35.723595,
        "lng": 139.785903
    },
    {
        "code": "C113210600070",
        "type": 16002,
        "name": "桜橋中学校",
        "address": "台東区今戸2-1-8",
        "lat": 35.720791,
        "lng": 139.806846
    },
    {
        "code": "C113299900016",
        "type": 16002,
        "name": "白鴎高等学校附属中学校",
        "address": "台東区元浅草3-12-12",
        "lat": 35.70718,
        "lng": 139.787375
    },
    {
        "code": "C113310600014",
        "type": 16002,
        "name": "上野学園中学校",
        "address": "台東区東上野4-24-12",
        "lat": 35.715077,
        "lng": 139.781935
    },
    {
        "code": "D113110000058",
        "type": 16004,
        "name": "東京芸術大学音楽学部附属音楽高等学校",
        "address": "台東区上野公園12-8",
        "lat": 35.71977,
        "lng": 139.772595
    },
    {
        "code": "D113299905019",
        "type": 16004,
        "name": "白鴎高等学校",
        "address": "台東区元浅草1-6-22",
        "lat": 35.708179,
        "lng": 139.783042
    },
    {
        "code": "D113299905028",
        "type": 16004,
        "name": "忍岡高等学校",
        "address": "台東区浅草橋5-1-24",
        "lat": 35.700084,
        "lng": 139.78267
    },
    {
        "code": "D113299905037",
        "type": 16004,
        "name": "上野高等学校",
        "address": "台東区上野公園10-14",
        "lat": 35.71865,
        "lng": 139.769904
    },
    {
        "code": "D113299905135",
        "type": 16004,
        "name": "浅草高等学校",
        "address": "台東区今戸1-8-13",
        "lat": 35.719596,
        "lng": 139.802485
    },
    {
        "code": "D113299905153",
        "type": 16004,
        "name": "蔵前工業高等学校",
        "address": "台東区蔵前1-3-57",
        "lat": 35.700375,
        "lng": 139.791793
    },
    {
        "code": "D113310600012",
        "type": 16004,
        "name": "岩倉高等学校",
        "address": "台東区上野7-8-8",
        "lat": 35.714476,
        "lng": 139.77904
    },
    {
        "code": "D113310600021",
        "type": 16004,
        "name": "上野学園高等学校",
        "address": "台東区東上野4-24-12",
        "lat": 35.715074,
        "lng": 139.781974
    },
    {
        "code": "F113110102737",
        "type": 16007,
        "name": "東京芸術大学",
        "address": "台東区上野公園12-8",
        "lat": 35.720178,
        "lng": 139.772265
    },
    {
        "code": "F113310102939",
        "type": 16007,
        "name": "上野学園大学",
        "address": "台東区東上野4-24-12",
        "lat": 35.715647,
        "lng": 139.782018
    },
    {
        "code": "F213310104204",
        "type": 16006,
        "name": "上野学園大学短期大学部",
        "address": "台東区東上野4-24-12",
        "lat": 35.715068,
        "lng": 139.781959
    },
    {
        "code": "H113310600013",
        "type": 16016,
        "name": "下谷医師会立看護高等専修学校",
        "address": "台東区東上野3-38-1",
        "lat": 35.711505,
        "lng": 139.778851
    },
    {
        "code": "H113310600022",
        "type": 16016,
        "name": "華服飾専門学校",
        "address": "台東区根岸1-1-12",
        "lat": 35.720339,
        "lng": 139.779992
    },
    {
        "code": "H113310600031",
        "type": 16016,
        "name": "華調理製菓専門学校",
        "address": "台東区根岸1-1-12",
        "lat": 35.720232,
        "lng": 139.780083
    },
    {
        "code": "H113310600040",
        "type": 16016,
        "name": "日本健康医療専門学校",
        "address": "台東区浅草橋3-31-5",
        "lat": 35.701509,
        "lng": 139.785805
    },
    {
        "code": "H113310600059",
        "type": 16016,
        "name": "東京国際ビジネスカレッジ",
        "address": "台東区柳橋2-7-5",
        "lat": 35.699109,
        "lng": 139.787767
    },
    {
        "code": "H113310600068",
        "type": 16016,
        "name": "華学園栄養専門学校",
        "address": "台東区根岸1-1-12",
        "lat": 35.720277,
        "lng": 139.78004
    },
    {
        "code": "H113310600077",
        "type": 16016,
        "name": "国際デュアルビジネス専門学校",
        "address": "台東区柳橋2-20-14",
        "lat": 35.69903,
        "lng": 139.789996
    },
    {
        "code": "H113310600086",
        "type": 16016,
        "name": "上野法律専門学校",
        "address": "台東区北上野2-3-5",
        "lat": 35.71582,
        "lng": 139.784128
    },
    {
        "code": "H213310600012",
        "type": 16015,
        "name": "東京舞踊学校",
        "address": "台東区上野5-8-12",
        "lat": 35.703916,
        "lng": 139.774812
    },
    {
        "code": "H213310600021",
        "type": 16015,
        "name": "日本珠算学校",
        "address": "台東区清川1-15-11",
        "lat": 35.725039,
        "lng": 139.802797
    },
    {
        "code": "H213310600030",
        "type": 16015,
        "name": "吉澤珠算学校",
        "address": "台東区日本堤2-11-12",
        "lat": 35.726793,
        "lng": 139.796718
    }
]