[
    {
        "code": "A113210800018",
        "type": 16011,
        "name": "ちどり幼稚園",
        "address": "江東区古石場1-11-11",
        "lat": 35.669138,
        "lng": 139.795027
    },
    {
        "code": "A113210800027",
        "type": 16011,
        "name": "平久幼稚園",
        "address": "江東区木場1-2-2",
        "lat": 35.668147,
        "lng": 139.802735
    },
    {
        "code": "A113210800036",
        "type": 16011,
        "name": "川南幼稚園",
        "address": "江東区千石2-9-12",
        "lat": 35.679522,
        "lng": 139.81644
    },
    {
        "code": "A113210800045",
        "type": 16011,
        "name": "元加賀幼稚園",
        "address": "江東区白河4-9-17",
        "lat": 35.683281,
        "lng": 139.807629
    },
    {
        "code": "A113210800054",
        "type": 16011,
        "name": "豊洲幼稚園",
        "address": "江東区豊洲4-4-4",
        "lat": 35.653977,
        "lng": 139.798931
    },
    {
        "code": "A113210800063",
        "type": 16011,
        "name": "辰巳幼稚園",
        "address": "江東区辰巳1-11-1",
        "lat": 35.646275,
        "lng": 139.810658
    },
    {
        "code": "A113210800072",
        "type": 16011,
        "name": "第一亀戸幼稚園",
        "address": "江東区亀戸2-5-7",
        "lat": 35.699098,
        "lng": 139.822121
    },
    {
        "code": "A113210800081",
        "type": 16011,
        "name": "第二亀戸幼稚園",
        "address": "江東区亀戸6-36-1",
        "lat": 35.695227,
        "lng": 139.829857
    },
    {
        "code": "A113210800090",
        "type": 16011,
        "name": "第三大島幼稚園",
        "address": "江東区大島7-39-2-101",
        "lat": 35.691307,
        "lng": 139.843834
    },
    {
        "code": "A113210800107",
        "type": 16011,
        "name": "第五砂町幼稚園",
        "address": "江東区東砂7-5-27",
        "lat": 35.671451,
        "lng": 139.838766
    },
    {
        "code": "A113210800116",
        "type": 16011,
        "name": "東砂幼稚園",
        "address": "江東区東砂4-20-1",
        "lat": 35.678339,
        "lng": 139.839213
    },
    {
        "code": "A113210800125",
        "type": 16011,
        "name": "小名木川幼稚園",
        "address": "江東区北砂5-22-10",
        "lat": 35.68191,
        "lng": 139.830846
    },
    {
        "code": "A113210800134",
        "type": 16011,
        "name": "南陽幼稚園",
        "address": "江東区東陽2-1-14",
        "lat": 35.667429,
        "lng": 139.813777
    },
    {
        "code": "A113210800143",
        "type": 16011,
        "name": "大島幼稚園",
        "address": "江東区大島5-38-1",
        "lat": 35.687183,
        "lng": 139.835941
    },
    {
        "code": "A113210800152",
        "type": 16011,
        "name": "なでしこ幼稚園",
        "address": "江東区北砂5-20-7-102",
        "lat": 35.683766,
        "lng": 139.83411
    },
    {
        "code": "A113210800161",
        "type": 16011,
        "name": "枝川幼稚園",
        "address": "江東区枝川3-4-1-101",
        "lat": 35.659472,
        "lng": 139.808647
    },
    {
        "code": "A113210800170",
        "type": 16011,
        "name": "ひばり幼稚園",
        "address": "江東区東雲2-4-1-103",
        "lat": 35.642441,
        "lng": 139.798131
    },
    {
        "code": "A113210800189",
        "type": 16011,
        "name": "もみじ幼稚園",
        "address": "江東区大島8-21-9-101",
        "lat": 35.688982,
        "lng": 139.839713
    },
    {
        "code": "A113210800198",
        "type": 16011,
        "name": "つばめ幼稚園",
        "address": "江東区扇橋3-20-13-101",
        "lat": 35.684519,
        "lng": 139.819291
    },
    {
        "code": "A113210800205",
        "type": 16011,
        "name": "みどり幼稚園",
        "address": "江東区南砂2-3-3-101",
        "lat": 35.672667,
        "lng": 139.822894
    },
    {
        "code": "A113310800016",
        "type": 16011,
        "name": "双葉幼稚園",
        "address": "江東区深川2-16-7",
        "lat": 35.676007,
        "lng": 139.797213
    },
    {
        "code": "A113310800025",
        "type": 16011,
        "name": "神明幼稚園",
        "address": "江東区森下1-3-17",
        "lat": 35.686256,
        "lng": 139.797173
    },
    {
        "code": "A113310800034",
        "type": 16011,
        "name": "れいがん寺幼稚園",
        "address": "江東区白河1-3-32",
        "lat": 35.681155,
        "lng": 139.800198
    },
    {
        "code": "A113310800043",
        "type": 16011,
        "name": "月かげ幼稚園",
        "address": "江東区平野1-6-11",
        "lat": 35.678497,
        "lng": 139.799324
    },
    {
        "code": "A113310800052",
        "type": 16011,
        "name": "亀戸幼稚園",
        "address": "江東区亀戸4-17-3",
        "lat": 35.701047,
        "lng": 139.826442
    },
    {
        "code": "A113310800061",
        "type": 16011,
        "name": "若草幼稚園",
        "address": "江東区大島2-22-3",
        "lat": 35.690427,
        "lng": 139.824345
    },
    {
        "code": "A113310800070",
        "type": 16011,
        "name": "まなべ幼稚園",
        "address": "江東区住吉2-14-6",
        "lat": 35.690279,
        "lng": 139.81398
    },
    {
        "code": "A113310800089",
        "type": 16011,
        "name": "まんとみ幼稚園",
        "address": "江東区亀戸1-14-12",
        "lat": 35.694117,
        "lng": 139.822087
    },
    {
        "code": "A113310800098",
        "type": 16011,
        "name": "江東めぐみ幼稚園",
        "address": "江東区東砂2-11-3",
        "lat": 35.683065,
        "lng": 139.843178
    },
    {
        "code": "A113310800105",
        "type": 16011,
        "name": "江東ＹＭＣＡ幼稚園",
        "address": "江東区石島3-15",
        "lat": 35.68088,
        "lng": 139.811241
    },
    {
        "code": "A113310800114",
        "type": 16011,
        "name": "大島新生幼稚園",
        "address": "江東区大島3-30-9",
        "lat": 35.69033,
        "lng": 139.830799
    },
    {
        "code": "A113310800123",
        "type": 16011,
        "name": "きよし幼稚園",
        "address": "江東区東砂3-17-10",
        "lat": 35.681089,
        "lng": 139.843107
    },
    {
        "code": "A213310800015",
        "type": 16013,
        "name": "しののめYMCAこども園",
        "address": "江東区東雲1-9-46",
        "lat": 35.649145,
        "lng": 139.803735
    },
    {
        "code": "A213310800024",
        "type": 16013,
        "name": "豊洲めぐみこども園",
        "address": "江東区豊洲6-2-30",
        "lat": 35.64762,
        "lng": 139.793735
    },
    {
        "code": "A213310800033",
        "type": 16013,
        "name": "武蔵野大学附属有明こども園",
        "address": "江東区有明2-1-4",
        "lat": 35.638623,
        "lng": 139.795572
    },
    {
        "code": "B113210800016",
        "type": 16001,
        "name": "明治小学校",
        "address": "江東区深川2-17-26",
        "lat": 35.676128,
        "lng": 139.797987
    },
    {
        "code": "B113210800025",
        "type": 16001,
        "name": "深川小学校",
        "address": "江東区高橋14-10",
        "lat": 35.686043,
        "lng": 139.799572
    },
    {
        "code": "B113210800034",
        "type": 16001,
        "name": "八名川小学校",
        "address": "江東区新大橋3-1-15",
        "lat": 35.687016,
        "lng": 139.795684
    },
    {
        "code": "B113210800043",
        "type": 16001,
        "name": "臨海小学校",
        "address": "江東区門前仲町1-1-6",
        "lat": 35.672489,
        "lng": 139.793182
    },
    {
        "code": "B113210800052",
        "type": 16001,
        "name": "数矢小学校",
        "address": "江東区富岡1-18-7",
        "lat": 35.672823,
        "lng": 139.800014
    },
    {
        "code": "B113210800061",
        "type": 16001,
        "name": "平久小学校",
        "address": "江東区木場1-2-2",
        "lat": 35.668101,
        "lng": 139.802292
    },
    {
        "code": "B113210800070",
        "type": 16001,
        "name": "東陽小学校",
        "address": "江東区東陽3-27-12",
        "lat": 35.670684,
        "lng": 139.81554
    },
    {
        "code": "B113210800089",
        "type": 16001,
        "name": "川南小学校",
        "address": "江東区千石2-9-12",
        "lat": 35.679794,
        "lng": 139.816763
    },
    {
        "code": "B113210800098",
        "type": 16001,
        "name": "扇橋小学校",
        "address": "江東区石島18-5",
        "lat": 35.681461,
        "lng": 139.811958
    },
    {
        "code": "B113210800105",
        "type": 16001,
        "name": "元加賀小学校",
        "address": "江東区白河4-3-19",
        "lat": 35.682238,
        "lng": 139.808347
    },
    {
        "code": "B113210800114",
        "type": 16001,
        "name": "毛利小学校",
        "address": "江東区毛利2-2-2",
        "lat": 35.691431,
        "lng": 139.816291
    },
    {
        "code": "B113210800123",
        "type": 16001,
        "name": "東川小学校",
        "address": "江東区住吉1-12-2",
        "lat": 35.688543,
        "lng": 139.812514
    },
    {
        "code": "B113210800132",
        "type": 16001,
        "name": "豊洲小学校",
        "address": "江東区豊洲4-4-4",
        "lat": 35.654186,
        "lng": 139.798764
    },
    {
        "code": "B113210800141",
        "type": 16001,
        "name": "枝川小学校",
        "address": "江東区枝川3-5-3",
        "lat": 35.659602,
        "lng": 139.80943
    },
    {
        "code": "B113210800150",
        "type": 16001,
        "name": "辰巳小学校",
        "address": "江東区辰巳1-11-1",
        "lat": 35.646659,
        "lng": 139.810041
    },
    {
        "code": "B113210800169",
        "type": 16001,
        "name": "第一亀戸小学校",
        "address": "江東区亀戸2-5-7",
        "lat": 35.699097,
        "lng": 139.82204
    },
    {
        "code": "B113210800178",
        "type": 16001,
        "name": "第二亀戸小学校",
        "address": "江東区亀戸6-36-1",
        "lat": 35.695515,
        "lng": 139.830094
    },
    {
        "code": "B113210800187",
        "type": 16001,
        "name": "香取小学校",
        "address": "江東区亀戸4-26-22",
        "lat": 35.703958,
        "lng": 139.826317
    },
    {
        "code": "B113210800196",
        "type": 16001,
        "name": "水神小学校",
        "address": "江東区亀戸5-22-22",
        "lat": 35.700097,
        "lng": 139.827928
    },
    {
        "code": "B113210800203",
        "type": 16001,
        "name": "第一大島小学校",
        "address": "江東区大島2-41-4",
        "lat": 35.68996,
        "lng": 139.825539
    },
    {
        "code": "B113210800212",
        "type": 16001,
        "name": "第二大島小学校",
        "address": "江東区大島3-16-2",
        "lat": 35.689988,
        "lng": 139.829733
    },
    {
        "code": "B113210800221",
        "type": 16001,
        "name": "第三大島小学校",
        "address": "江東区大島9-5-3",
        "lat": 35.69243,
        "lng": 139.845197
    },
    {
        "code": "B113210800230",
        "type": 16001,
        "name": "第四大島小学校",
        "address": "江東区大島6-7-8",
        "lat": 35.691154,
        "lng": 139.834399
    },
    {
        "code": "B113210800249",
        "type": 16001,
        "name": "第五大島小学校",
        "address": "江東区大島8-40-13",
        "lat": 35.688127,
        "lng": 139.844759
    },
    {
        "code": "B113210800258",
        "type": 16001,
        "name": "砂町小学校",
        "address": "江東区北砂4-13-23",
        "lat": 35.677406,
        "lng": 139.829011
    },
    {
        "code": "B113210800267",
        "type": 16001,
        "name": "第三砂町小学校",
        "address": "江東区南砂6-3-13",
        "lat": 35.669796,
        "lng": 139.830067
    },
    {
        "code": "B113210800276",
        "type": 16001,
        "name": "第四砂町小学校",
        "address": "江東区南砂2-13-18",
        "lat": 35.674878,
        "lng": 139.822068
    },
    {
        "code": "B113210800285",
        "type": 16001,
        "name": "第五砂町小学校",
        "address": "江東区東砂8-11-5",
        "lat": 35.667491,
        "lng": 139.839288
    },
    {
        "code": "B113210800294",
        "type": 16001,
        "name": "第六砂町小学校",
        "address": "江東区北砂6-26-6",
        "lat": 35.682183,
        "lng": 139.83851
    },
    {
        "code": "B113210800301",
        "type": 16001,
        "name": "第七砂町小学校",
        "address": "江東区東砂3-21-5",
        "lat": 35.678934,
        "lng": 139.84251
    },
    {
        "code": "B113210800310",
        "type": 16001,
        "name": "小名木川小学校",
        "address": "江東区北砂5-22-10",
        "lat": 35.682405,
        "lng": 139.831094
    },
    {
        "code": "B113210800329",
        "type": 16001,
        "name": "第二辰巳小学校",
        "address": "江東区辰巳1-1-22",
        "lat": 35.648353,
        "lng": 139.808458
    },
    {
        "code": "B113210800338",
        "type": 16001,
        "name": "東砂小学校",
        "address": "江東区東砂2-12-14",
        "lat": 35.683378,
        "lng": 139.844343
    },
    {
        "code": "B113210800347",
        "type": 16001,
        "name": "南陽小学校",
        "address": "江東区東陽2-1-20",
        "lat": 35.668518,
        "lng": 139.81379
    },
    {
        "code": "B113210800356",
        "type": 16001,
        "name": "北砂小学校",
        "address": "江東区北砂1-3-36",
        "lat": 35.683183,
        "lng": 139.823651
    },
    {
        "code": "B113210800365",
        "type": 16001,
        "name": "亀高小学校",
        "address": "江東区北砂5-20-16",
        "lat": 35.685044,
        "lng": 139.834232
    },
    {
        "code": "B113210800374",
        "type": 16001,
        "name": "東雲小学校",
        "address": "江東区東雲2-4-11",
        "lat": 35.642437,
        "lng": 139.799209
    },
    {
        "code": "B113210800383",
        "type": 16001,
        "name": "越中島小学校",
        "address": "江東区越中島3-6-38",
        "lat": 35.666073,
        "lng": 139.79632
    },
    {
        "code": "B113210800392",
        "type": 16001,
        "name": "浅間竪川小学校",
        "address": "江東区亀戸9-22-4",
        "lat": 35.698681,
        "lng": 139.841815
    },
    {
        "code": "B113210800409",
        "type": 16001,
        "name": "第二砂町小学校",
        "address": "江東区東砂7-17-30",
        "lat": 35.674879,
        "lng": 139.83876
    },
    {
        "code": "B113210800418",
        "type": 16001,
        "name": "南砂小学校",
        "address": "江東区南砂2-3-21",
        "lat": 35.671906,
        "lng": 139.824984
    },
    {
        "code": "B113210800427",
        "type": 16001,
        "name": "豊洲北小学校",
        "address": "江東区豊洲3-6-1",
        "lat": 35.658463,
        "lng": 139.797788
    },
    {
        "code": "B113210800436",
        "type": 16001,
        "name": "大島南央小学校",
        "address": "江東区大島4-18-5",
        "lat": 35.687338,
        "lng": 139.83156
    },
    {
        "code": "B113210800445",
        "type": 16001,
        "name": "有明小学校",
        "address": "江東区有明2-10-1",
        "lat": 35.640432,
        "lng": 139.79597
    },
    {
        "code": "B113210800454",
        "type": 16001,
        "name": "豊洲西小学校",
        "address": "江東区豊洲5-1-35",
        "lat": 35.65108,
        "lng": 139.794845
    },
    {
        "code": "C113210800014",
        "type": 16002,
        "name": "深川第一中学校",
        "address": "江東区森下4-9-22",
        "lat": 35.685266,
        "lng": 139.805598
    },
    {
        "code": "C113210800023",
        "type": 16002,
        "name": "深川第二中学校",
        "address": "江東区冬木22-10",
        "lat": 35.676461,
        "lng": 139.800626
    },
    {
        "code": "C113210800032",
        "type": 16002,
        "name": "深川第三中学校",
        "address": "江東区越中島3-7-1",
        "lat": 35.66646,
        "lng": 139.795587
    },
    {
        "code": "C113210800041",
        "type": 16002,
        "name": "深川第四中学校",
        "address": "江東区千石1-12-12",
        "lat": 35.678933,
        "lng": 139.812458
    },
    {
        "code": "C113210800050",
        "type": 16002,
        "name": "深川第五中学校",
        "address": "江東区豊洲4-11-18",
        "lat": 35.652677,
        "lng": 139.799157
    },
    {
        "code": "C113210800069",
        "type": 16002,
        "name": "深川第六中学校",
        "address": "江東区平野3-6-13",
        "lat": 35.678794,
        "lng": 139.80557
    },
    {
        "code": "C113210800078",
        "type": 16002,
        "name": "深川第七中学校",
        "address": "江東区毛利1-14-1",
        "lat": 35.691348,
        "lng": 139.813513
    },
    {
        "code": "C113210800087",
        "type": 16002,
        "name": "深川第八中学校",
        "address": "江東区塩浜2-21-14",
        "lat": 35.664796,
        "lng": 139.811957
    },
    {
        "code": "C113210800096",
        "type": 16002,
        "name": "亀戸中学校",
        "address": "江東区亀戸9-2-2",
        "lat": 35.695293,
        "lng": 139.841815
    },
    {
        "code": "C113210800103",
        "type": 16002,
        "name": "第二亀戸中学校",
        "address": "江東区亀戸4-51-1",
        "lat": 35.702625,
        "lng": 139.832566
    },
    {
        "code": "C113210800112",
        "type": 16002,
        "name": "第三亀戸中学校",
        "address": "江東区亀戸1-12-10",
        "lat": 35.695042,
        "lng": 139.821234
    },
    {
        "code": "C113210800121",
        "type": 16002,
        "name": "大島中学校",
        "address": "江東区大島8-12-22",
        "lat": 35.68671,
        "lng": 139.839815
    },
    {
        "code": "C113210800130",
        "type": 16002,
        "name": "第二大島中学校",
        "address": "江東区大島3-27-18",
        "lat": 35.691654,
        "lng": 139.831538
    },
    {
        "code": "C113210800149",
        "type": 16002,
        "name": "砂町中学校",
        "address": "江東区北砂6-16-28",
        "lat": 35.685238,
        "lng": 139.837177
    },
    {
        "code": "C113210800158",
        "type": 16002,
        "name": "第二砂町中学校",
        "address": "江東区東砂8-10-9",
        "lat": 35.668352,
        "lng": 139.839566
    },
    {
        "code": "C113210800167",
        "type": 16002,
        "name": "第三砂町中学校",
        "address": "江東区南砂3-10-3",
        "lat": 35.672656,
        "lng": 139.833233
    },
    {
        "code": "C113210800176",
        "type": 16002,
        "name": "第四砂町中学校",
        "address": "江東区北砂5-20-17",
        "lat": 35.684822,
        "lng": 139.831677
    },
    {
        "code": "C113210800185",
        "type": 16002,
        "name": "辰巳中学校",
        "address": "江東区辰巳1-10-57",
        "lat": 35.646826,
        "lng": 139.811347
    },
    {
        "code": "C113210800194",
        "type": 16002,
        "name": "南砂中学校",
        "address": "江東区南砂2-3-20",
        "lat": 35.673351,
        "lng": 139.823678
    },
    {
        "code": "C113210800201",
        "type": 16002,
        "name": "第二南砂中学校",
        "address": "江東区南砂1-2-18",
        "lat": 35.678017,
        "lng": 139.821318
    },
    {
        "code": "C113210800210",
        "type": 16002,
        "name": "東陽中学校",
        "address": "江東区東陽2-1-8",
        "lat": 35.666907,
        "lng": 139.814013
    },
    {
        "code": "C113210800229",
        "type": 16002,
        "name": "大島西中学校",
        "address": "江東区大島4-1-23",
        "lat": 35.686405,
        "lng": 139.8279
    },
    {
        "code": "C113210800238",
        "type": 16002,
        "name": "有明中学校",
        "address": "江東区有明2-10-1",
        "lat": 35.640432,
        "lng": 139.795973
    },
    {
        "code": "C113310800012",
        "type": 16002,
        "name": "かえつ有明中学校",
        "address": "江東区東雲2-16-1",
        "lat": 35.641068,
        "lng": 139.797643
    },
    {
        "code": "C113310800021",
        "type": 16002,
        "name": "中村中学校",
        "address": "江東区清澄2-3-15",
        "lat": 35.681483,
        "lng": 139.796599
    },
    {
        "code": "C113310800030",
        "type": 16002,
        "name": "芝浦工業大学附属中学校",
        "address": "江東区豊洲6-2-7",
        "lat": 35.649402,
        "lng": 139.791734
    },
    {
        "code": "C213210800013",
        "type": 16014,
        "name": "有明西学園",
        "address": "江東区有明1-7-13",
        "lat": 35.637276,
        "lng": 139.784097
    },
    {
        "code": "D113299906072",
        "type": 16004,
        "name": "深川高等学校",
        "address": "江東区東陽5-32-19",
        "lat": 35.671129,
        "lng": 139.815513
    },
    {
        "code": "D113299906081",
        "type": 16004,
        "name": "東高等学校",
        "address": "江東区東砂7-19-24",
        "lat": 35.673684,
        "lng": 139.837233
    },
    {
        "code": "D113299906090",
        "type": 16004,
        "name": "城東高等学校",
        "address": "江東区大島3-22-1",
        "lat": 35.692876,
        "lng": 139.829372
    },
    {
        "code": "D113299906161",
        "type": 16004,
        "name": "大江戸高等学校",
        "address": "江東区千石3-2-11",
        "lat": 35.679324,
        "lng": 139.818052
    },
    {
        "code": "D113299906198",
        "type": 16004,
        "name": "江東商業高等学校",
        "address": "江東区亀戸4-50-1",
        "lat": 35.702625,
        "lng": 139.831399
    },
    {
        "code": "D113299906205",
        "type": 16004,
        "name": "第三商業高等学校",
        "address": "江東区越中島3-3-1",
        "lat": 35.662879,
        "lng": 139.795709
    },
    {
        "code": "D113299906223",
        "type": 16004,
        "name": "墨田工業高等学校",
        "address": "江東区森下5-1-7",
        "lat": 35.684905,
        "lng": 139.807015
    },
    {
        "code": "D113299906241",
        "type": 16004,
        "name": "東京都立科学技術高等学校",
        "address": "江東区大島1-2-31",
        "lat": 35.687127,
        "lng": 139.822512
    },
    {
        "code": "D113310800010",
        "type": 16004,
        "name": "かえつ有明高等学校",
        "address": "江東区東雲2-16-1",
        "lat": 35.641039,
        "lng": 139.797643
    },
    {
        "code": "D113310800029",
        "type": 16004,
        "name": "中央学院大学中央高等学校",
        "address": "江東区亀戸7-65-12",
        "lat": 35.695859,
        "lng": 139.839875
    },
    {
        "code": "D113310800038",
        "type": 16004,
        "name": "中村高等学校",
        "address": "江東区清澄2-3-15",
        "lat": 35.68146,
        "lng": 139.796599
    },
    {
        "code": "D113310800047",
        "type": 16004,
        "name": "芝浦工業大学附属高等学校",
        "address": "江東区豊洲6-2-7",
        "lat": 35.649204,
        "lng": 139.791729
    },
    {
        "code": "E113299930088",
        "type": 16012,
        "name": "墨東特別支援学校",
        "address": "江東区猿江2-16-18",
        "lat": 35.685904,
        "lng": 139.817735
    },
    {
        "code": "E113299940148",
        "type": 16012,
        "name": "江東特別支援学校",
        "address": "江東区東陽4-11-45",
        "lat": 35.673712,
        "lng": 139.817873
    },
    {
        "code": "E113299940353",
        "type": 16012,
        "name": "城東特別支援学校",
        "address": "江東区大島6-7-3",
        "lat": 35.691843,
        "lng": 139.834524
    },
    {
        "code": "E113299940362",
        "type": 16012,
        "name": "臨海青海特別支援学校",
        "address": "江東区青海2-5-1",
        "lat": 35.616315,
        "lng": 139.780501
    },
    {
        "code": "F113310103046",
        "type": 16007,
        "name": "芝浦工業大学",
        "address": "江東区豊洲3-7-5",
        "lat": 35.661326,
        "lng": 139.795087
    },
    {
        "code": "F113310103625",
        "type": 16007,
        "name": "東京保健医療専門職大学",
        "address": "江東区塩浜2-22-10",
        "lat": 35.664757,
        "lng": 139.813185
    },
    {
        "code": "F113310103830",
        "type": 16007,
        "name": "武蔵野大学",
        "address": "江東区有明3-3-3",
        "lat": 35.631202,
        "lng": 139.786688
    },
    {
        "code": "F113310104107",
        "type": 16007,
        "name": "東京有明医療大学",
        "address": "江東区有明2-9-1",
        "lat": 35.64192,
        "lng": 139.796619
    },
    {
        "code": "F213310104543",
        "type": 16006,
        "name": "有明教育芸術短期大学",
        "address": "江東区有明2-9-2",
        "lat": 35.641898,
        "lng": 139.797321
    },
    {
        "code": "H113310800011",
        "type": 16016,
        "name": "江東服飾高等専修学校",
        "address": "江東区東陽3-3-1",
        "lat": 35.66887,
        "lng": 139.809298
    },
    {
        "code": "H113310800020",
        "type": 16016,
        "name": "臨床福祉専門学校",
        "address": "江東区塩浜2-22-10",
        "lat": 35.664793,
        "lng": 139.812938
    },
    {
        "code": "H113310800039",
        "type": 16016,
        "name": "東京ＹＭＣＡ社会体育・保育専門学校",
        "address": "江東区東陽2-2-15",
        "lat": 35.667113,
        "lng": 139.816125
    },
    {
        "code": "H113310800048",
        "type": 16016,
        "name": "東京服装文化学院",
        "address": "江東区亀戸2-18-11",
        "lat": 35.697722,
        "lng": 139.823989
    },
    {
        "code": "H113310800057",
        "type": 16016,
        "name": "読売自動車大学校",
        "address": "江東区亀戸2-28-5",
        "lat": 35.699517,
        "lng": 139.824548
    },
    {
        "code": "H113310800066",
        "type": 16016,
        "name": "秀林外語専門学校",
        "address": "江東区大島3-4-7",
        "lat": 35.692639,
        "lng": 139.826272
    },
    {
        "code": "H213310800029",
        "type": 16015,
        "name": "インディアインターナショナルスクールインジャパン",
        "address": "江東区大島1-20-20",
        "lat": 35.68558,
        "lng": 139.825053
    },
    {
        "code": "H213310800038",
        "type": 16015,
        "name": "カナン国際教育学院",
        "address": "江東区大島3-23-8",
        "lat": 35.693617,
        "lng": 139.829149
    },
    {
        "code": "H213310800047",
        "type": 16015,
        "name": "東京朝鮮第２幼初級学校",
        "address": "江東区枝川1-11-26",
        "lat": 35.656447,
        "lng": 139.80445
    },
    {
        "code": "H213310800056",
        "type": 16015,
        "name": "ケイ・インターナショナルスクール東京",
        "address": "江東区白河1-5-15",
        "lat": 35.682935,
        "lng": 139.800405
    }
]