[
    {
        "code": "A113210300013",
        "type": 16011,
        "name": "赤羽幼稚園",
        "address": "港区三田1-4-52",
        "lat": 35.653231,
        "lng": 139.742522
    },
    {
        "code": "A113210300022",
        "type": 16011,
        "name": "芝浦幼稚園",
        "address": "港区芝浦4-8-18",
        "lat": 35.638158,
        "lng": 139.746311
    },
    {
        "code": "A113210300031",
        "type": 16011,
        "name": "三光幼稚園",
        "address": "港区白金3-13-8",
        "lat": 35.644982,
        "lng": 139.728888
    },
    {
        "code": "A113210300040",
        "type": 16011,
        "name": "港南幼稚園",
        "address": "港区港南4-3-27",
        "lat": 35.629318,
        "lng": 139.748845
    },
    {
        "code": "A113210300059",
        "type": 16011,
        "name": "麻布幼稚園",
        "address": "港区麻布台1-5-15",
        "lat": 35.66146,
        "lng": 139.738273
    },
    {
        "code": "A113210300068",
        "type": 16011,
        "name": "南山幼稚園",
        "address": "港区元麻布3-8-15",
        "lat": 35.65719,
        "lng": 139.730614
    },
    {
        "code": "A113210300077",
        "type": 16011,
        "name": "本村幼稚園",
        "address": "港区南麻布3-9-33",
        "lat": 35.649824,
        "lng": 139.730266
    },
    {
        "code": "A113210300086",
        "type": 16011,
        "name": "中之町幼稚園",
        "address": "港区赤坂9-7-8",
        "lat": 35.667831,
        "lng": 139.731531
    },
    {
        "code": "A113210300095",
        "type": 16011,
        "name": "青南幼稚園",
        "address": "港区南青山4-18-17",
        "lat": 35.66351,
        "lng": 139.716971
    },
    {
        "code": "A113210300102",
        "type": 16011,
        "name": "白金台幼稚園",
        "address": "港区白金台3-7-1",
        "lat": 35.635614,
        "lng": 139.726499
    },
    {
        "code": "A113210300111",
        "type": 16011,
        "name": "高輪幼稚園",
        "address": "港区高輪2-12-31",
        "lat": 35.635431,
        "lng": 139.735268
    },
    {
        "code": "A113210300120",
        "type": 16011,
        "name": "にじのはし幼稚園",
        "address": "港区台場1-1-5",
        "lat": 35.633646,
        "lng": 139.777123
    },
    {
        "code": "A113310300011",
        "type": 16011,
        "name": "聖徳大学三田幼稚園",
        "address": "港区三田3-4-28",
        "lat": 35.645704,
        "lng": 139.743239
    },
    {
        "code": "A113310300020",
        "type": 16011,
        "name": "東洋英和幼稚園",
        "address": "港区六本木5-6-14",
        "lat": 35.661029,
        "lng": 139.734251
    },
    {
        "code": "A113310300039",
        "type": 16011,
        "name": "明徳幼稚園",
        "address": "港区芝公園4-7-4",
        "lat": 35.657153,
        "lng": 139.74688
    },
    {
        "code": "A113310300048",
        "type": 16011,
        "name": "みなと幼稚園",
        "address": "港区芝2-25-6",
        "lat": 35.650574,
        "lng": 139.75128
    },
    {
        "code": "A113310300057",
        "type": 16011,
        "name": "麻布山幼稚園",
        "address": "港区元麻布1-6-21",
        "lat": 35.654048,
        "lng": 139.732788
    },
    {
        "code": "A113310300066",
        "type": 16011,
        "name": "白金幼稚園",
        "address": "港区白金台5-23-11",
        "lat": 35.635533,
        "lng": 139.718033
    },
    {
        "code": "A113310300075",
        "type": 16011,
        "name": "サンタ・セシリア幼稚園",
        "address": "港区白金4-7-23",
        "lat": 35.6423,
        "lng": 139.727616
    },
    {
        "code": "A113310300084",
        "type": 16011,
        "name": "枝光会附属幼稚園",
        "address": "港区三田4-19-36",
        "lat": 35.641024,
        "lng": 139.739353
    },
    {
        "code": "A113310300093",
        "type": 16011,
        "name": "芝幼稚園",
        "address": "港区芝公園1-3-16",
        "lat": 35.659477,
        "lng": 139.751405
    },
    {
        "code": "A113310300100",
        "type": 16011,
        "name": "安藤記念教会附属幼稚園",
        "address": "港区元麻布2-14-16",
        "lat": 35.652463,
        "lng": 139.730264
    },
    {
        "code": "A113310300119",
        "type": 16011,
        "name": "魚籃幼稚園",
        "address": "港区三田4-8-34",
        "lat": 35.652437,
        "lng": 139.730264
    },
    {
        "code": "A113310300128",
        "type": 16011,
        "name": "天現寺幼稚園",
        "address": "港区南麻布4-2-35",
        "lat": 35.647926,
        "lng": 139.723643
    },
    {
        "code": "A113310300137",
        "type": 16011,
        "name": "南部坂幼稚園",
        "address": "港区南麻布4-5-6",
        "lat": 35.651082,
        "lng": 139.724798
    },
    {
        "code": "A113310300146",
        "type": 16011,
        "name": "霊南坂幼稚園",
        "address": "港区赤坂1-14-3",
        "lat": 35.667005,
        "lng": 139.741822
    },
    {
        "code": "A113310300155",
        "type": 16011,
        "name": "瑞聖幼稚園",
        "address": "港区白金台3-2-19",
        "lat": 35.637274,
        "lng": 139.726982
    },
    {
        "code": "A113310300164",
        "type": 16011,
        "name": "麻布みこころ幼稚園",
        "address": "港区西麻布3-21-6",
        "lat": 35.659104,
        "lng": 139.72523
    },
    {
        "code": "A113310300173",
        "type": 16011,
        "name": "愛育幼稚園",
        "address": "港区南麻布5-6-8",
        "lat": 35.653123,
        "lng": 139.726777
    },
    {
        "code": "A113310300182",
        "type": 16011,
        "name": "若葉会幼稚園",
        "address": "港区西麻布4-13-25",
        "lat": 35.657847,
        "lng": 139.722232
    },
    {
        "code": "B113210300011",
        "type": 16001,
        "name": "芝小学校",
        "address": "港区芝2-21-3",
        "lat": 35.651129,
        "lng": 139.750074
    },
    {
        "code": "B113210300020",
        "type": 16001,
        "name": "赤羽小学校",
        "address": "港区三田1-4-52",
        "lat": 35.653212,
        "lng": 139.74238
    },
    {
        "code": "B113210300039",
        "type": 16001,
        "name": "芝浦小学校",
        "address": "港区芝浦4-8-18",
        "lat": 35.638106,
        "lng": 139.746216
    },
    {
        "code": "B113210300048",
        "type": 16001,
        "name": "高輪台小学校",
        "address": "港区高輪2-8-24",
        "lat": 35.63638,
        "lng": 139.734271
    },
    {
        "code": "B113210300057",
        "type": 16001,
        "name": "白金小学校",
        "address": "港区白金台1-4-26",
        "lat": 35.636825,
        "lng": 139.728577
    },
    {
        "code": "B113210300066",
        "type": 16001,
        "name": "港南小学校",
        "address": "港区港南4-3-28",
        "lat": 35.62923,
        "lng": 139.749645
    },
    {
        "code": "B113210300075",
        "type": 16001,
        "name": "麻布小学校",
        "address": "港区麻布台1-5-15",
        "lat": 35.661933,
        "lng": 139.738603
    },
    {
        "code": "B113210300084",
        "type": 16001,
        "name": "南山小学校",
        "address": "港区元麻布3-8-15",
        "lat": 35.657156,
        "lng": 139.73102
    },
    {
        "code": "B113210300093",
        "type": 16001,
        "name": "本村小学校",
        "address": "港区南麻布3-9-33",
        "lat": 35.649712,
        "lng": 139.729715
    },
    {
        "code": "B113210300100",
        "type": 16001,
        "name": "笄小学校",
        "address": "港区西麻布3-11-16",
        "lat": 35.656378,
        "lng": 139.724854
    },
    {
        "code": "B113210300119",
        "type": 16001,
        "name": "東町小学校",
        "address": "港区南麻布1-8-11",
        "lat": 35.650823,
        "lng": 139.735853
    },
    {
        "code": "B113210300128",
        "type": 16001,
        "name": "青山小学校",
        "address": "港区南青山2-21-2",
        "lat": 35.669849,
        "lng": 139.719132
    },
    {
        "code": "B113210300137",
        "type": 16001,
        "name": "青南小学校",
        "address": "港区南青山4-21-15",
        "lat": 35.663488,
        "lng": 139.716132
    },
    {
        "code": "B113210300146",
        "type": 16001,
        "name": "御成門小学校",
        "address": "港区芝公園3-2-4",
        "lat": 35.661156,
        "lng": 139.749629
    },
    {
        "code": "B113210300155",
        "type": 16001,
        "name": "赤坂小学校",
        "address": "港区赤坂8-13-29",
        "lat": 35.669404,
        "lng": 139.731131
    },
    {
        "code": "B113210300164",
        "type": 16001,
        "name": "港陽小学校",
        "address": "港区台場1-1-5",
        "lat": 35.633871,
        "lng": 139.777242
    },
    {
        "code": "B113210300173",
        "type": 16001,
        "name": "御田小学校",
        "address": "港区三田4-11-38",
        "lat": 35.643085,
        "lng": 139.738079
    },
    {
        "code": "B113210300182",
        "type": 16001,
        "name": "白金の丘小学校",
        "address": "港区白金4-1-12",
        "lat": 35.643717,
        "lng": 139.726699
    },
    {
        "code": "B113310300019",
        "type": 16001,
        "name": "聖心女子学院初等科",
        "address": "港区白金4-11-1",
        "lat": 35.642183,
        "lng": 139.726216
    },
    {
        "code": "B113310300028",
        "type": 16001,
        "name": "東洋英和女学院小学部",
        "address": "港区六本木5-6-14",
        "lat": 35.661044,
        "lng": 139.733631
    },
    {
        "code": "C113210300019",
        "type": 16002,
        "name": "御成門中学校",
        "address": "港区西新橋3-25-30",
        "lat": 35.661572,
        "lng": 139.750518
    },
    {
        "code": "C113210300028",
        "type": 16002,
        "name": "白金の丘中学校",
        "address": "港区白金4-1-12",
        "lat": 35.64371,
        "lng": 139.726929
    },
    {
        "code": "C113210300037",
        "type": 16002,
        "name": "高松中学校",
        "address": "港区高輪1-16-25",
        "lat": 35.641463,
        "lng": 139.734104
    },
    {
        "code": "C113210300046",
        "type": 16002,
        "name": "港南中学校",
        "address": "港区港南4-3-3",
        "lat": 35.63102,
        "lng": 139.748936
    },
    {
        "code": "C113210300055",
        "type": 16002,
        "name": "高陵中学校",
        "address": "港区西麻布4-14-8",
        "lat": 35.656794,
        "lng": 139.720216
    },
    {
        "code": "C113210300064",
        "type": 16002,
        "name": "赤坂中学校",
        "address": "港区南青山1-18-12",
        "lat": 35.667566,
        "lng": 139.725065
    },
    {
        "code": "C113210300073",
        "type": 16002,
        "name": "青山中学校",
        "address": "港区北青山1-1-9",
        "lat": 35.673987,
        "lng": 139.722826
    },
    {
        "code": "C113210300082",
        "type": 16002,
        "name": "港陽中学校",
        "address": "港区台場1-1-5",
        "lat": 35.633842,
        "lng": 139.777236
    },
    {
        "code": "C113210300091",
        "type": 16002,
        "name": "六本木中学校",
        "address": "港区六本木6-8-16",
        "lat": 35.660834,
        "lng": 139.731829
    },
    {
        "code": "C113210300108",
        "type": 16002,
        "name": "三田中学校",
        "address": "港区三田4-13-13",
        "lat": 35.645298,
        "lng": 139.741005
    },
    {
        "code": "C113310300017",
        "type": 16002,
        "name": "麻布中学校",
        "address": "港区元麻布2-3-29",
        "lat": 35.654631,
        "lng": 139.727801
    },
    {
        "code": "C113310300026",
        "type": 16002,
        "name": "慶應義塾中等部",
        "address": "港区三田2-17-10",
        "lat": 35.648935,
        "lng": 139.740464
    },
    {
        "code": "C113310300035",
        "type": 16002,
        "name": "頌栄女子学院中学校",
        "address": "港区白金台2-26-5",
        "lat": 35.632323,
        "lng": 139.729938
    },
    {
        "code": "C113310300044",
        "type": 16002,
        "name": "芝中学校",
        "address": "港区芝公園3-5-37",
        "lat": 35.660429,
        "lng": 139.746991
    },
    {
        "code": "C113310300053",
        "type": 16002,
        "name": "広尾学園中学校",
        "address": "港区南麻布5-1-14",
        "lat": 35.654318,
        "lng": 139.722465
    },
    {
        "code": "C113310300062",
        "type": 16002,
        "name": "聖心女子学院中等科",
        "address": "港区白金4-11-1",
        "lat": 35.642166,
        "lng": 139.726247
    },
    {
        "code": "C113310300071",
        "type": 16002,
        "name": "高輪中学校",
        "address": "港区高輪2-1-32",
        "lat": 35.638606,
        "lng": 139.736684
    },
    {
        "code": "C113310300080",
        "type": 16002,
        "name": "東京女子学園中学校",
        "address": "港区芝4-1-30",
        "lat": 35.649686,
        "lng": 139.749846
    },
    {
        "code": "C113310300099",
        "type": 16002,
        "name": "東洋英和女学院中学部",
        "address": "港区六本木5-14-40",
        "lat": 35.659473,
        "lng": 139.73477
    },
    {
        "code": "C113310300106",
        "type": 16002,
        "name": "普連土学園中学校",
        "address": "港区三田4-14-16",
        "lat": 35.646125,
        "lng": 139.741242
    },
    {
        "code": "C113310300115",
        "type": 16002,
        "name": "東海大学付属高輪台高等学校中等部",
        "address": "港区高輪2-2-16",
        "lat": 35.638213,
        "lng": 139.734989
    },
    {
        "code": "C113310300124",
        "type": 16002,
        "name": "山脇学園中学校",
        "address": "港区赤坂4-10-36",
        "lat": 35.674793,
        "lng": 139.733158
    },
    {
        "code": "D113110000049",
        "type": 16004,
        "name": "東京工業大学附属科学技術高等学校",
        "address": "港区芝浦3-3-6",
        "lat": 35.64438,
        "lng": 139.74788
    },
    {
        "code": "D113299901031",
        "type": 16004,
        "name": "三田高等学校",
        "address": "港区三田1-4-46",
        "lat": 35.652379,
        "lng": 139.743019
    },
    {
        "code": "D113299901120",
        "type": 16004,
        "name": "六本木高等学校",
        "address": "港区六本木6-16-36",
        "lat": 35.657683,
        "lng": 139.731159
    },
    {
        "code": "D113299901157",
        "type": 16004,
        "name": "芝商業高等学校",
        "address": "港区海岸1-8-25",
        "lat": 35.65649,
        "lng": 139.761073
    },
    {
        "code": "D113310300015",
        "type": 16004,
        "name": "麻布高等学校",
        "address": "港区元麻布2-3-29",
        "lat": 35.6546,
        "lng": 139.727798
    },
    {
        "code": "D113310300024",
        "type": 16004,
        "name": "慶應義塾女子高等学校",
        "address": "港区三田2-17-23",
        "lat": 35.64824,
        "lng": 139.739798
    },
    {
        "code": "D113310300033",
        "type": 16004,
        "name": "芝高等学校",
        "address": "港区芝公園3-5-37",
        "lat": 35.660406,
        "lng": 139.746991
    },
    {
        "code": "D113310300042",
        "type": 16004,
        "name": "広尾学園高等学校",
        "address": "港区南麻布5-1-14",
        "lat": 35.654295,
        "lng": 139.722465
    },
    {
        "code": "D113310300051",
        "type": 16004,
        "name": "頌栄女子学院高等学校",
        "address": "港区白金台2-26-5",
        "lat": 35.632297,
        "lng": 139.729938
    },
    {
        "code": "D113310300060",
        "type": 16004,
        "name": "正則高等学校",
        "address": "港区芝公園3-1-36",
        "lat": 35.661128,
        "lng": 139.747796
    },
    {
        "code": "D113310300079",
        "type": 16004,
        "name": "聖心女子学院高等科",
        "address": "港区白金4-11-1",
        "lat": 35.642157,
        "lng": 139.726216
    },
    {
        "code": "D113310300088",
        "type": 16004,
        "name": "高輪高等学校",
        "address": "港区高輪2-1-32",
        "lat": 35.638575,
        "lng": 139.736687
    },
    {
        "code": "D113310300097",
        "type": 16004,
        "name": "東海大学付属高輪台高等学校",
        "address": "港区高輪2-2-16",
        "lat": 35.638213,
        "lng": 139.734993
    },
    {
        "code": "D113310300104",
        "type": 16004,
        "name": "東京女子学園高等学校",
        "address": "港区芝4-1-30",
        "lat": 35.649657,
        "lng": 139.749852
    },
    {
        "code": "D113310300113",
        "type": 16004,
        "name": "普連土学園高等学校",
        "address": "港区三田4-14-16",
        "lat": 35.646102,
        "lng": 139.741242
    },
    {
        "code": "D113310300122",
        "type": 16004,
        "name": "明治学院高等学校",
        "address": "港区白金台1-2-37",
        "lat": 35.636519,
        "lng": 139.73016
    },
    {
        "code": "D113310300131",
        "type": 16004,
        "name": "山脇学園高等学校",
        "address": "港区赤坂4-10-36",
        "lat": 35.674237,
        "lng": 139.732464
    },
    {
        "code": "D113310300140",
        "type": 16004,
        "name": "東洋英和女学院高等部",
        "address": "港区六本木5-14-40",
        "lat": 35.659433,
        "lng": 139.73477
    },
    {
        "code": "E113299940193",
        "type": 16012,
        "name": "港特別支援学校",
        "address": "港区港南3-9-45",
        "lat": 35.632131,
        "lng": 139.746714
    },
    {
        "code": "E113299940335",
        "type": 16012,
        "name": "青山特別支援学校",
        "address": "港区港区南青山2-33-77",
        "lat": 35.669085,
        "lng": 139.722493
    },
    {
        "code": "E113310300012",
        "type": 16012,
        "name": "愛育学園",
        "address": "港区南麻布5-6-8",
        "lat": 35.65335,
        "lng": 139.727132
    },
    {
        "code": "F113110102808",
        "type": 16007,
        "name": "政策研究大学院大学",
        "address": "港区六本木7-22-1",
        "lat": 35.663698,
        "lng": 139.727288
    },
    {
        "code": "F113110102817",
        "type": 16007,
        "name": "東京海洋大学",
        "address": "港区港南4-5-7",
        "lat": 35.626354,
        "lng": 139.746881
    },
    {
        "code": "F113310102966",
        "type": 16007,
        "name": "北里大学",
        "address": "港区白金5-9-1",
        "lat": 35.645157,
        "lng": 139.726104
    },
    {
        "code": "F113310102984",
        "type": 16007,
        "name": "慶應義塾大学",
        "address": "港区三田2-15-45",
        "lat": 35.64924,
        "lng": 139.741992
    },
    {
        "code": "F113310103288",
        "type": 16007,
        "name": "東京慈恵会医科大学",
        "address": "港区西新橋3-25-8",
        "lat": 35.662933,
        "lng": 139.750852
    },
    {
        "code": "F113310103545",
        "type": 16007,
        "name": "明治学院大学",
        "address": "港区白金台1-2-37",
        "lat": 35.637491,
        "lng": 139.730743
    },
    {
        "code": "F113310104072",
        "type": 16007,
        "name": "ハリウッド大学院大学",
        "address": "港区六本木6-4-1",
        "lat": 35.661328,
        "lng": 139.730107
    },
    {
        "code": "F113310104081",
        "type": 16007,
        "name": "ＳＢＩ大学院大学",
        "address": "港区六本木1-6-1 泉ｶﾞｰﾃﾞﾝﾀﾜ-21階",
        "lat": 35.66465,
        "lng": 139.7395
    },
    {
        "code": "F113310104152",
        "type": 16007,
        "name": "事業構想大学院大学",
        "address": "港区南青山3-13-16",
        "lat": 35.665363,
        "lng": 139.713655
    },
    {
        "code": "F213310104348",
        "type": 16006,
        "name": "戸板女子短期大学",
        "address": "港区芝2-21-17",
        "lat": 35.65081,
        "lng": 139.749601
    },
    {
        "code": "H113310300016",
        "type": 16016,
        "name": "慈恵看護専門学校",
        "address": "港区西新橋3-25-8",
        "lat": 35.661933,
        "lng": 139.750789
    },
    {
        "code": "H113310300025",
        "type": 16016,
        "name": "聖徳大学幼児教育専門学校",
        "address": "港区三田3-4-28",
        "lat": 35.645935,
        "lng": 139.743373
    },
    {
        "code": "H113310300034",
        "type": 16016,
        "name": "ハリウッド美容専門学校",
        "address": "港区六本木6-4-1",
        "lat": 35.661336,
        "lng": 139.730117
    },
    {
        "code": "H113310300043",
        "type": 16016,
        "name": "音響芸術専門学校",
        "address": "港区西新橋3-24-10",
        "lat": 35.661332,
        "lng": 139.750764
    },
    {
        "code": "H113310300052",
        "type": 16016,
        "name": "順心英語ビジネス専門学校",
        "address": "港区南麻布5-1-14",
        "lat": 35.654245,
        "lng": 139.722464
    },
    {
        "code": "H113310300061",
        "type": 16016,
        "name": "青山ファッションカレッジ",
        "address": "港区北青山3-5-17",
        "lat": 35.665922,
        "lng": 139.712695
    },
    {
        "code": "H113310300070",
        "type": 16016,
        "name": "タカラ美容専門学校",
        "address": "港区赤坂7-2-29",
        "lat": 35.673859,
        "lng": 139.730209
    },
    {
        "code": "H213310300015",
        "type": 16015,
        "name": "東亜学院",
        "address": "港区赤坂2-17-47",
        "lat": 35.669472,
        "lng": 139.738251
    },
    {
        "code": "H213310300024",
        "type": 16015,
        "name": "東京インターナショナルスクール",
        "address": "港区南麻布2-13-6",
        "lat": 35.647245,
        "lng": 139.735304
    },
    {
        "code": "H213310300033",
        "type": 16015,
        "name": "西町インターナショナルスクール",
        "address": "港区元麻布2-14-7",
        "lat": 35.653762,
        "lng": 139.730593
    },
    {
        "code": "H213310300042",
        "type": 16015,
        "name": "白金自由学園",
        "address": "港区白金台2-6-10",
        "lat": 35.635617,
        "lng": 139.731045
    }
]