[
    {
        "code": "A113211900015",
        "type": 16011,
        "name": "高島幼稚園",
        "address": "板橋区高島平2-18-1",
        "lat": 35.783664,
        "lng": 139.661057
    },
    {
        "code": "A113311900013",
        "type": 16011,
        "name": "帝京幼稚園",
        "address": "板橋区加賀2-10-1",
        "lat": 35.758688,
        "lng": 139.71239
    },
    {
        "code": "A113311900022",
        "type": 16011,
        "name": "東京家政大学附属みどりヶ丘幼稚園",
        "address": "板橋区加賀1-18-1",
        "lat": 35.754655,
        "lng": 139.720967
    },
    {
        "code": "A113311900031",
        "type": 16011,
        "name": "武蔵野音楽大学第二幼稚園",
        "address": "板橋区小茂根4-13-2",
        "lat": 35.74823,
        "lng": 139.674844
    },
    {
        "code": "A113311900040",
        "type": 16011,
        "name": "落合幼稚園",
        "address": "板橋区板橋2-20-1",
        "lat": 35.748578,
        "lng": 139.708877
    },
    {
        "code": "A113311900059",
        "type": 16011,
        "name": "かごめ幼稚園",
        "address": "板橋区大谷口北町39-1",
        "lat": 35.751425,
        "lng": 139.688637
    },
    {
        "code": "A113311900068",
        "type": 16011,
        "name": "帝都幼稚園",
        "address": "板橋区常盤台1-6-2",
        "lat": 35.75941,
        "lng": 139.692042
    },
    {
        "code": "A113311900077",
        "type": 16011,
        "name": "前野幼稚園",
        "address": "板橋区前野町4-20-8",
        "lat": 35.771597,
        "lng": 139.691002
    },
    {
        "code": "A113311900086",
        "type": 16011,
        "name": "城山幼稚園",
        "address": "板橋区志村2-16-2",
        "lat": 35.775614,
        "lng": 139.687472
    },
    {
        "code": "A113311900095",
        "type": 16011,
        "name": "緑ヶ丘幼稚園",
        "address": "板橋区東新町2-16-13",
        "lat": 35.75503,
        "lng": 139.682659
    },
    {
        "code": "A113311900102",
        "type": 16011,
        "name": "松月院幼稚園",
        "address": "板橋区赤塚8-4-9",
        "lat": 35.780845,
        "lng": 139.647234
    },
    {
        "code": "A113311900111",
        "type": 16011,
        "name": "淑徳幼稚園",
        "address": "板橋区前野町5-32-8",
        "lat": 35.769551,
        "lng": 139.687403
    },
    {
        "code": "A113311900120",
        "type": 16011,
        "name": "城山みどり幼稚園",
        "address": "板橋区坂下2-22-10",
        "lat": 35.783607,
        "lng": 139.684019
    },
    {
        "code": "A113311900139",
        "type": 16011,
        "name": "板橋明星幼稚園",
        "address": "板橋区板橋3-25-24",
        "lat": 35.751176,
        "lng": 139.714487
    },
    {
        "code": "A113311900148",
        "type": 16011,
        "name": "ときわ幼稚園",
        "address": "板橋区常盤台4-12-4",
        "lat": 35.762337,
        "lng": 139.679934
    },
    {
        "code": "A113311900157",
        "type": 16011,
        "name": "なでしこ幼稚園",
        "address": "板橋区双葉町17-19",
        "lat": 35.757666,
        "lng": 139.698122
    },
    {
        "code": "A113311900166",
        "type": 16011,
        "name": "まきば幼稚園",
        "address": "板橋区徳丸2-9-7",
        "lat": 35.77158,
        "lng": 139.661405
    },
    {
        "code": "A113311900175",
        "type": 16011,
        "name": "ふたば幼稚園",
        "address": "板橋区上板橋2-40-3",
        "lat": 35.764356,
        "lng": 139.673093
    },
    {
        "code": "A113311900184",
        "type": 16011,
        "name": "赤塚幼稚園",
        "address": "板橋区赤塚2-3-12",
        "lat": 35.771703,
        "lng": 139.645259
    },
    {
        "code": "A113311900193",
        "type": 16011,
        "name": "稚竹幼稚園",
        "address": "板橋区蓮根2-9-23",
        "lat": 35.782559,
        "lng": 139.674576
    },
    {
        "code": "A113311900200",
        "type": 16011,
        "name": "みやこ幼稚園",
        "address": "板橋区成増1-5-7",
        "lat": 35.773045,
        "lng": 139.63278
    },
    {
        "code": "A113311900219",
        "type": 16011,
        "name": "まるやま幼稚園",
        "address": "板橋区四葉2-27-25",
        "lat": 35.781831,
        "lng": 139.653425
    },
    {
        "code": "A113311900228",
        "type": 16011,
        "name": "みその幼稚園",
        "address": "板橋区三園1-30-1",
        "lat": 35.790743,
        "lng": 139.63847
    },
    {
        "code": "A113311900237",
        "type": 16011,
        "name": "成増幼稚園",
        "address": "板橋区成増4-30-14",
        "lat": 35.785827,
        "lng": 139.635529
    },
    {
        "code": "A113311900246",
        "type": 16011,
        "name": "徳丸幼稚園",
        "address": "板橋区徳丸1-22-14",
        "lat": 35.771516,
        "lng": 139.665091
    },
    {
        "code": "A113311900255",
        "type": 16011,
        "name": "板橋向原幼稚園",
        "address": "板橋区向原2-31-3",
        "lat": 35.740654,
        "lng": 139.682338
    },
    {
        "code": "A113311900264",
        "type": 16011,
        "name": "大東文化大学附属青桐幼稚園",
        "address": "板橋区高島平3-6-1",
        "lat": 35.785,
        "lng": 139.65393
    },
    {
        "code": "A113311900273",
        "type": 16011,
        "name": "板橋富士見幼稚園",
        "address": "板橋区宮本町29-1",
        "lat": 35.763368,
        "lng": 139.700916
    },
    {
        "code": "A113311900282",
        "type": 16011,
        "name": "成増すみれ幼稚園",
        "address": "板橋区成増1-35-1",
        "lat": 35.778009,
        "lng": 139.626505
    },
    {
        "code": "A113311900291",
        "type": 16011,
        "name": "常盤台めぐみ幼稚園",
        "address": "板橋区常盤台2-3-3",
        "lat": 35.760007,
        "lng": 139.687339
    },
    {
        "code": "A113311900308",
        "type": 16011,
        "name": "こうま幼稚園",
        "address": "板橋区高島平8-21-13",
        "lat": 35.79073,
        "lng": 139.664471
    },
    {
        "code": "A113311900317",
        "type": 16011,
        "name": "きよみ幼稚園",
        "address": "板橋区高島平7-37-6",
        "lat": 35.792882,
        "lng": 139.654569
    },
    {
        "code": "A113311900326",
        "type": 16011,
        "name": "サンシティ聖母幼稚園",
        "address": "板橋区中台3-27-3",
        "lat": 35.773911,
        "lng": 139.678481
    },
    {
        "code": "B113211900013",
        "type": 16001,
        "name": "志村小学校",
        "address": "板橋区志村2-16-3",
        "lat": 35.775336,
        "lng": 139.686297
    },
    {
        "code": "B113211900022",
        "type": 16001,
        "name": "志村第一小学校",
        "address": "板橋区泉町17-1",
        "lat": 35.76642,
        "lng": 139.701435
    },
    {
        "code": "B113211900031",
        "type": 16001,
        "name": "志村第二小学校",
        "address": "板橋区志村1-7-1",
        "lat": 35.772586,
        "lng": 139.697824
    },
    {
        "code": "B113211900040",
        "type": 16001,
        "name": "志村第三小学校",
        "address": "板橋区清水町83-1",
        "lat": 35.767004,
        "lng": 139.70499
    },
    {
        "code": "B113211900059",
        "type": 16001,
        "name": "志村第四小学校",
        "address": "板橋区小豆沢4-13-1",
        "lat": 35.78053,
        "lng": 139.701323
    },
    {
        "code": "B113211900068",
        "type": 16001,
        "name": "志村第五小学校",
        "address": "板橋区西台3-38-23",
        "lat": 35.776974,
        "lng": 139.668576
    },
    {
        "code": "B113211900077",
        "type": 16001,
        "name": "志村第六小学校",
        "address": "板橋区坂下2-18-1",
        "lat": 35.783501,
        "lng": 139.680992
    },
    {
        "code": "B113211900086",
        "type": 16001,
        "name": "前野小学校",
        "address": "板橋区前野町6-40-1",
        "lat": 35.768448,
        "lng": 139.687408
    },
    {
        "code": "B113211900095",
        "type": 16001,
        "name": "中台小学校",
        "address": "板橋区中台1-9-7",
        "lat": 35.766159,
        "lng": 139.680999
    },
    {
        "code": "B113211900102",
        "type": 16001,
        "name": "舟渡小学校",
        "address": "板橋区舟渡3-6-15",
        "lat": 35.793639,
        "lng": 139.68163
    },
    {
        "code": "B113211900111",
        "type": 16001,
        "name": "富士見台小学校",
        "address": "板橋区前野町1-10-1",
        "lat": 35.763921,
        "lng": 139.695019
    },
    {
        "code": "B113211900120",
        "type": 16001,
        "name": "蓮根小学校",
        "address": "板橋区蓮根3-10-1",
        "lat": 35.787723,
        "lng": 139.676436
    },
    {
        "code": "B113211900139",
        "type": 16001,
        "name": "志村坂下小学校",
        "address": "板橋区相生町26-14",
        "lat": 35.779002,
        "lng": 139.680159
    },
    {
        "code": "B113211900148",
        "type": 16001,
        "name": "北前野小学校",
        "address": "板橋区前野町5-44-3",
        "lat": 35.773252,
        "lng": 139.685075
    },
    {
        "code": "B113211900157",
        "type": 16001,
        "name": "若木小学校",
        "address": "板橋区若木1-14-1",
        "lat": 35.769225,
        "lng": 139.67527
    },
    {
        "code": "B113211900166",
        "type": 16001,
        "name": "板橋第一小学校",
        "address": "板橋区氷川町13-1",
        "lat": 35.753811,
        "lng": 139.707574
    },
    {
        "code": "B113211900175",
        "type": 16001,
        "name": "板橋第二小学校",
        "address": "板橋区板橋2-52-1",
        "lat": 35.748784,
        "lng": 139.710518
    },
    {
        "code": "B113211900184",
        "type": 16001,
        "name": "板橋第四小学校",
        "address": "板橋区板橋4-9-13",
        "lat": 35.750089,
        "lng": 139.716657
    },
    {
        "code": "B113211900193",
        "type": 16001,
        "name": "板橋第五小学校",
        "address": "板橋区中丸町19-1",
        "lat": 35.741673,
        "lng": 139.704908
    },
    {
        "code": "B113211900200",
        "type": 16001,
        "name": "板橋第六小学校",
        "address": "板橋区大山町13-1",
        "lat": 35.747173,
        "lng": 139.700241
    },
    {
        "code": "B113211900219",
        "type": 16001,
        "name": "板橋第七小学校",
        "address": "板橋区大山金井町31-1",
        "lat": 35.745562,
        "lng": 139.704686
    },
    {
        "code": "B113211900228",
        "type": 16001,
        "name": "板橋第八小学校",
        "address": "板橋区双葉町42-1",
        "lat": 35.759505,
        "lng": 139.699963
    },
    {
        "code": "B113211900237",
        "type": 16001,
        "name": "板橋第十小学校",
        "address": "板橋区大谷口上町43-1",
        "lat": 35.747534,
        "lng": 139.692575
    },
    {
        "code": "B113211900246",
        "type": 16001,
        "name": "金沢小学校",
        "address": "板橋区加賀2-2-1",
        "lat": 35.755117,
        "lng": 139.715046
    },
    {
        "code": "B113211900255",
        "type": 16001,
        "name": "中根橋小学校",
        "address": "板橋区栄町14-1",
        "lat": 35.755755,
        "lng": 139.70088
    },
    {
        "code": "B113211900264",
        "type": 16001,
        "name": "上板橋小学校",
        "address": "板橋区東山町47-3",
        "lat": 35.755116,
        "lng": 139.68627
    },
    {
        "code": "B113211900273",
        "type": 16001,
        "name": "上板橋第二小学校",
        "address": "板橋区小茂根1-14-1",
        "lat": 35.747644,
        "lng": 139.680215
    },
    {
        "code": "B113211900282",
        "type": 16001,
        "name": "上板橋第四小学校",
        "address": "板橋区上板橋1-3-1",
        "lat": 35.761504,
        "lng": 139.678798
    },
    {
        "code": "B113211900291",
        "type": 16001,
        "name": "常盤台小学校",
        "address": "板橋区常盤台1-6-1",
        "lat": 35.759504,
        "lng": 139.691158
    },
    {
        "code": "B113211900308",
        "type": 16001,
        "name": "桜川小学校",
        "address": "板橋区東新町2-29-1",
        "lat": 35.755199,
        "lng": 139.678521
    },
    {
        "code": "B113211900317",
        "type": 16001,
        "name": "弥生小学校",
        "address": "板橋区弥生町19-1",
        "lat": 35.753894,
        "lng": 139.694408
    },
    {
        "code": "B113211900326",
        "type": 16001,
        "name": "大谷口小学校",
        "address": "板橋区大谷口北町21-1",
        "lat": 35.75095,
        "lng": 139.690298
    },
    {
        "code": "B113211900335",
        "type": 16001,
        "name": "向原小学校",
        "address": "板橋区向原2-34-1",
        "lat": 35.741423,
        "lng": 139.681938
    },
    {
        "code": "B113211900344",
        "type": 16001,
        "name": "赤塚小学校",
        "address": "板橋区赤塚3-1-22",
        "lat": 35.777723,
        "lng": 139.64044
    },
    {
        "code": "B113211900353",
        "type": 16001,
        "name": "成増小学校",
        "address": "板橋区成増1-11-1",
        "lat": 35.77439,
        "lng": 139.632052
    },
    {
        "code": "B113211900362",
        "type": 16001,
        "name": "紅梅小学校",
        "address": "板橋区徳丸8-10-1",
        "lat": 35.781251,
        "lng": 139.657383
    },
    {
        "code": "B113211900371",
        "type": 16001,
        "name": "北野小学校",
        "address": "板橋区徳丸3-23-1",
        "lat": 35.771669,
        "lng": 139.657022
    },
    {
        "code": "B113211900380",
        "type": 16001,
        "name": "成増ヶ丘小学校",
        "address": "板橋区成増3-17-7",
        "lat": 35.780806,
        "lng": 139.63444
    },
    {
        "code": "B113211900399",
        "type": 16001,
        "name": "下赤塚小学校",
        "address": "板橋区赤塚6-14-1",
        "lat": 35.774418,
        "lng": 139.643079
    },
    {
        "code": "B113211900406",
        "type": 16001,
        "name": "徳丸小学校",
        "address": "板橋区徳丸1-21-1",
        "lat": 35.771808,
        "lng": 139.66666
    },
    {
        "code": "B113211900415",
        "type": 16001,
        "name": "三園小学校",
        "address": "板橋区三園1-24-1",
        "lat": 35.790388,
        "lng": 139.637551
    },
    {
        "code": "B113211900424",
        "type": 16001,
        "name": "高島第一小学校",
        "address": "板橋区高島平7-24-1",
        "lat": 35.792027,
        "lng": 139.659854
    },
    {
        "code": "B113211900433",
        "type": 16001,
        "name": "高島第二小学校",
        "address": "板橋区高島平2-25-1",
        "lat": 35.785056,
        "lng": 139.661938
    },
    {
        "code": "B113211900442",
        "type": 16001,
        "name": "高島第三小学校",
        "address": "板橋区高島平4-21-1",
        "lat": 35.788944,
        "lng": 139.649994
    },
    {
        "code": "B113211900451",
        "type": 16001,
        "name": "高島第五小学校",
        "address": "板橋区高島平3-11-1",
        "lat": 35.786833,
        "lng": 139.657133
    },
    {
        "code": "B113211900460",
        "type": 16001,
        "name": "新河岸小学校",
        "address": "板橋区新河岸1-3-1",
        "lat": 35.793777,
        "lng": 139.665298
    },
    {
        "code": "B113211900479",
        "type": 16001,
        "name": "緑小学校",
        "address": "板橋区中台3-27-1",
        "lat": 35.772475,
        "lng": 139.679437
    },
    {
        "code": "B113211900488",
        "type": 16001,
        "name": "蓮根第二小学校",
        "address": "板橋区蓮根3-15-5",
        "lat": 35.78825,
        "lng": 139.677825
    },
    {
        "code": "B113211900497",
        "type": 16001,
        "name": "赤塚新町小学校",
        "address": "板橋区赤塚新町3-31-1",
        "lat": 35.769446,
        "lng": 139.635885
    },
    {
        "code": "B113211900503",
        "type": 16001,
        "name": "高島第六小学校",
        "address": "板橋区高島平1-50-1",
        "lat": 35.784751,
        "lng": 139.670798
    },
    {
        "code": "B113211900512",
        "type": 16001,
        "name": "加賀小学校",
        "address": "板橋区稲荷台23-1",
        "lat": 35.761449,
        "lng": 139.710435
    },
    {
        "code": "B113311900011",
        "type": 16001,
        "name": "淑徳小学校",
        "address": "板橋区前野町5-3-7",
        "lat": 35.769218,
        "lng": 139.686265
    },
    {
        "code": "C113211900011",
        "type": 16002,
        "name": "板橋第一中学校",
        "address": "板橋区大山東町50-1",
        "lat": 35.750422,
        "lng": 139.704797
    },
    {
        "code": "C113211900020",
        "type": 16002,
        "name": "板橋第二中学校",
        "address": "板橋区幸町26-1",
        "lat": 35.745534,
        "lng": 139.697409
    },
    {
        "code": "C113211900039",
        "type": 16002,
        "name": "板橋第三中学校",
        "address": "板橋区氷川町22-3",
        "lat": 35.7557,
        "lng": 139.706629
    },
    {
        "code": "C113211900048",
        "type": 16002,
        "name": "板橋第五中学校",
        "address": "板橋区板橋4-49-3",
        "lat": 35.752367,
        "lng": 139.719601
    },
    {
        "code": "C113211900057",
        "type": 16002,
        "name": "加賀中学校",
        "address": "板橋区加賀2-19-1",
        "lat": 35.76056,
        "lng": 139.716073
    },
    {
        "code": "C113211900066",
        "type": 16002,
        "name": "志村第一中学校",
        "address": "板橋区大原町33-1",
        "lat": 35.767254,
        "lng": 139.696991
    },
    {
        "code": "C113211900075",
        "type": 16002,
        "name": "志村第二中学校",
        "address": "板橋区小豆沢1-21-1",
        "lat": 35.775475,
        "lng": 139.702823
    },
    {
        "code": "C113211900084",
        "type": 16002,
        "name": "志村第三中学校",
        "address": "板橋区坂下2-21-1",
        "lat": 35.783501,
        "lng": 139.683547
    },
    {
        "code": "C113211900093",
        "type": 16002,
        "name": "志村第四中学校",
        "address": "板橋区志村3-15-1",
        "lat": 35.77653,
        "lng": 139.683992
    },
    {
        "code": "C113211900100",
        "type": 16002,
        "name": "西台中学校",
        "address": "板橋区高島平1-4-1",
        "lat": 35.781862,
        "lng": 139.671798
    },
    {
        "code": "C113211900119",
        "type": 16002,
        "name": "中台中学校",
        "address": "板橋区中台1-56-23",
        "lat": 35.769308,
        "lng": 139.680187
    },
    {
        "code": "C113211900128",
        "type": 16002,
        "name": "上板橋第一中学校",
        "address": "板橋区南常盤台1-1-1",
        "lat": 35.756949,
        "lng": 139.69127
    },
    {
        "code": "C113211900137",
        "type": 16002,
        "name": "上板橋第二中学校",
        "address": "板橋区小茂根1-2-1",
        "lat": 35.747311,
        "lng": 139.68091
    },
    {
        "code": "C113211900146",
        "type": 16002,
        "name": "上板橋第三中学校",
        "address": "板橋区常盤台3-30-1",
        "lat": 35.763531,
        "lng": 139.682298
    },
    {
        "code": "C113211900155",
        "type": 16002,
        "name": "桜川中学校",
        "address": "板橋区桜川1-2-1",
        "lat": 35.756143,
        "lng": 139.677132
    },
    {
        "code": "C113211900164",
        "type": 16002,
        "name": "赤塚第一中学校",
        "address": "板橋区徳丸4-13-1",
        "lat": 35.771724,
        "lng": 139.6523
    },
    {
        "code": "C113211900173",
        "type": 16002,
        "name": "赤塚第二中学校",
        "address": "板橋区成増3-18-1",
        "lat": 35.780639,
        "lng": 139.633135
    },
    {
        "code": "C113211900182",
        "type": 16002,
        "name": "赤塚第三中学校",
        "address": "板橋区赤塚7-27-15",
        "lat": 35.779751,
        "lng": 139.64805
    },
    {
        "code": "C113211900191",
        "type": 16002,
        "name": "高島第二中学校",
        "address": "板橋区高島平2-24-1",
        "lat": 35.785306,
        "lng": 139.660466
    },
    {
        "code": "C113211900208",
        "type": 16002,
        "name": "高島第一中学校",
        "address": "板橋区高島平8-26-1",
        "lat": 35.79186,
        "lng": 139.662938
    },
    {
        "code": "C113211900217",
        "type": 16002,
        "name": "高島第三中学校",
        "address": "板橋区高島平4-22-1",
        "lat": 35.788305,
        "lng": 139.651078
    },
    {
        "code": "C113211900226",
        "type": 16002,
        "name": "志村第五中学校",
        "address": "板橋区坂下2-1-20",
        "lat": 35.782335,
        "lng": 139.686158
    },
    {
        "code": "C113311900019",
        "type": 16002,
        "name": "淑徳中学校",
        "address": "板橋区前野町5-14-1",
        "lat": 35.769244,
        "lng": 139.684823
    },
    {
        "code": "C113311900028",
        "type": 16002,
        "name": "城北中学校",
        "address": "板橋区東新町2-28-1",
        "lat": 35.75653,
        "lng": 139.678548
    },
    {
        "code": "C113311900037",
        "type": 16002,
        "name": "東京家政大学附属女子中学校",
        "address": "板橋区加賀1-18-1",
        "lat": 35.755027,
        "lng": 139.719893
    },
    {
        "code": "C113311900046",
        "type": 16002,
        "name": "帝京中学校",
        "address": "板橋区稲荷台27-1",
        "lat": 35.760625,
        "lng": 139.711805
    },
    {
        "code": "C113311900055",
        "type": 16002,
        "name": "日本大学豊山女子中学校",
        "address": "板橋区中台3-15-1",
        "lat": 35.77119,
        "lng": 139.678167
    },
    {
        "code": "D113299904056",
        "type": 16004,
        "name": "北園高等学校",
        "address": "板橋区板橋4-14-1",
        "lat": 35.750839,
        "lng": 139.715934
    },
    {
        "code": "D113299904065",
        "type": 16004,
        "name": "板橋高等学校",
        "address": "板橋区大谷口1-54-1",
        "lat": 35.741756,
        "lng": 139.689576
    },
    {
        "code": "D113299904074",
        "type": 16004,
        "name": "大山高等学校",
        "address": "板橋区小茂根5-18-1",
        "lat": 35.752894,
        "lng": 139.674799
    },
    {
        "code": "D113299904083",
        "type": 16004,
        "name": "高島高等学校",
        "address": "板橋区高島平3-7-1",
        "lat": 35.786417,
        "lng": 139.653244
    },
    {
        "code": "D113299904118",
        "type": 16004,
        "name": "板橋有徳高等学校",
        "address": "板橋区徳丸2-17-1",
        "lat": 35.77255,
        "lng": 139.661381
    },
    {
        "code": "D113299904145",
        "type": 16004,
        "name": "北豊島工業高等学校",
        "address": "板橋区富士見町28-1",
        "lat": 35.761115,
        "lng": 139.696936
    },
    {
        "code": "D113311900017",
        "type": 16004,
        "name": "淑徳高等学校",
        "address": "板橋区前野町5-14-1",
        "lat": 35.769225,
        "lng": 139.684825
    },
    {
        "code": "D113311900026",
        "type": 16004,
        "name": "城北高等学校",
        "address": "板橋区東新町2-28-1",
        "lat": 35.756504,
        "lng": 139.678548
    },
    {
        "code": "D113311900035",
        "type": 16004,
        "name": "大東文化大学第一高等学校",
        "address": "板橋区高島平1-9-1",
        "lat": 35.782168,
        "lng": 139.667576
    },
    {
        "code": "D113311900044",
        "type": 16004,
        "name": "帝京高等学校",
        "address": "板橋区稲荷台27-1",
        "lat": 35.760606,
        "lng": 139.711807
    },
    {
        "code": "D113311900053",
        "type": 16004,
        "name": "東京家政大学附属女子高等学校",
        "address": "板橋区加賀1-18-1",
        "lat": 35.755023,
        "lng": 139.719919
    },
    {
        "code": "D113311900062",
        "type": 16004,
        "name": "日本大学豊山女子高等学校",
        "address": "板橋区中台3-15-1",
        "lat": 35.771169,
        "lng": 139.678159
    },
    {
        "code": "E113110000037",
        "type": 16012,
        "name": "筑波大学附属桐が丘特別支援学校",
        "address": "板橋区小茂根2-1-12",
        "lat": 35.748866,
        "lng": 139.684576
    },
    {
        "code": "E113299940077",
        "type": 16012,
        "name": "高島特別支援学校",
        "address": "板橋区高島平3-7-2",
        "lat": 35.786361,
        "lng": 139.654383
    },
    {
        "code": "E113299940228",
        "type": 16012,
        "name": "板橋特別支援学校",
        "address": "板橋区高島平9-23-22",
        "lat": 35.790833,
        "lng": 139.665548
    },
    {
        "code": "E113299940317",
        "type": 16012,
        "name": "志村学園",
        "address": "板橋区西台1-41-10",
        "lat": 35.777152,
        "lng": 139.674113
    },
    {
        "code": "F113310103180",
        "type": 16007,
        "name": "大東文化大学",
        "address": "板橋区高島平1-9-1",
        "lat": 35.782579,
        "lng": 139.668021
    },
    {
        "code": "F113310103251",
        "type": 16007,
        "name": "東京家政大学",
        "address": "板橋区加賀1-18-1",
        "lat": 35.755769,
        "lng": 139.720098
    },
    {
        "code": "F113310103769",
        "type": 16007,
        "name": "帝京大学",
        "address": "板橋区加賀2-11-1",
        "lat": 35.759033,
        "lng": 139.714934
    },
    {
        "code": "F213310104277",
        "type": 16006,
        "name": "淑徳大学短期大学部",
        "address": "板橋区前野町6-36-4",
        "lat": 35.766941,
        "lng": 139.68678
    },
    {
        "code": "F213310104357",
        "type": 16006,
        "name": "東京家政大学短期大学部",
        "address": "板橋区加賀1-18-1",
        "lat": 35.755006,
        "lng": 139.719906
    },
    {
        "code": "H113211900010",
        "type": 16016,
        "name": "板橋看護専門学校",
        "address": "板橋区栄町34-1",
        "lat": 35.751928,
        "lng": 139.700869
    },
    {
        "code": "H113311900018",
        "type": 16016,
        "name": "愛世会愛歯技工専門学校",
        "address": "板橋区加賀1-16-6",
        "lat": 35.754895,
        "lng": 139.717987
    },
    {
        "code": "H113311900027",
        "type": 16016,
        "name": "板橋区医師会立看護高等専修学校",
        "address": "板橋区高島平3-12-6",
        "lat": 35.786958,
        "lng": 139.658099
    },
    {
        "code": "H113311900045",
        "type": 16016,
        "name": "翠会成増高等看護学校",
        "address": "板橋区成増5-6-7",
        "lat": 35.784827,
        "lng": 139.630343
    },
    {
        "code": "H113311900054",
        "type": 16016,
        "name": "板橋中央看護専門学校",
        "address": "板橋区小豆沢2-6-4",
        "lat": 35.776594,
        "lng": 139.700507
    },
    {
        "code": "H113311900063",
        "type": 16016,
        "name": "日本ペットアンドアニマル専門学校",
        "address": "板橋区赤塚新町3-17-17",
        "lat": 35.773929,
        "lng": 139.635021
    },
    {
        "code": "H113311900072",
        "type": 16016,
        "name": "彰栄リハビリテーション専門学校",
        "address": "板橋区板橋1-42-15",
        "lat": 35.748904,
        "lng": 139.71671
    },
    {
        "code": "H113311900081",
        "type": 16016,
        "name": "帝京高等看護学院",
        "address": "板橋区加賀2-10-1",
        "lat": 35.758541,
        "lng": 139.712397
    },
    {
        "code": "H113311900090",
        "type": 16016,
        "name": "日本大学医学部附属看護専門学校",
        "address": "板橋区大谷口上町71-12",
        "lat": 35.747764,
        "lng": 139.689431
    },
    {
        "code": "H113311900107",
        "type": 16016,
        "name": "上板橋看護専門学校",
        "address": "板橋区上板橋3-11-6",
        "lat": 35.765366,
        "lng": 139.674711
    },
    {
        "code": "H113311900116",
        "type": 16016,
        "name": "日本ウェルネス歯科衛生専門学校",
        "address": "板橋区成増1-2-5",
        "lat": 35.774024,
        "lng": 139.633875
    },
    {
        "code": "H113311900125",
        "type": 16016,
        "name": "資生堂美容技術専門学校",
        "address": "板橋区加賀2-15-1",
        "lat": 35.756605,
        "lng": 139.715968
    },
    {
        "code": "H213311900017",
        "type": 16015,
        "name": "富士日本語学校",
        "address": "板橋区板橋2-10-6",
        "lat": 35.746993,
        "lng": 139.711186
    },
    {
        "code": "H213311900026",
        "type": 16015,
        "name": "落合珠算学校",
        "address": "板橋区板橋2-20-1",
        "lat": 35.748563,
        "lng": 139.709012
    },
    {
        "code": "H213311900035",
        "type": 16015,
        "name": "東京朝鮮第３初級学校",
        "address": "板橋区大山西町67-1",
        "lat": 35.748179,
        "lng": 139.694272
    },
    {
        "code": "H213311900044",
        "type": 16015,
        "name": "淑徳日本語学校",
        "address": "板橋区前野町5-24-8",
        "lat": 35.769322,
        "lng": 139.68707
    }
]