[
    {
        "code": "A113211600018",
        "type": 16011,
        "name": "西巣鴨幼稚園",
        "address": "豊島区西巣鴨2-14-11",
        "lat": 35.738817,
        "lng": 139.727833
    },
    {
        "code": "A113211600027",
        "type": 16011,
        "name": "南長崎幼稚園",
        "address": "豊島区南長崎4-12-7",
        "lat": 35.724733,
        "lng": 139.684886
    },
    {
        "code": "A113211600036",
        "type": 16011,
        "name": "池袋幼稚園",
        "address": "豊島区池袋3-30-22",
        "lat": 35.735441,
        "lng": 139.705172
    },
    {
        "code": "A113311600016",
        "type": 16011,
        "name": "川村幼稚園",
        "address": "豊島区目白2-20-24",
        "lat": 35.722629,
        "lng": 139.710128
    },
    {
        "code": "A113311600025",
        "type": 16011,
        "name": "東京音楽大学付属幼稚園",
        "address": "豊島区南池袋3-4-5",
        "lat": 35.72347,
        "lng": 139.715312
    },
    {
        "code": "A113311600034",
        "type": 16011,
        "name": "学習院幼稚園",
        "address": "豊島区目白1-5-1",
        "lat": 35.719961,
        "lng": 139.710166
    },
    {
        "code": "A113311600043",
        "type": 16011,
        "name": "豊南幼稚園",
        "address": "豊島区高松3-6-7",
        "lat": 35.740868,
        "lng": 139.697156
    },
    {
        "code": "A113311600052",
        "type": 16011,
        "name": "もみじ幼稚園",
        "address": "豊島区駒込4-11-1",
        "lat": 35.737635,
        "lng": 139.741076
    },
    {
        "code": "A113311600061",
        "type": 16011,
        "name": "目白幼稚園",
        "address": "豊島区目白2-38-4",
        "lat": 35.721941,
        "lng": 139.707272
    },
    {
        "code": "A113311600070",
        "type": 16011,
        "name": "長崎幼稚園",
        "address": "豊島区長崎4-36-1",
        "lat": 35.731319,
        "lng": 139.68551
    },
    {
        "code": "A113311600089",
        "type": 16011,
        "name": "白鳩幼稚園",
        "address": "豊島区巣鴨4-16-5",
        "lat": 35.737269,
        "lng": 139.731835
    },
    {
        "code": "A113311600098",
        "type": 16011,
        "name": "草苑幼稚園",
        "address": "豊島区目白3-17-11",
        "lat": 35.724235,
        "lng": 139.706754
    },
    {
        "code": "A113311600105",
        "type": 16011,
        "name": "池袋いづみ幼稚園",
        "address": "豊島区池袋4-2-10",
        "lat": 35.737139,
        "lng": 139.709487
    },
    {
        "code": "A113311600114",
        "type": 16011,
        "name": "要町幼稚園",
        "address": "豊島区要町1-43-15",
        "lat": 35.736786,
        "lng": 139.697758
    },
    {
        "code": "A113311600123",
        "type": 16011,
        "name": "雑司ヶ谷幼稚園",
        "address": "豊島区雑司が谷1-25-1",
        "lat": 35.720651,
        "lng": 139.720194
    },
    {
        "code": "A113311600132",
        "type": 16011,
        "name": "愛心幼稚園",
        "address": "豊島区目白5-7-6",
        "lat": 35.723114,
        "lng": 139.69366
    },
    {
        "code": "A113311600141",
        "type": 16011,
        "name": "池袋幼稚園",
        "address": "豊島区西池袋1-10-9",
        "lat": 35.729642,
        "lng": 139.708596
    },
    {
        "code": "A113311600150",
        "type": 16011,
        "name": "こざくら幼稚園",
        "address": "豊島区池袋本町4-4-11",
        "lat": 35.742346,
        "lng": 139.715713
    },
    {
        "code": "A113311600169",
        "type": 16011,
        "name": "並木幼稚園",
        "address": "豊島区長崎1-8-1",
        "lat": 35.727861,
        "lng": 139.69454
    },
    {
        "code": "A113311600178",
        "type": 16011,
        "name": "聖パトリック幼稚園",
        "address": "豊島区長崎1-28-22",
        "lat": 35.729537,
        "lng": 139.696876
    },
    {
        "code": "B113211600016",
        "type": 16001,
        "name": "仰高小学校",
        "address": "豊島区駒込5-1-19",
        "lat": 35.736508,
        "lng": 139.738628
    },
    {
        "code": "B113211600025",
        "type": 16001,
        "name": "駒込小学校",
        "address": "豊島区駒込3-13-1",
        "lat": 35.738341,
        "lng": 139.742961
    },
    {
        "code": "B113211600034",
        "type": 16001,
        "name": "巣鴨小学校",
        "address": "豊島区南大塚1-24-10",
        "lat": 35.728676,
        "lng": 139.734517
    },
    {
        "code": "B113211600043",
        "type": 16001,
        "name": "清和小学校",
        "address": "豊島区巣鴨3-14-1",
        "lat": 35.735897,
        "lng": 139.733045
    },
    {
        "code": "B113211600052",
        "type": 16001,
        "name": "西巣鴨小学校",
        "address": "豊島区西巣鴨1-27-1",
        "lat": 35.738647,
        "lng": 139.726462
    },
    {
        "code": "B113211600061",
        "type": 16001,
        "name": "豊成小学校",
        "address": "豊島区上池袋1-18-24",
        "lat": 35.734952,
        "lng": 139.722074
    },
    {
        "code": "B113211600070",
        "type": 16001,
        "name": "朝日小学校",
        "address": "豊島区巣鴨5-33-1",
        "lat": 35.741035,
        "lng": 139.733239
    },
    {
        "code": "B113211600089",
        "type": 16001,
        "name": "池袋第一小学校",
        "address": "豊島区池袋本町4-36-1",
        "lat": 35.744385,
        "lng": 139.714482
    },
    {
        "code": "B113211600098",
        "type": 16001,
        "name": "池袋第三小学校",
        "address": "豊島区西池袋3-14-3",
        "lat": 35.72848,
        "lng": 139.702853
    },
    {
        "code": "B113211600105",
        "type": 16001,
        "name": "高南小学校",
        "address": "豊島区高田2-12-7",
        "lat": 35.716454,
        "lng": 139.713992
    },
    {
        "code": "B113211600114",
        "type": 16001,
        "name": "目白小学校",
        "address": "豊島区目白2-11-6",
        "lat": 35.720893,
        "lng": 139.709123
    },
    {
        "code": "B113211600123",
        "type": 16001,
        "name": "長崎小学校",
        "address": "豊島区長崎2-6-3",
        "lat": 35.728647,
        "lng": 139.690104
    },
    {
        "code": "B113211600132",
        "type": 16001,
        "name": "椎名町小学校",
        "address": "豊島区南長崎4-30-5",
        "lat": 35.726675,
        "lng": 139.685521
    },
    {
        "code": "B113211600141",
        "type": 16001,
        "name": "富士見台小学校",
        "address": "豊島区南長崎1-10-5",
        "lat": 35.724675,
        "lng": 139.693215
    },
    {
        "code": "B113211600150",
        "type": 16001,
        "name": "千早小学校",
        "address": "豊島区千早3-33-5",
        "lat": 35.734957,
        "lng": 139.687347
    },
    {
        "code": "B113211600169",
        "type": 16001,
        "name": "高松小学校",
        "address": "豊島区高松2-57-22",
        "lat": 35.739535,
        "lng": 139.697159
    },
    {
        "code": "B113211600178",
        "type": 16001,
        "name": "要小学校",
        "address": "豊島区要町2-3-20",
        "lat": 35.734396,
        "lng": 139.693743
    },
    {
        "code": "B113211600187",
        "type": 16001,
        "name": "南池袋小学校",
        "address": "豊島区南池袋3-18-12",
        "lat": 35.724151,
        "lng": 139.714689
    },
    {
        "code": "B113211600196",
        "type": 16001,
        "name": "さくら小学校",
        "address": "豊島区長崎6-16-1",
        "lat": 35.736007,
        "lng": 139.680022
    },
    {
        "code": "B113211600203",
        "type": 16001,
        "name": "朋有小学校",
        "address": "豊島区東池袋4-40-1",
        "lat": 35.728953,
        "lng": 139.723601
    },
    {
        "code": "B113211600212",
        "type": 16001,
        "name": "池袋小学校",
        "address": "豊島区池袋4-23-8",
        "lat": 35.737813,
        "lng": 139.70938
    },
    {
        "code": "B113211600221",
        "type": 16001,
        "name": "池袋本町小学校",
        "address": "豊島区池袋本町1-43-1",
        "lat": 35.74084,
        "lng": 139.714657
    },
    {
        "code": "B113311600014",
        "type": 16001,
        "name": "川村小学校",
        "address": "豊島区目白2-22-3",
        "lat": 35.721537,
        "lng": 139.708992
    },
    {
        "code": "B113311600023",
        "type": 16001,
        "name": "立教小学校",
        "address": "豊島区西池袋3-36-26",
        "lat": 35.730147,
        "lng": 139.70052
    },
    {
        "code": "C113211600014",
        "type": 16002,
        "name": "駒込中学校",
        "address": "豊島区駒込4-5-1",
        "lat": 35.735953,
        "lng": 139.741988
    },
    {
        "code": "C113211600023",
        "type": 16002,
        "name": "西巣鴨中学校",
        "address": "豊島区南大塚3-18-1",
        "lat": 35.728953,
        "lng": 139.727212
    },
    {
        "code": "C113211600032",
        "type": 16002,
        "name": "池袋中学校",
        "address": "豊島区池袋本町1-43-1",
        "lat": 35.740727,
        "lng": 139.714652
    },
    {
        "code": "C113211600041",
        "type": 16002,
        "name": "千川中学校",
        "address": "豊島区高松1-9-21",
        "lat": 35.736091,
        "lng": 139.699964
    },
    {
        "code": "C113211600050",
        "type": 16002,
        "name": "千登世橋中学校",
        "address": "豊島区目白1-1-1",
        "lat": 35.717425,
        "lng": 139.711955
    },
    {
        "code": "C113211600069",
        "type": 16002,
        "name": "巣鴨北中学校",
        "address": "豊島区西巣鴨3-17-1",
        "lat": 35.741591,
        "lng": 139.728795
    },
    {
        "code": "C113211600078",
        "type": 16002,
        "name": "明豊中学校",
        "address": "豊島区長崎5-31-29",
        "lat": 35.736007,
        "lng": 139.684382
    },
    {
        "code": "C113211600087",
        "type": 16002,
        "name": "西池袋中学校",
        "address": "豊島区西池袋4-7-1",
        "lat": 35.727592,
        "lng": 139.699992
    },
    {
        "code": "C113311600012",
        "type": 16002,
        "name": "川村中学校",
        "address": "豊島区目白2-22-3",
        "lat": 35.721385,
        "lng": 139.707909
    },
    {
        "code": "C113311600021",
        "type": 16002,
        "name": "巣鴨中学校",
        "address": "豊島区上池袋1-21-1",
        "lat": 35.736147,
        "lng": 139.721712
    },
    {
        "code": "C113311600030",
        "type": 16002,
        "name": "十文字中学校",
        "address": "豊島区北大塚1-10-33",
        "lat": 35.732671,
        "lng": 139.734019
    },
    {
        "code": "C113311600049",
        "type": 16002,
        "name": "豊島岡女子学園中学校",
        "address": "豊島区東池袋1-25-22",
        "lat": 35.728144,
        "lng": 139.716658
    },
    {
        "code": "C113311600058",
        "type": 16002,
        "name": "学習院中等科",
        "address": "豊島区目白1-5-1",
        "lat": 35.719315,
        "lng": 139.711797
    },
    {
        "code": "C113311600067",
        "type": 16002,
        "name": "城西大学附属城西中学校",
        "address": "豊島区千早1-10-26",
        "lat": 35.731598,
        "lng": 139.694378
    },
    {
        "code": "C113311600076",
        "type": 16002,
        "name": "本郷中学校",
        "address": "豊島区駒込4-11-1",
        "lat": 35.73631,
        "lng": 139.740822
    },
    {
        "code": "C113311600085",
        "type": 16002,
        "name": "立教池袋中学校",
        "address": "豊島区西池袋5-16-5",
        "lat": 35.73121,
        "lng": 139.701993
    },
    {
        "code": "C113311600094",
        "type": 16002,
        "name": "淑徳巣鴨中学校",
        "address": "豊島区西巣鴨2-22-16",
        "lat": 35.741337,
        "lng": 139.72626
    },
    {
        "code": "D113299904038",
        "type": 16004,
        "name": "豊島高等学校",
        "address": "豊島区千早4-9-21",
        "lat": 35.738689,
        "lng": 139.683099
    },
    {
        "code": "D113299904047",
        "type": 16004,
        "name": "文京高等学校",
        "address": "豊島区西巣鴨1-1-5",
        "lat": 35.736091,
        "lng": 139.728795
    },
    {
        "code": "D113299904127",
        "type": 16004,
        "name": "千早高等学校",
        "address": "豊島区千早3-46-21",
        "lat": 35.736302,
        "lng": 139.685541
    },
    {
        "code": "D113311600010",
        "type": 16004,
        "name": "学習院高等科",
        "address": "豊島区目白1-5-1",
        "lat": 35.719398,
        "lng": 139.710936
    },
    {
        "code": "D113311600029",
        "type": 16004,
        "name": "川村高等学校",
        "address": "豊島区目白2-22-3",
        "lat": 35.72137,
        "lng": 139.707909
    },
    {
        "code": "D113311600038",
        "type": 16004,
        "name": "十文字高等学校",
        "address": "豊島区北大塚1-10-33",
        "lat": 35.732647,
        "lng": 139.734017
    },
    {
        "code": "D113311600047",
        "type": 16004,
        "name": "城西大学附属城西高等学校",
        "address": "豊島区千早1-10-26",
        "lat": 35.731572,
        "lng": 139.694378
    },
    {
        "code": "D113311600056",
        "type": 16004,
        "name": "昭和鉄道高等学校",
        "address": "豊島区池袋本町2-10-1",
        "lat": 35.740285,
        "lng": 139.70963
    },
    {
        "code": "D113311600065",
        "type": 16004,
        "name": "巣鴨高等学校",
        "address": "豊島区上池袋1-21-1",
        "lat": 35.735813,
        "lng": 139.722157
    },
    {
        "code": "D113311600074",
        "type": 16004,
        "name": "巣鴨商業高等学校",
        "address": "豊島区上池袋1-21-1",
        "lat": 35.735827,
        "lng": 139.72144
    },
    {
        "code": "D113311600083",
        "type": 16004,
        "name": "淑徳巣鴨高等学校",
        "address": "豊島区西巣鴨2-22-16",
        "lat": 35.74148,
        "lng": 139.726212
    },
    {
        "code": "D113311600092",
        "type": 16004,
        "name": "東京音楽大学付属高等学校",
        "address": "豊島区南池袋3-4-5",
        "lat": 35.723126,
        "lng": 139.714353
    },
    {
        "code": "D113311600109",
        "type": 16004,
        "name": "豊島学院高等学校",
        "address": "豊島区池袋本町2-10-1",
        "lat": 35.74109,
        "lng": 139.709963
    },
    {
        "code": "D113311600118",
        "type": 16004,
        "name": "豊島岡女子学園高等学校",
        "address": "豊島区東池袋1-25-22",
        "lat": 35.72812,
        "lng": 139.716658
    },
    {
        "code": "D113311600127",
        "type": 16004,
        "name": "豊南高等学校",
        "address": "豊島区高松3-6-7",
        "lat": 35.740812,
        "lng": 139.697186
    },
    {
        "code": "D113311600136",
        "type": 16004,
        "name": "本郷高等学校",
        "address": "豊島区駒込4-11-1",
        "lat": 35.736286,
        "lng": 139.740822
    },
    {
        "code": "D113311600145",
        "type": 16004,
        "name": "立教池袋高等学校",
        "address": "豊島区西池袋5-16-5",
        "lat": 35.731182,
        "lng": 139.701995
    },
    {
        "code": "E113299920017",
        "type": 16012,
        "name": "大塚ろう学校",
        "address": "豊島区巣鴨4-20-8",
        "lat": 35.736425,
        "lng": 139.7321
    },
    {
        "code": "F113310102840",
        "type": 16007,
        "name": "東京福祉大学",
        "address": "豊島区東池袋4-23-1",
        "lat": 35.727833,
        "lng": 139.718343
    },
    {
        "code": "F113310102911",
        "type": 16007,
        "name": "帝京平成大学",
        "address": "豊島区東池袋2-51-4",
        "lat": 35.733035,
        "lng": 139.719268
    },
    {
        "code": "F113310102957",
        "type": 16007,
        "name": "学習院大学",
        "address": "豊島区目白1-5-1",
        "lat": 35.718815,
        "lng": 139.708825
    },
    {
        "code": "F113310103171",
        "type": 16007,
        "name": "大正大学",
        "address": "豊島区西巣鴨3-20-1",
        "lat": 35.74198,
        "lng": 139.727906
    },
    {
        "code": "F113310103563",
        "type": 16007,
        "name": "立教大学",
        "address": "豊島区西池袋3-34-1",
        "lat": 35.730119,
        "lng": 139.702298
    },
    {
        "code": "F213310104286",
        "type": 16006,
        "name": "女子栄養大学短期大学部",
        "address": "豊島区駒込3-24-3",
        "lat": 35.739036,
        "lng": 139.745682
    },
    {
        "code": "F213310104366",
        "type": 16006,
        "name": "東京交通短期大学",
        "address": "豊島区池袋本町2-5-15",
        "lat": 35.73992,
        "lng": 139.709306
    },
    {
        "code": "H113311600011",
        "type": 16016,
        "name": "東京教育専門学校",
        "address": "豊島区目白2-38-4",
        "lat": 35.72207,
        "lng": 139.707342
    },
    {
        "code": "H113311600020",
        "type": 16016,
        "name": "赤堀製菓専門学校",
        "address": "豊島区目白3-1-31",
        "lat": 35.72043,
        "lng": 139.705794
    },
    {
        "code": "H113311600039",
        "type": 16016,
        "name": "東京服飾専門学校",
        "address": "豊島区巣鴨1-19-7",
        "lat": 35.732001,
        "lng": 139.739709
    },
    {
        "code": "H113311600048",
        "type": 16016,
        "name": "香川調理製菓専門学校",
        "address": "豊島区駒込3-24-3",
        "lat": 35.739133,
        "lng": 139.745421
    },
    {
        "code": "H113311600057",
        "type": 16016,
        "name": "第一幼児教育専門学校",
        "address": "豊島区東池袋3-20-15",
        "lat": 35.730737,
        "lng": 139.720396
    },
    {
        "code": "H113311600066",
        "type": 16016,
        "name": "城西放射線技術専門学校",
        "address": "豊島区千早1-10-26",
        "lat": 35.731699,
        "lng": 139.694838
    },
    {
        "code": "H113311600075",
        "type": 16016,
        "name": "東京総合美容専門学校",
        "address": "豊島区南池袋2-8-7",
        "lat": 35.725359,
        "lng": 139.715111
    },
    {
        "code": "H113311600084",
        "type": 16016,
        "name": "東京電子専門学校",
        "address": "豊島区東池袋3-6-1",
        "lat": 35.731842,
        "lng": 139.717296
    },
    {
        "code": "H113311600093",
        "type": 16016,
        "name": "武蔵野調理師専門学校",
        "address": "豊島区南池袋3-12-5",
        "lat": 35.725078,
        "lng": 139.711665
    },
    {
        "code": "H113311600100",
        "type": 16016,
        "name": "武蔵野栄養専門学校",
        "address": "豊島区南池袋3-12-5",
        "lat": 35.725324,
        "lng": 139.711595
    },
    {
        "code": "H113311600119",
        "type": 16016,
        "name": "武蔵野ファッションカレッジ",
        "address": "豊島区南池袋3-12-5",
        "lat": 35.724537,
        "lng": 139.711972
    },
    {
        "code": "H113311600128",
        "type": 16016,
        "name": "早稲田速記医療福祉専門学校",
        "address": "豊島区高田3-11-17",
        "lat": 35.713946,
        "lng": 139.705629
    },
    {
        "code": "H113311600137",
        "type": 16016,
        "name": "早稲田文理専門学校",
        "address": "豊島区高田2-6-7",
        "lat": 35.715271,
        "lng": 139.712367
    },
    {
        "code": "H113311600146",
        "type": 16016,
        "name": "東京ビジネス外語カレッジ",
        "address": "豊島区南池袋1-13-13",
        "lat": 35.726036,
        "lng": 139.710365
    },
    {
        "code": "H113311600155",
        "type": 16016,
        "name": "創形美術学校",
        "address": "豊島区西池袋3-31-2",
        "lat": 35.730897,
        "lng": 139.705864
    },
    {
        "code": "H113311600164",
        "type": 16016,
        "name": "日本外国語専門学校",
        "address": "豊島区目白3-1-30",
        "lat": 35.720559,
        "lng": 139.705999
    },
    {
        "code": "H113311600173",
        "type": 16016,
        "name": "駿台トラベルアンドホテル専門学校",
        "address": "豊島区巣鴨1-15-2",
        "lat": 35.733377,
        "lng": 139.74048
    },
    {
        "code": "H113311600182",
        "type": 16016,
        "name": "すいどーばた美術学院",
        "address": "豊島区西池袋4-2-15",
        "lat": 35.726636,
        "lng": 139.70212
    },
    {
        "code": "H113311600191",
        "type": 16016,
        "name": "草苑保育専門学校",
        "address": "豊島区目白3-17-11",
        "lat": 35.724307,
        "lng": 139.706612
    },
    {
        "code": "H113311600208",
        "type": 16016,
        "name": "東京豊島ＩＴ医療福祉専門学校",
        "address": "豊島区南池袋2-8-9",
        "lat": 35.725601,
        "lng": 139.71531
    },
    {
        "code": "H113311600217",
        "type": 16016,
        "name": "学技術専門学校東京池袋校",
        "address": "豊島区東池袋3-9-3",
        "lat": 35.732364,
        "lng": 139.718013
    },
    {
        "code": "H113311600226",
        "type": 16016,
        "name": "ミス・パリ・ビューティ専門学校",
        "address": "豊島区池袋2-23-3",
        "lat": 35.733243,
        "lng": 139.70452
    },
    {
        "code": "H113311600235",
        "type": 16016,
        "name": "東京日建工科専門学校",
        "address": "豊島区池袋2-55-10",
        "lat": 35.734274,
        "lng": 139.707958
    },
    {
        "code": "H113311600244",
        "type": 16016,
        "name": "東京福祉保育専門学校",
        "address": "豊島区東池袋4-23-4",
        "lat": 35.727956,
        "lng": 139.718143
    },
    {
        "code": "H113311600253",
        "type": 16016,
        "name": "東京グローバルビジネス専門学校",
        "address": "豊島区南池袋3-18-41",
        "lat": 35.72442,
        "lng": 139.715613
    },
    {
        "code": "H113311600262",
        "type": 16016,
        "name": "インターナショナル・スクールオブビジネス",
        "address": "豊島区巣鴨3-8-1",
        "lat": 35.733722,
        "lng": 139.733131
    },
    {
        "code": "H113311600271",
        "type": 16016,
        "name": "河合塾池袋校",
        "address": "豊島区西池袋1-3-12",
        "lat": 35.727859,
        "lng": 139.709555
    },
    {
        "code": "H113311600280",
        "type": 16016,
        "name": "英進情報処理専門学校",
        "address": "豊島区東池袋4-23-12",
        "lat": 35.728167,
        "lng": 139.718091
    },
    {
        "code": "H113311600299",
        "type": 16016,
        "name": "ＪＴＢトラベル＆ホテルカレッジ",
        "address": "豊島区巣鴨3-2-12",
        "lat": 35.732775,
        "lng": 139.73642
    },
    {
        "code": "H113311600306",
        "type": 16016,
        "name": "駿台予備学校池袋校",
        "address": "豊島区南池袋2-19-8",
        "lat": 35.72632,
        "lng": 139.713783
    },
    {
        "code": "H113311600315",
        "type": 16016,
        "name": "中央法律専門学校",
        "address": "豊島区南池袋2-1-6",
        "lat": 35.724659,
        "lng": 139.71803
    },
    {
        "code": "H113311600324",
        "type": 16016,
        "name": "舞台芸術学院",
        "address": "豊島区西池袋3-5-19",
        "lat": 35.728517,
        "lng": 139.705353
    },
    {
        "code": "H113311600333",
        "type": 16016,
        "name": "大原情報ビジネス専門学校",
        "address": "豊島区東池袋1-20-17",
        "lat": 35.731267,
        "lng": 139.715835
    },
    {
        "code": "H113311600342",
        "type": 16016,
        "name": "東京心理音楽療法福祉専門学校",
        "address": "豊島区目白5-20-24",
        "lat": 35.724419,
        "lng": 139.69562
    },
    {
        "code": "H113311600351",
        "type": 16016,
        "name": "英進国際情報専門学校",
        "address": "豊島区北大塚1-9-16",
        "lat": 35.730713,
        "lng": 139.720375
    },
    {
        "code": "H113311600360",
        "type": 16016,
        "name": "デジタルアーツ東京",
        "address": "豊島区西池袋2-38-8",
        "lat": 35.727888,
        "lng": 139.70733
    },
    {
        "code": "H113311600379",
        "type": 16016,
        "name": "日本医療ビジネス大学校",
        "address": "豊島区南大塚1-58-7",
        "lat": 35.730433,
        "lng": 139.732061
    },
    {
        "code": "H113311600388",
        "type": 16016,
        "name": "東京フード製菓中医薬専門学校",
        "address": "豊島区雑司が谷3-16-5",
        "lat": 35.721318,
        "lng": 139.714125
    },
    {
        "code": "H113311600397",
        "type": 16016,
        "name": "日本リハビリテーション専門学校",
        "address": "豊島区高田3-6-18",
        "lat": 35.714445,
        "lng": 139.708338
    },
    {
        "code": "H213311600010",
        "type": 16015,
        "name": "駿河台洋和裁学院",
        "address": "豊島区高田3-10-21",
        "lat": 35.699223,
        "lng": 139.763284
    },
    {
        "code": "H213311600029",
        "type": 16015,
        "name": "千駄ヶ谷外語学院",
        "address": "豊島区駒込1-13-11",
        "lat": 35.735076,
        "lng": 139.749061
    },
    {
        "code": "H213311600038",
        "type": 16015,
        "name": "中央聖書神学校",
        "address": "豊島区駒込3-15-20",
        "lat": 35.737949,
        "lng": 139.744199
    },
    {
        "code": "H213311600047",
        "type": 16015,
        "name": "東京編物技芸学校",
        "address": "豊島区長崎1-2-4",
        "lat": 35.726763,
        "lng": 139.694771
    },
    {
        "code": "H213311600056",
        "type": 16015,
        "name": "帝京平成大学附属日本語学校",
        "address": "豊島区東池袋4-26-10",
        "lat": 35.728575,
        "lng": 139.718196
    },
    {
        "code": "H213311600065",
        "type": 16015,
        "name": "ニューインターナショナルスクールオブジャパン",
        "address": "豊島区南池袋3-18-32",
        "lat": 35.724974,
        "lng": 139.714351
    },
    {
        "code": "H213311600074",
        "type": 16015,
        "name": "武蔵高等予備校",
        "address": "豊島区南池袋3-13-15",
        "lat": 35.726351,
        "lng": 139.712253
    },
    {
        "code": "H213311600083",
        "type": 16015,
        "name": "メロス言語学院",
        "address": "豊島区東池袋2-45-7",
        "lat": 35.732395,
        "lng": 139.719929
    },
    {
        "code": "H213311600092",
        "type": 16015,
        "name": "ＩＳＩ外語カレッジ",
        "address": "豊島区南池袋1-13-13",
        "lat": 35.726098,
        "lng": 139.710369
    }
]