[
    {
        "code": "A113211500019",
        "type": 16011,
        "name": "下高井戸子供園",
        "address": "杉並区下高井戸4-38-15",
        "lat": 35.674389,
        "lng": 139.63018
    },
    {
        "code": "A113211500028",
        "type": 16011,
        "name": "高円寺北子供園",
        "address": "杉並区高円寺北2-14-13",
        "lat": 35.706873,
        "lng": 139.653835
    },
    {
        "code": "A113211500037",
        "type": 16011,
        "name": "成田西子供園",
        "address": "杉並区成田西2-24-21",
        "lat": 35.690556,
        "lng": 139.631379
    },
    {
        "code": "A113211500046",
        "type": 16011,
        "name": "高井戸西子供園",
        "address": "杉並区高井戸西3-15-4",
        "lat": 35.688282,
        "lng": 139.610554
    },
    {
        "code": "A113211500055",
        "type": 16011,
        "name": "堀ノ内子供園",
        "address": "杉並区堀ﾉ内1-9-26",
        "lat": 35.683503,
        "lng": 139.651045
    },
    {
        "code": "A113211500064",
        "type": 16011,
        "name": "西荻北子供園",
        "address": "杉並区西荻北1-19-22",
        "lat": 35.707766,
        "lng": 139.607093
    },
    {
        "code": "A113311500017",
        "type": 16011,
        "name": "國學院大學附属幼稚園",
        "address": "杉並区久我山1-9-1",
        "lat": 35.682707,
        "lng": 139.593973
    },
    {
        "code": "A113311500026",
        "type": 16011,
        "name": "日本大学幼稚園",
        "address": "杉並区天沼1-31-14",
        "lat": 35.707791,
        "lng": 139.627631
    },
    {
        "code": "A113311500035",
        "type": 16011,
        "name": "高千穂幼稚園",
        "address": "杉並区大宮2-19-1",
        "lat": 35.682067,
        "lng": 139.63897
    },
    {
        "code": "A113311500044",
        "type": 16011,
        "name": "光塩女子学院幼稚園",
        "address": "杉並区高円寺南5-11-35",
        "lat": 35.701577,
        "lng": 139.658869
    },
    {
        "code": "A113311500053",
        "type": 16011,
        "name": "玉成幼稚園",
        "address": "杉並区松庵1-9-33",
        "lat": 35.694163,
        "lng": 139.592354
    },
    {
        "code": "A113311500062",
        "type": 16011,
        "name": "のぞみ幼稚園",
        "address": "杉並区阿佐谷北6-25-17",
        "lat": 35.714597,
        "lng": 139.637826
    },
    {
        "code": "A113311500071",
        "type": 16011,
        "name": "聖心学園幼稚園",
        "address": "杉並区高円寺南2-32-30",
        "lat": 35.69935,
        "lng": 139.652709
    },
    {
        "code": "A113311500080",
        "type": 16011,
        "name": "阿佐谷幼稚園",
        "address": "杉並区阿佐谷北5-13-2",
        "lat": 35.709748,
        "lng": 139.641977
    },
    {
        "code": "A113311500099",
        "type": 16011,
        "name": "八幡幼稚園",
        "address": "杉並区善福寺1-33-11",
        "lat": 35.716226,
        "lng": 139.594516
    },
    {
        "code": "A113311500106",
        "type": 16011,
        "name": "ひこばえ幼稚園",
        "address": "杉並区井草1-45-15",
        "lat": 35.729673,
        "lng": 139.623804
    },
    {
        "code": "A113311500115",
        "type": 16011,
        "name": "観泉寺幼稚園",
        "address": "杉並区今川2-20-7",
        "lat": 35.718618,
        "lng": 139.606856
    },
    {
        "code": "A113311500124",
        "type": 16011,
        "name": "西荻学園幼稚園",
        "address": "杉並区西荻北2-11-3",
        "lat": 35.705362,
        "lng": 139.601254
    },
    {
        "code": "A113311500133",
        "type": 16011,
        "name": "西荻まこと幼稚園",
        "address": "杉並区松庵3-37-14",
        "lat": 35.702261,
        "lng": 139.598644
    },
    {
        "code": "A113311500142",
        "type": 16011,
        "name": "大宮幼稚園",
        "address": "杉並区大宮2-3-1",
        "lat": 35.682065,
        "lng": 139.640688
    },
    {
        "code": "A113311500151",
        "type": 16011,
        "name": "世尊院幼稚園",
        "address": "杉並区阿佐谷北1-26-18",
        "lat": 35.707392,
        "lng": 139.636388
    },
    {
        "code": "A113311500160",
        "type": 16011,
        "name": "杉並教会幼稚園",
        "address": "杉並区和田3-48-8",
        "lat": 35.697008,
        "lng": 139.658928
    },
    {
        "code": "A113311500179",
        "type": 16011,
        "name": "井荻聖母幼稚園",
        "address": "杉並区井草4-19-21",
        "lat": 35.728475,
        "lng": 139.61268
    },
    {
        "code": "A113311500188",
        "type": 16011,
        "name": "左内坂幼稚園",
        "address": "杉並区堀ﾉ内3-8-4",
        "lat": 35.690411,
        "lng": 139.65077
    },
    {
        "code": "A113311500197",
        "type": 16011,
        "name": "レストナック幼稚園",
        "address": "杉並区和泉2-41-18",
        "lat": 35.676668,
        "lng": 139.652407
    },
    {
        "code": "A113311500204",
        "type": 16011,
        "name": "角笛幼稚園",
        "address": "杉並区高井戸西1-27-18",
        "lat": 35.682289,
        "lng": 139.614464
    },
    {
        "code": "A113311500213",
        "type": 16011,
        "name": "ちどり幼稚園",
        "address": "杉並区下井草2-30-9",
        "lat": 35.721462,
        "lng": 139.62686
    },
    {
        "code": "A113311500222",
        "type": 16011,
        "name": "富士幼稚園",
        "address": "杉並区南荻窪4-5-7",
        "lat": 35.698826,
        "lng": 139.614248
    },
    {
        "code": "A113311500231",
        "type": 16011,
        "name": "井草幼稚園",
        "address": "杉並区善福寺1-17-1",
        "lat": 35.713329,
        "lng": 139.598715
    },
    {
        "code": "A113311500240",
        "type": 16011,
        "name": "和泉町幼稚園",
        "address": "杉並区和泉2-25-7",
        "lat": 35.672541,
        "lng": 139.652154
    },
    {
        "code": "A113311500259",
        "type": 16011,
        "name": "久我山幼稚園",
        "address": "杉並区久我山3-37-24",
        "lat": 35.688846,
        "lng": 139.596942
    },
    {
        "code": "A113311500268",
        "type": 16011,
        "name": "明愛幼稚園",
        "address": "杉並区和田1-61-18",
        "lat": 35.694694,
        "lng": 139.664402
    },
    {
        "code": "A113311500277",
        "type": 16011,
        "name": "桃井幼稚園",
        "address": "杉並区清水2-18-16",
        "lat": 35.714543,
        "lng": 139.614961
    },
    {
        "code": "A113311500286",
        "type": 16011,
        "name": "杉並東洋幼稚園",
        "address": "杉並区成田東3-7-36",
        "lat": 35.693147,
        "lng": 139.638549
    },
    {
        "code": "A113311500295",
        "type": 16011,
        "name": "杉並央文幼稚園",
        "address": "杉並区高円寺南5-37-15",
        "lat": 35.704949,
        "lng": 139.659061
    },
    {
        "code": "A113311500302",
        "type": 16011,
        "name": "杉並幼稚園",
        "address": "杉並区阿佐谷南2-4-36",
        "lat": 35.702687,
        "lng": 139.642492
    },
    {
        "code": "A113311500311",
        "type": 16011,
        "name": "たから幼稚園",
        "address": "杉並区西荻南1-12-12",
        "lat": 35.697648,
        "lng": 139.604124
    },
    {
        "code": "A113311500320",
        "type": 16011,
        "name": "常盤ヶ丘幼稚園",
        "address": "杉並区高井戸東3-5-23",
        "lat": 35.68272,
        "lng": 139.62174
    },
    {
        "code": "A113311500339",
        "type": 16011,
        "name": "裕和幼稚園",
        "address": "杉並区清水2-21-15",
        "lat": 35.715124,
        "lng": 139.617442
    },
    {
        "code": "A113311500348",
        "type": 16011,
        "name": "中瀬幼稚園",
        "address": "杉並区下井草4-20-3",
        "lat": 35.721932,
        "lng": 139.617752
    },
    {
        "code": "A113311500357",
        "type": 16011,
        "name": "宝陽幼稚園",
        "address": "杉並区上高井戸2-16-31",
        "lat": 35.678675,
        "lng": 139.607005
    },
    {
        "code": "A113311500366",
        "type": 16011,
        "name": "くまの幼稚園",
        "address": "杉並区和泉3-21-29",
        "lat": 35.676794,
        "lng": 139.648244
    },
    {
        "code": "A113311500375",
        "type": 16011,
        "name": "杉並日の出幼稚園",
        "address": "杉並区成田西2-12-29",
        "lat": 35.690294,
        "lng": 139.624042
    },
    {
        "code": "B113211500017",
        "type": 16001,
        "name": "杉並第一小学校",
        "address": "杉並区阿佐谷北1-5-27",
        "lat": 35.70637,
        "lng": 139.636999
    },
    {
        "code": "B113211500026",
        "type": 16001,
        "name": "杉並第二小学校",
        "address": "杉並区成田西3-4-1",
        "lat": 35.69301,
        "lng": 139.63225
    },
    {
        "code": "B113211500035",
        "type": 16001,
        "name": "杉並第三小学校",
        "address": "杉並区高円寺南1-15-13",
        "lat": 35.699455,
        "lng": 139.656636
    },
    {
        "code": "B113211500044",
        "type": 16001,
        "name": "杉並第六小学校",
        "address": "杉並区阿佐谷南1-24-21",
        "lat": 35.701565,
        "lng": 139.643387
    },
    {
        "code": "B113211500053",
        "type": 16001,
        "name": "杉並第七小学校",
        "address": "杉並区阿佐谷南3-19-2",
        "lat": 35.70287,
        "lng": 139.63136
    },
    {
        "code": "B113211500062",
        "type": 16001,
        "name": "杉並第九小学校",
        "address": "杉並区本天沼1-2-19",
        "lat": 35.713536,
        "lng": 139.633332
    },
    {
        "code": "B113211500071",
        "type": 16001,
        "name": "杉並第十小学校",
        "address": "杉並区和田3-55-49",
        "lat": 35.697066,
        "lng": 139.65747
    },
    {
        "code": "B113211500080",
        "type": 16001,
        "name": "西田小学校",
        "address": "杉並区荻窪1-38-15",
        "lat": 35.694454,
        "lng": 139.622167
    },
    {
        "code": "B113211500099",
        "type": 16001,
        "name": "東田小学校",
        "address": "杉並区成田東1-21-1",
        "lat": 35.691538,
        "lng": 139.638944
    },
    {
        "code": "B113211500106",
        "type": 16001,
        "name": "馬橋小学校",
        "address": "杉並区高円寺北4-28-5",
        "lat": 35.708648,
        "lng": 139.643304
    },
    {
        "code": "B113211500115",
        "type": 16001,
        "name": "桃井第一小学校",
        "address": "杉並区桃井2-6-1",
        "lat": 35.712035,
        "lng": 139.609251
    },
    {
        "code": "B113211500124",
        "type": 16001,
        "name": "桃井第二小学校",
        "address": "杉並区荻窪5-10-25",
        "lat": 35.701953,
        "lng": 139.617889
    },
    {
        "code": "B113211500133",
        "type": 16001,
        "name": "桃井第三小学校",
        "address": "杉並区西荻北2-10-7",
        "lat": 35.705369,
        "lng": 139.602335
    },
    {
        "code": "B113211500142",
        "type": 16001,
        "name": "桃井第四小学校",
        "address": "杉並区善福寺3-3-5",
        "lat": 35.717007,
        "lng": 139.594474
    },
    {
        "code": "B113211500151",
        "type": 16001,
        "name": "桃井第五小学校",
        "address": "杉並区下井草4-22-4",
        "lat": 35.722257,
        "lng": 139.619749
    },
    {
        "code": "B113211500160",
        "type": 16001,
        "name": "四宮小学校",
        "address": "杉並区上井草2-12-26",
        "lat": 35.72159,
        "lng": 139.610028
    },
    {
        "code": "B113211500179",
        "type": 16001,
        "name": "荻窪小学校",
        "address": "杉並区宮前2-13-18",
        "lat": 35.694742,
        "lng": 139.611513
    },
    {
        "code": "B113211500188",
        "type": 16001,
        "name": "井荻小学校",
        "address": "杉並区善福寺1-10-19",
        "lat": 35.711341,
        "lng": 139.59628
    },
    {
        "code": "B113211500197",
        "type": 16001,
        "name": "沓掛小学校",
        "address": "杉並区清水3-1-9",
        "lat": 35.716118,
        "lng": 139.620916
    },
    {
        "code": "B113211500204",
        "type": 16001,
        "name": "高井戸小学校",
        "address": "杉並区高井戸西2-2-1",
        "lat": 35.684261,
        "lng": 139.614668
    },
    {
        "code": "B113211500213",
        "type": 16001,
        "name": "高井戸第二小学校",
        "address": "杉並区久我山4-49-1",
        "lat": 35.691871,
        "lng": 139.599308
    },
    {
        "code": "B113211500222",
        "type": 16001,
        "name": "高井戸第三小学校",
        "address": "杉並区下高井戸4-16-24",
        "lat": 35.67204,
        "lng": 139.631
    },
    {
        "code": "B113211500231",
        "type": 16001,
        "name": "高井戸第四小学校",
        "address": "杉並区西荻南1-8-16",
        "lat": 35.698287,
        "lng": 139.602335
    },
    {
        "code": "B113211500240",
        "type": 16001,
        "name": "松庵小学校",
        "address": "杉並区松庵2-23-24",
        "lat": 35.700147,
        "lng": 139.59303
    },
    {
        "code": "B113211500259",
        "type": 16001,
        "name": "浜田山小学校",
        "address": "杉並区浜田山4-23-1",
        "lat": 35.685622,
        "lng": 139.6295
    },
    {
        "code": "B113211500268",
        "type": 16001,
        "name": "富士見丘小学校",
        "address": "杉並区上高井戸2-16-13",
        "lat": 35.679706,
        "lng": 139.607085
    },
    {
        "code": "B113211500277",
        "type": 16001,
        "name": "大宮小学校",
        "address": "杉並区堀ﾉ内1-12-16",
        "lat": 35.683595,
        "lng": 139.649415
    },
    {
        "code": "B113211500286",
        "type": 16001,
        "name": "堀之内小学校",
        "address": "杉並区堀ﾉ内3-24-11",
        "lat": 35.693205,
        "lng": 139.646971
    },
    {
        "code": "B113211500295",
        "type": 16001,
        "name": "和田小学校",
        "address": "杉並区和田2-30-21",
        "lat": 35.690872,
        "lng": 139.657025
    },
    {
        "code": "B113211500302",
        "type": 16001,
        "name": "方南小学校",
        "address": "杉並区方南1-52-14",
        "lat": 35.679902,
        "lng": 139.658387
    },
    {
        "code": "B113211500311",
        "type": 16001,
        "name": "済美小学校",
        "address": "杉並区堀ﾉ内1-17-24",
        "lat": 35.685762,
        "lng": 139.649665
    },
    {
        "code": "B113211500320",
        "type": 16001,
        "name": "八成小学校",
        "address": "杉並区井草2-25-4",
        "lat": 35.728478,
        "lng": 139.619638
    },
    {
        "code": "B113211500339",
        "type": 16001,
        "name": "三谷小学校",
        "address": "杉並区上井草3-14-12",
        "lat": 35.72034,
        "lng": 139.602362
    },
    {
        "code": "B113211500348",
        "type": 16001,
        "name": "松ノ木小学校",
        "address": "杉並区松ﾉ木1-2-26",
        "lat": 35.687539,
        "lng": 139.64286
    },
    {
        "code": "B113211500357",
        "type": 16001,
        "name": "高井戸東小学校",
        "address": "杉並区高井戸東1-12-1",
        "lat": 35.680261,
        "lng": 139.619446
    },
    {
        "code": "B113211500366",
        "type": 16001,
        "name": "久我山小学校",
        "address": "杉並区久我山5-18-7",
        "lat": 35.686316,
        "lng": 139.606141
    },
    {
        "code": "B113211500375",
        "type": 16001,
        "name": "天沼小学校",
        "address": "杉並区天沼2-46-3",
        "lat": 35.710742,
        "lng": 139.623069
    },
    {
        "code": "B113211500384",
        "type": 16001,
        "name": "永福小学校",
        "address": "杉並区永福2-16-33",
        "lat": 35.673457,
        "lng": 139.639694
    },
    {
        "code": "B113211500393",
        "type": 16001,
        "name": "新泉和泉小学校",
        "address": "杉並区和泉2-17-14",
        "lat": 35.674666,
        "lng": 139.648319
    },
    {
        "code": "B113211500400",
        "type": 16001,
        "name": "高円寺小学校",
        "address": "杉並区高円寺北1-4-11",
        "lat": 35.706233,
        "lng": 139.655119
    },
    {
        "code": "B113311500015",
        "type": 16001,
        "name": "光塩女子学院初等科",
        "address": "杉並区高円寺南2-33-28",
        "lat": 35.700408,
        "lng": 139.653305
    },
    {
        "code": "B113311500024",
        "type": 16001,
        "name": "立教女学院小学校",
        "address": "杉並区久我山4-29-60",
        "lat": 35.694092,
        "lng": 139.58867
    },
    {
        "code": "C113211500015",
        "type": 16002,
        "name": "高南中学校",
        "address": "杉並区和田3-40-10",
        "lat": 35.695594,
        "lng": 139.657997
    },
    {
        "code": "C113211500024",
        "type": 16002,
        "name": "杉森中学校",
        "address": "杉並区阿佐谷北5-45-24",
        "lat": 35.711651,
        "lng": 139.641405
    },
    {
        "code": "C113211500033",
        "type": 16002,
        "name": "阿佐ヶ谷中学校",
        "address": "杉並区阿佐谷南1-17-3",
        "lat": 35.700454,
        "lng": 139.636328
    },
    {
        "code": "C113211500042",
        "type": 16002,
        "name": "東田中学校",
        "address": "杉並区成田東3-19-17",
        "lat": 35.694649,
        "lng": 139.635194
    },
    {
        "code": "C113211500051",
        "type": 16002,
        "name": "松溪中学校",
        "address": "杉並区荻窪2-3-1",
        "lat": 35.696315,
        "lng": 139.622334
    },
    {
        "code": "C113211500060",
        "type": 16002,
        "name": "天沼中学校",
        "address": "杉並区本天沼3-10-20",
        "lat": 35.712285,
        "lng": 139.620833
    },
    {
        "code": "C113211500079",
        "type": 16002,
        "name": "東原中学校",
        "address": "杉並区下井草1-28-5",
        "lat": 35.717841,
        "lng": 139.631026
    },
    {
        "code": "C113211500088",
        "type": 16002,
        "name": "中瀬中学校",
        "address": "杉並区下井草4-3-29",
        "lat": 35.719451,
        "lng": 139.619972
    },
    {
        "code": "C113211500097",
        "type": 16002,
        "name": "井荻中学校",
        "address": "杉並区今川2-13-24",
        "lat": 35.718257,
        "lng": 139.610417
    },
    {
        "code": "C113211500104",
        "type": 16002,
        "name": "井草中学校",
        "address": "杉並区上井草3-20-11",
        "lat": 35.722117,
        "lng": 139.60264
    },
    {
        "code": "C113211500113",
        "type": 16002,
        "name": "荻窪中学校",
        "address": "杉並区善福寺1-8-3",
        "lat": 35.710341,
        "lng": 139.596446
    },
    {
        "code": "C113211500122",
        "type": 16002,
        "name": "神明中学校",
        "address": "杉並区南荻窪2-37-28",
        "lat": 35.700425,
        "lng": 139.610084
    },
    {
        "code": "C113211500131",
        "type": 16002,
        "name": "宮前中学校",
        "address": "杉並区宮前2-12-1",
        "lat": 35.693343,
        "lng": 139.610585
    },
    {
        "code": "C113211500140",
        "type": 16002,
        "name": "富士見丘中学校",
        "address": "杉並区久我山2-20-1",
        "lat": 35.682872,
        "lng": 139.605724
    },
    {
        "code": "C113211500159",
        "type": 16002,
        "name": "高井戸中学校",
        "address": "杉並区高井戸東1-28-1",
        "lat": 35.6814,
        "lng": 139.62264
    },
    {
        "code": "C113211500168",
        "type": 16002,
        "name": "向陽中学校",
        "address": "杉並区下高井戸3-24-1",
        "lat": 35.672485,
        "lng": 139.634861
    },
    {
        "code": "C113211500177",
        "type": 16002,
        "name": "松ノ木中学校",
        "address": "杉並区松ﾉ木1-4-1",
        "lat": 35.686817,
        "lng": 139.640971
    },
    {
        "code": "C113211500186",
        "type": 16002,
        "name": "大宮中学校",
        "address": "杉並区堀ﾉ内1-16-38",
        "lat": 35.68665,
        "lng": 139.64836
    },
    {
        "code": "C113211500195",
        "type": 16002,
        "name": "泉南中学校",
        "address": "杉並区堀ﾉ内1-3-1",
        "lat": 35.684151,
        "lng": 139.655498
    },
    {
        "code": "C113211500202",
        "type": 16002,
        "name": "和田中学校",
        "address": "杉並区和田2-21-8",
        "lat": 35.690428,
        "lng": 139.658497
    },
    {
        "code": "C113211500211",
        "type": 16002,
        "name": "西宮中学校",
        "address": "杉並区宮前5-1-25",
        "lat": 35.692621,
        "lng": 139.601641
    },
    {
        "code": "C113211500220",
        "type": 16002,
        "name": "和泉中学校",
        "address": "杉並区和泉2-17-14",
        "lat": 35.674374,
        "lng": 139.648777
    },
    {
        "code": "C113311500013",
        "type": 16002,
        "name": "光塩女子学院中等科",
        "address": "杉並区高円寺南2-33-28",
        "lat": 35.700395,
        "lng": 139.653314
    },
    {
        "code": "C113311500022",
        "type": 16002,
        "name": "佼成学園中学校",
        "address": "杉並区和田2-6-29",
        "lat": 35.687279,
        "lng": 139.656968
    },
    {
        "code": "C113311500031",
        "type": 16002,
        "name": "女子美術大学付属中学校",
        "address": "杉並区和田1-49-8",
        "lat": 35.693739,
        "lng": 139.661916
    },
    {
        "code": "C113311500040",
        "type": 16002,
        "name": "杉並中学校",
        "address": "杉並区阿佐谷南3-48-16",
        "lat": 35.703952,
        "lng": 139.628688
    },
    {
        "code": "C113311500059",
        "type": 16002,
        "name": "東京立正中学校",
        "address": "杉並区堀ﾉ内2-41-15",
        "lat": 35.691478,
        "lng": 139.646662
    },
    {
        "code": "C113311500068",
        "type": 16002,
        "name": "日本大学第二中学校",
        "address": "杉並区天沼1-45-33",
        "lat": 35.711562,
        "lng": 139.62769
    },
    {
        "code": "C113311500077",
        "type": 16002,
        "name": "立教女学院中学校",
        "address": "杉並区久我山4-29-60",
        "lat": 35.694343,
        "lng": 139.589438
    },
    {
        "code": "C113311500095",
        "type": 16002,
        "name": "國學院大學久我山中学校",
        "address": "杉並区久我山1-9-1",
        "lat": 35.683927,
        "lng": 139.592948
    },
    {
        "code": "D113299903048",
        "type": 16004,
        "name": "荻窪高等学校",
        "address": "杉並区荻窪5-7-20",
        "lat": 35.702092,
        "lng": 139.619528
    },
    {
        "code": "D113299903057",
        "type": 16004,
        "name": "西高等学校",
        "address": "杉並区宮前4-21-32",
        "lat": 35.691676,
        "lng": 139.60478
    },
    {
        "code": "D113299903066",
        "type": 16004,
        "name": "豊多摩高等学校",
        "address": "杉並区成田西2-6-18",
        "lat": 35.689122,
        "lng": 139.629
    },
    {
        "code": "D113299903075",
        "type": 16004,
        "name": "杉並高等学校",
        "address": "杉並区成田西4-15-15",
        "lat": 35.696371,
        "lng": 139.631444
    },
    {
        "code": "D113299903146",
        "type": 16004,
        "name": "杉並総合高等学校",
        "address": "杉並区下高井戸5-17-1",
        "lat": 35.676595,
        "lng": 139.622807
    },
    {
        "code": "D113299903191",
        "type": 16004,
        "name": "杉並工業高等学校",
        "address": "杉並区上井草4-13-31",
        "lat": 35.718979,
        "lng": 139.59889
    },
    {
        "code": "D113299903217",
        "type": 16004,
        "name": "東京都立農芸高等学校",
        "address": "杉並区今川3-25-1",
        "lat": 35.717923,
        "lng": 139.603668
    },
    {
        "code": "D113311500011",
        "type": 16004,
        "name": "杉並学院高等学校",
        "address": "杉並区阿佐谷南2-30-17",
        "lat": 35.70437,
        "lng": 139.643082
    },
    {
        "code": "D113311500020",
        "type": 16004,
        "name": "光塩女子学院高等科",
        "address": "杉並区高円寺南2-33-28",
        "lat": 35.700399,
        "lng": 139.653331
    },
    {
        "code": "D113311500039",
        "type": 16004,
        "name": "佼成学園高等学校",
        "address": "杉並区和田2-6-29",
        "lat": 35.687262,
        "lng": 139.65697
    },
    {
        "code": "D113311500048",
        "type": 16004,
        "name": "久我山高等学校",
        "address": "杉並区久我山1-9-1",
        "lat": 35.683899,
        "lng": 139.594309
    },
    {
        "code": "D113311500057",
        "type": 16004,
        "name": "文化学園大学杉並高等学校",
        "address": "杉並区阿佐谷南3-48-16",
        "lat": 35.703926,
        "lng": 139.628694
    },
    {
        "code": "D113311500066",
        "type": 16004,
        "name": "女子美術大学付属高等学校",
        "address": "杉並区和田1-49-8",
        "lat": 35.693739,
        "lng": 139.661961
    },
    {
        "code": "D113311500075",
        "type": 16004,
        "name": "専修大学附属高等学校",
        "address": "杉並区和泉4-4-1",
        "lat": 35.677013,
        "lng": 139.655415
    },
    {
        "code": "D113311500084",
        "type": 16004,
        "name": "中央大学杉並高等学校",
        "address": "杉並区今川2-7-1",
        "lat": 35.716313,
        "lng": 139.607945
    },
    {
        "code": "D113311500093",
        "type": 16004,
        "name": "東京立正高等学校",
        "address": "杉並区堀ﾉ内2-41-15",
        "lat": 35.691455,
        "lng": 139.646665
    },
    {
        "code": "D113311500100",
        "type": 16004,
        "name": "日本大学第二高等学校",
        "address": "杉並区天沼1-45-33",
        "lat": 35.711536,
        "lng": 139.627694
    },
    {
        "code": "D113311500119",
        "type": 16004,
        "name": "日本大学鶴ヶ丘高等学校",
        "address": "杉並区和泉2-26-12",
        "lat": 35.67318,
        "lng": 139.653304
    },
    {
        "code": "D113311500128",
        "type": 16004,
        "name": "立教女学院高等学校",
        "address": "杉並区久我山4-29-60",
        "lat": 35.694315,
        "lng": 139.589447
    },
    {
        "code": "E113211540012",
        "type": 16012,
        "name": "済美養護学校",
        "address": "杉並区堀ﾉ内1-19-25",
        "lat": 35.685873,
        "lng": 139.650526
    },
    {
        "code": "E113299920044",
        "type": 16012,
        "name": "中央ろう学校",
        "address": "杉並区下高井戸2-22-10",
        "lat": 35.669975,
        "lng": 139.640706
    },
    {
        "code": "E113299940246",
        "type": 16012,
        "name": "永福学園",
        "address": "杉並区永福1-7-28",
        "lat": 35.670628,
        "lng": 139.645761
    },
    {
        "code": "F113310103108",
        "type": 16007,
        "name": "女子美術大学",
        "address": "杉並区和田1-49-8",
        "lat": 35.693587,
        "lng": 139.66216
    },
    {
        "code": "F113310103199",
        "type": 16007,
        "name": "高千穂大学",
        "address": "杉並区大宮2-19-1",
        "lat": 35.683734,
        "lng": 139.637861
    },
    {
        "code": "F113310103297",
        "type": 16007,
        "name": "東京女子大学",
        "address": "杉並区善福寺2-6-1",
        "lat": 35.711146,
        "lng": 139.590002
    },
    {
        "code": "F213310104295",
        "type": 16006,
        "name": "女子美術大学短期大学部",
        "address": "杉並区和田1-49-8",
        "lat": 35.693733,
        "lng": 139.661942
    },
    {
        "code": "F213310104393",
        "type": 16006,
        "name": "東京立正短期大学",
        "address": "杉並区堀之内2-41-15",
        "lat": 35.690705,
        "lng": 139.646887
    },
    {
        "code": "H113311500012",
        "type": 16016,
        "name": "阿佐ヶ谷美術専門学校",
        "address": "杉並区梅里1-3-3",
        "lat": 35.695222,
        "lng": 139.649993
    },
    {
        "code": "H113311500021",
        "type": 16016,
        "name": "玉成保育専門学校",
        "address": "杉並区松庵1-9-33",
        "lat": 35.69442,
        "lng": 139.592417
    },
    {
        "code": "H113311500030",
        "type": 16016,
        "name": "杉並高等専修学校",
        "address": "杉並区上萩4-29-8",
        "lat": 35.711181,
        "lng": 139.601866
    },
    {
        "code": "H113311500049",
        "type": 16016,
        "name": "東京保育専門学校",
        "address": "杉並区高円寺南2-32-30",
        "lat": 35.699638,
        "lng": 139.652806
    },
    {
        "code": "H113311500058",
        "type": 16016,
        "name": "東放学園専門学校",
        "address": "杉並区和泉2-4-1",
        "lat": 35.671307,
        "lng": 139.65531
    },
    {
        "code": "H113311500067",
        "type": 16016,
        "name": "佼成看護専門学校",
        "address": "杉並区和田1-3-14",
        "lat": 35.689989,
        "lng": 139.664203
    },
    {
        "code": "H113311500076",
        "type": 16016,
        "name": "日本動物専門学校",
        "address": "杉並区高円寺南4-6-8",
        "lat": 35.703015,
        "lng": 139.649317
    },
    {
        "code": "H113311500085",
        "type": 16016,
        "name": "日本医歯薬専門学校",
        "address": "杉並区高円寺南2-44-1",
        "lat": 35.701379,
        "lng": 139.649762
    },
    {
        "code": "H113311500094",
        "type": 16016,
        "name": "東京ゴルフ専門学校",
        "address": "杉並区高井戸東3-27-11",
        "lat": 35.686123,
        "lng": 139.616151
    },
    {
        "code": "H113311500101",
        "type": 16016,
        "name": "日本鉄道＆スポーツビジネスカレッジ",
        "address": "杉並区高円寺南5-32-10",
        "lat": 35.704583,
        "lng": 139.655065
    },
    {
        "code": "H113311500110",
        "type": 16016,
        "name": "芳じゅ女学院情報国際専門学校",
        "address": "杉並区和田1-3-20",
        "lat": 35.689701,
        "lng": 139.664522
    },
    {
        "code": "H113311500129",
        "type": 16016,
        "name": "東京ITプログラミング＆会計専門学校杉並校",
        "address": "杉並区高円寺南4-21-8",
        "lat": 35.70539,
        "lng": 139.646808
    },
    {
        "code": "H113311500138",
        "type": 16016,
        "name": "東京法律公務員専門学校杉並校",
        "address": "杉並区高円寺北3-4-21",
        "lat": 35.705379,
        "lng": 139.646865
    },
    {
        "code": "H113311500147",
        "type": 16016,
        "name": "中央ゼミナール",
        "address": "杉並区高円寺南4-45-10",
        "lat": 35.704968,
        "lng": 139.650673
    },
    {
        "code": "H213311500011",
        "type": 16015,
        "name": "東京朝鮮第９初級学校",
        "address": "杉並区阿佐谷北1-39-3",
        "lat": 35.70915,
        "lng": 139.63814
    },
    {
        "code": "H213311500020",
        "type": 16015,
        "name": "武蔵野服装学院",
        "address": "杉並区上井草1-15-18",
        "lat": 35.721653,
        "lng": 139.613348
    }
]