[
    {
        "code": "A113211400010",
        "type": 16011,
        "name": "かみさぎ幼稚園",
        "address": "中野区上鷺宮4-8-12",
        "lat": 35.732284,
        "lng": 139.628157
    },
    {
        "code": "A113211400029",
        "type": 16011,
        "name": "ひがしなかの幼稚園",
        "address": "中野区東中野5-8-21",
        "lat": 35.708196,
        "lng": 139.687508
    },
    {
        "code": "A113311400018",
        "type": 16011,
        "name": "宝仙学園幼稚園",
        "address": "中野区中央2-33-26",
        "lat": 35.699841,
        "lng": 139.67917
    },
    {
        "code": "A113311400027",
        "type": 16011,
        "name": "新渡戸文化幼稚園",
        "address": "中野区本町6-38-1",
        "lat": 35.69653,
        "lng": 139.662287
    },
    {
        "code": "A113311400036",
        "type": 16011,
        "name": "野方学院幼稚部",
        "address": "中野区新井3-22-6",
        "lat": 35.713314,
        "lng": 139.661442
    },
    {
        "code": "A113311400045",
        "type": 16011,
        "name": "金の峯幼稚園",
        "address": "中野区江古田3-9-9",
        "lat": 35.726877,
        "lng": 139.668145
    },
    {
        "code": "A113311400054",
        "type": 16011,
        "name": "こまどり幼稚園",
        "address": "中野区弥生町4-12-1",
        "lat": 35.689162,
        "lng": 139.672771
    },
    {
        "code": "A113311400063",
        "type": 16011,
        "name": "まこと幼稚園",
        "address": "中野区上高田4-14-1",
        "lat": 35.712168,
        "lng": 139.678706
    },
    {
        "code": "A113311400072",
        "type": 16011,
        "name": "みやしろ幼稚園",
        "address": "中野区南台4-40-9",
        "lat": 35.680368,
        "lng": 139.664209
    },
    {
        "code": "A113311400081",
        "type": 16011,
        "name": "中野小鳩幼稚園",
        "address": "中野区沼袋3-21-7",
        "lat": 35.718303,
        "lng": 139.65903
    },
    {
        "code": "A113311400090",
        "type": 16011,
        "name": "中野たから幼稚園",
        "address": "中野区本町2-45-14",
        "lat": 35.695843,
        "lng": 139.681802
    },
    {
        "code": "A113311400107",
        "type": 16011,
        "name": "中野教会附属幼稚園",
        "address": "中野区弥生町2-39-11",
        "lat": 35.691267,
        "lng": 139.673002
    },
    {
        "code": "A113311400116",
        "type": 16011,
        "name": "沼袋幼稚園",
        "address": "中野区沼袋2-28-2",
        "lat": 35.721069,
        "lng": 139.665343
    },
    {
        "code": "A113311400125",
        "type": 16011,
        "name": "徳育幼稚園",
        "address": "中野区上高田1-35-29",
        "lat": 35.709094,
        "lng": 139.675363
    },
    {
        "code": "A113311400134",
        "type": 16011,
        "name": "ほぜんじ幼稚園",
        "address": "中野区上高田1-31-2",
        "lat": 35.708568,
        "lng": 139.676759
    },
    {
        "code": "A113311400143",
        "type": 16011,
        "name": "上ノ原幼稚園",
        "address": "中野区東中野2-21-7",
        "lat": 35.704849,
        "lng": 139.681251
    },
    {
        "code": "A113311400152",
        "type": 16011,
        "name": "やはた幼稚園",
        "address": "中野区大和町2-30-3",
        "lat": 35.714276,
        "lng": 139.650718
    },
    {
        "code": "A113311400161",
        "type": 16011,
        "name": "若宮幼稚園",
        "address": "中野区若宮3-45-11",
        "lat": 35.719302,
        "lng": 139.644495
    },
    {
        "code": "A113311400170",
        "type": 16011,
        "name": "桃園幼稚園",
        "address": "中野区中央5-8-8",
        "lat": 35.698227,
        "lng": 139.665424
    },
    {
        "code": "A113311400189",
        "type": 16011,
        "name": "ワカバ幼稚園",
        "address": "中野区鷺宮3-37-22",
        "lat": 35.725276,
        "lng": 139.640031
    },
    {
        "code": "A113311400198",
        "type": 16011,
        "name": "大和幼稚園",
        "address": "中野区野方5-8-8",
        "lat": 35.716322,
        "lng": 139.651086
    },
    {
        "code": "A113311400205",
        "type": 16011,
        "name": "やはたみずのとう幼稚園",
        "address": "中野区江古田1-1-1",
        "lat": 35.724711,
        "lng": 139.675128
    },
    {
        "code": "A213311400017",
        "type": 16013,
        "name": "やよいこども園",
        "address": "中野区弥生1-58-14",
        "lat": 35.692375,
        "lng": 139.678562
    },
    {
        "code": "A213311400026",
        "type": 16013,
        "name": "なかのこども園",
        "address": "中野区野方1‐10‐2",
        "lat": 35.712287,
        "lng": 139.659876
    },
    {
        "code": "B113211400018",
        "type": 16001,
        "name": "桃園第二小学校",
        "address": "中野区中野6-13-1",
        "lat": 35.707676,
        "lng": 139.675967
    },
    {
        "code": "B113211400027",
        "type": 16001,
        "name": "塔山小学校",
        "address": "中野区中央1-49-1",
        "lat": 35.700816,
        "lng": 139.683606
    },
    {
        "code": "B113211400036",
        "type": 16001,
        "name": "谷戸小学校",
        "address": "中野区中野1-26-1",
        "lat": 35.702455,
        "lng": 139.677051
    },
    {
        "code": "B113211400045",
        "type": 16001,
        "name": "中野本郷小学校",
        "address": "中野区本町4-27-3",
        "lat": 35.695122,
        "lng": 139.670357
    },
    {
        "code": "B113211400054",
        "type": 16001,
        "name": "江古田小学校",
        "address": "中野区江古田2-13-28",
        "lat": 35.726035,
        "lng": 139.666579
    },
    {
        "code": "B113211400063",
        "type": 16001,
        "name": "鷺宮小学校",
        "address": "中野区鷺宮3-31-4",
        "lat": 35.725007,
        "lng": 139.639581
    },
    {
        "code": "B113211400072",
        "type": 16001,
        "name": "啓明小学校",
        "address": "中野区大和町1-18-1",
        "lat": 35.713425,
        "lng": 139.65258
    },
    {
        "code": "B113211400081",
        "type": 16001,
        "name": "北原小学校",
        "address": "中野区野方6-30-6",
        "lat": 35.721063,
        "lng": 139.651441
    },
    {
        "code": "B113211400090",
        "type": 16001,
        "name": "江原小学校",
        "address": "中野区江原町1-39-1",
        "lat": 35.729591,
        "lng": 139.673467
    },
    {
        "code": "B113211400107",
        "type": 16001,
        "name": "武蔵台小学校",
        "address": "中野区上鷺宮5-1-1",
        "lat": 35.72809,
        "lng": 139.629748
    },
    {
        "code": "B113211400116",
        "type": 16001,
        "name": "西中野小学校",
        "address": "中野区白鷺3-9-2",
        "lat": 35.720785,
        "lng": 139.631221
    },
    {
        "code": "B113211400125",
        "type": 16001,
        "name": "上鷺宮小学校",
        "address": "中野区上鷺宮1-24-36",
        "lat": 35.731506,
        "lng": 139.635137
    },
    {
        "code": "B113211400134",
        "type": 16001,
        "name": "桃花小学校",
        "address": "中野区中央5-43-1",
        "lat": 35.700436,
        "lng": 139.665777
    },
    {
        "code": "B113211400143",
        "type": 16001,
        "name": "白桜小学校",
        "address": "中野区上高田1-2-28",
        "lat": 35.710297,
        "lng": 139.679046
    },
    {
        "code": "B113211400152",
        "type": 16001,
        "name": "平和の森小学校",
        "address": "中野区新井3-29-1",
        "lat": 35.714703,
        "lng": 139.659719
    },
    {
        "code": "B113211400161",
        "type": 16001,
        "name": "緑野小学校",
        "address": "中野区丸山1-17-1",
        "lat": 35.725063,
        "lng": 139.657579
    },
    {
        "code": "B113211400170",
        "type": 16001,
        "name": "南台小学校",
        "address": "中野区南台4-4-1",
        "lat": 35.681854,
        "lng": 139.66825
    },
    {
        "code": "B113211400189",
        "type": 16001,
        "name": "みなみの小学校",
        "address": "中野区弥生町4-27-11",
        "lat": 35.687409,
        "lng": 139.670019
    },
    {
        "code": "B113211400198",
        "type": 16001,
        "name": "美鳩小学校",
        "address": "中野区大和町4-26-5",
        "lat": 35.714548,
        "lng": 139.645046
    },
    {
        "code": "B113211400205",
        "type": 16001,
        "name": "中野第一小学校",
        "address": "中野区本町3-16-1",
        "lat": 35.695992,
        "lng": 139.677379
    },
    {
        "code": "B113211400214",
        "type": 16001,
        "name": "令和小学校",
        "address": "中野区上高田5-35-3",
        "lat": 35.717064,
        "lng": 139.674467
    },
    {
        "code": "B113311400016",
        "type": 16001,
        "name": "新渡戸文化小学校",
        "address": "中野区本町6-38-1",
        "lat": 35.696699,
        "lng": 139.661954
    },
    {
        "code": "B113311400025",
        "type": 16001,
        "name": "宝仙学園小学校",
        "address": "中野区中央2-33-26",
        "lat": 35.699816,
        "lng": 139.679356
    },
    {
        "code": "C113211400016",
        "type": 16002,
        "name": "第二中学校",
        "address": "中野区本町5-25-1",
        "lat": 35.69265,
        "lng": 139.671135
    },
    {
        "code": "C113211400034",
        "type": 16002,
        "name": "第五中学校",
        "address": "中野区上高田4-28-1",
        "lat": 35.715342,
        "lng": 139.678439
    },
    {
        "code": "C113211400043",
        "type": 16002,
        "name": "第七中学校",
        "address": "中野区江古田2-9-11",
        "lat": 35.724674,
        "lng": 139.668051
    },
    {
        "code": "C113211400061",
        "type": 16002,
        "name": "北中野中学校",
        "address": "中野区上鷺宮5-7-1",
        "lat": 35.72834,
        "lng": 139.628665
    },
    {
        "code": "C113211400070",
        "type": 16002,
        "name": "緑野中学校",
        "address": "中野区丸山1-1-19",
        "lat": 35.723941,
        "lng": 139.657471
    },
    {
        "code": "C113211400089",
        "type": 16002,
        "name": "南中野中学校",
        "address": "中野区南台5-22-17",
        "lat": 35.682509,
        "lng": 139.662456
    },
    {
        "code": "C113211400098",
        "type": 16002,
        "name": "中野中学校",
        "address": "中野区中野4-12-3",
        "lat": 35.709537,
        "lng": 139.66123
    },
    {
        "code": "C113211400105",
        "type": 16002,
        "name": "中野東中学校",
        "address": "中野区東中野5-12-1",
        "lat": 35.708149,
        "lng": 139.688772
    },
    {
        "code": "C113211400114",
        "type": 16002,
        "name": "明和中学校",
        "address": "中野区若宮1-1-18",
        "lat": 35.716183,
        "lng": 139.649708
    },
    {
        "code": "C113299900043",
        "type": 16002,
        "name": "富士高等学校附属中学校",
        "address": "中野区弥生町5-21-1",
        "lat": 35.689624,
        "lng": 139.667109
    },
    {
        "code": "C113311400014",
        "type": 16002,
        "name": "新渡戸文化中学校",
        "address": "中野区本町6-38-1",
        "lat": 35.696357,
        "lng": 139.661488
    },
    {
        "code": "C113311400023",
        "type": 16002,
        "name": "宝仙学園中学校",
        "address": "中野区中央2-28-3",
        "lat": 35.69906,
        "lng": 139.680577
    },
    {
        "code": "C113311400032",
        "type": 16002,
        "name": "明治大学付属中野中学校",
        "address": "中野区東中野3-3-4",
        "lat": 35.706867,
        "lng": 139.67958
    },
    {
        "code": "C113311400041",
        "type": 16002,
        "name": "大妻中野中学校",
        "address": "中野区上高田2-3-7",
        "lat": 35.71048,
        "lng": 139.671432
    },
    {
        "code": "C113311400050",
        "type": 16002,
        "name": "実践学園中学校",
        "address": "中野区中央2-34-2",
        "lat": 35.700236,
        "lng": 139.679687
    },
    {
        "code": "D113299903011",
        "type": 16004,
        "name": "鷺宮高等学校",
        "address": "中野区若宮3-46-8",
        "lat": 35.720091,
        "lng": 139.643775
    },
    {
        "code": "D113299903020",
        "type": 16004,
        "name": "富士高等学校",
        "address": "中野区弥生町5-21-1",
        "lat": 35.689623,
        "lng": 139.667108
    },
    {
        "code": "D113299903039",
        "type": 16004,
        "name": "武蔵丘高等学校",
        "address": "中野区上鷺宮2-14-1",
        "lat": 35.728673,
        "lng": 139.631609
    },
    {
        "code": "D113299903155",
        "type": 16004,
        "name": "稔ヶ丘高等学校",
        "address": "中野区上鷺宮5-11-1",
        "lat": 35.728284,
        "lng": 139.625749
    },
    {
        "code": "D113299903182",
        "type": 16004,
        "name": "中野工業高等学校",
        "address": "中野区野方3-5-5",
        "lat": 35.716592,
        "lng": 139.656635
    },
    {
        "code": "D113311400012",
        "type": 16004,
        "name": "実践学園高等学校",
        "address": "中野区中央2-34-2",
        "lat": 35.700205,
        "lng": 139.67969
    },
    {
        "code": "D113311400021",
        "type": 16004,
        "name": "東亜学園高等学校",
        "address": "中野区上高田5-44-3",
        "lat": 35.716314,
        "lng": 139.672579
    },
    {
        "code": "D113311400030",
        "type": 16004,
        "name": "新渡戸文化高等学校",
        "address": "中野区本町6-38-1",
        "lat": 35.696355,
        "lng": 139.66151
    },
    {
        "code": "D113311400049",
        "type": 16004,
        "name": "大妻中野高等学校",
        "address": "中野区上高田2-3-7",
        "lat": 35.710509,
        "lng": 139.671634
    },
    {
        "code": "D113311400058",
        "type": 16004,
        "name": "宝仙学園高等学校",
        "address": "中野区中央2-28-3",
        "lat": 35.699039,
        "lng": 139.680579
    },
    {
        "code": "D113311400067",
        "type": 16004,
        "name": "堀越高等学校",
        "address": "中野区中央2-56-2",
        "lat": 35.700844,
        "lng": 139.676884
    },
    {
        "code": "D113311400076",
        "type": 16004,
        "name": "明治大学付属中野高等学校",
        "address": "中野区東中野3-3-4",
        "lat": 35.706843,
        "lng": 139.679578
    },
    {
        "code": "D213110000011",
        "type": 16003,
        "name": "東京大学教育学部附属中等教育学校",
        "address": "中野区南台1-15-1",
        "lat": 35.685743,
        "lng": 139.673825
    },
    {
        "code": "E113299940157",
        "type": 16012,
        "name": "中野特別支援学校",
        "address": "中野区南台3-46-20",
        "lat": 35.684179,
        "lng": 139.662831
    },
    {
        "code": "F113310104090",
        "type": 16007,
        "name": "こども教育宝仙大学",
        "address": "中野区中央2-33-26",
        "lat": 35.699899,
        "lng": 139.67873
    },
    {
        "code": "F113310104116",
        "type": 16007,
        "name": "東京工芸大学",
        "address": "中野区本町2-9-5",
        "lat": 35.693251,
        "lng": 139.679683
    },
    {
        "code": "F213310104231",
        "type": 16006,
        "name": "国際短期大学",
        "address": "中野区江古田4-8-8",
        "lat": 35.725296,
        "lng": 139.663144
    },
    {
        "code": "F213310104384",
        "type": 16006,
        "name": "新渡戸文化短期大学",
        "address": "中野区本町6-38-1",
        "lat": 35.696344,
        "lng": 139.661497
    },
    {
        "code": "H113311400022",
        "type": 16016,
        "name": "織田調理師専門学校",
        "address": "中野区中野5-32-8",
        "lat": 35.706306,
        "lng": 139.667147
    },
    {
        "code": "H113311400031",
        "type": 16016,
        "name": "織田きもの専門学校",
        "address": "中野区中野5-32-8",
        "lat": 35.706238,
        "lng": 139.667097
    },
    {
        "code": "H113311400040",
        "type": 16016,
        "name": "織田ファッション専門学校",
        "address": "中野区中野5-32-8",
        "lat": 35.706258,
        "lng": 139.666962
    },
    {
        "code": "H113311400059",
        "type": 16016,
        "name": "窪田理容美容専門学校",
        "address": "中野区中野4-11-1",
        "lat": 35.709706,
        "lng": 139.662035
    },
    {
        "code": "H113311400068",
        "type": 16016,
        "name": "東京愛犬専門学校",
        "address": "中野区上高田1-1-1",
        "lat": 35.710051,
        "lng": 139.682357
    },
    {
        "code": "H113311400077",
        "type": 16016,
        "name": "東京ブライダル専門学校",
        "address": "中野区東中野3-17-11",
        "lat": 35.709049,
        "lng": 139.680868
    },
    {
        "code": "H113311400086",
        "type": 16016,
        "name": "東京工科自動車大学校",
        "address": "中野区中野6-21-16",
        "lat": 35.706199,
        "lng": 139.674737
    },
    {
        "code": "H113311400095",
        "type": 16016,
        "name": "東京警察病院看護専門学校",
        "address": "中野区江古田3-14-18",
        "lat": 35.72891,
        "lng": 139.666445
    },
    {
        "code": "H113311400102",
        "type": 16016,
        "name": "東京ＣＰＡ会計学院",
        "address": "中野区中野3-39-9",
        "lat": 35.704454,
        "lng": 139.66426
    },
    {
        "code": "H113311400111",
        "type": 16016,
        "name": "ホスピタリティツーリズム専門学校",
        "address": "中野区東中野3-18-11",
        "lat": 35.70894,
        "lng": 139.680595
    },
    {
        "code": "H113311400120",
        "type": 16016,
        "name": "織田栄養専門学校",
        "address": "中野区中野5-32-8",
        "lat": 35.706326,
        "lng": 139.66697
    },
    {
        "code": "H113311400139",
        "type": 16016,
        "name": "東京アナウンス学院",
        "address": "中野区弥生町1-38-3",
        "lat": 35.68764,
        "lng": 139.677518
    },
    {
        "code": "H113311400148",
        "type": 16016,
        "name": "アポロ歯科衛生士専門学校",
        "address": "中野区上高田4-15-4",
        "lat": 35.712598,
        "lng": 139.678089
    },
    {
        "code": "H113311400157",
        "type": 16016,
        "name": "日本ホテルスクール",
        "address": "中野区東中野3-15-14",
        "lat": 35.709982,
        "lng": 139.683318
    },
    {
        "code": "H113311400166",
        "type": 16016,
        "name": "東京テクニカルカレッジ",
        "address": "中野区東中野4-2-3",
        "lat": 35.70678,
        "lng": 139.685431
    },
    {
        "code": "H113311400175",
        "type": 16016,
        "name": "渋谷外国語専門学校",
        "address": "中野区中野2-20-1",
        "lat": 35.703007,
        "lng": 139.667477
    },
    {
        "code": "H113311400184",
        "type": 16016,
        "name": "新宿情報ビジネス専門学校",
        "address": "中野区中野5-15-2",
        "lat": 35.706158,
        "lng": 139.670039
    },
    {
        "code": "H113311400193",
        "type": 16016,
        "name": "織田製菓専門学校",
        "address": "中野区中野5-15-6",
        "lat": 35.706133,
        "lng": 139.669582
    },
    {
        "code": "H213311400012",
        "type": 16015,
        "name": "梅若能楽学院",
        "address": "中野区東中野2-6-14",
        "lat": 35.701716,
        "lng": 139.681826
    },
    {
        "code": "H213311400021",
        "type": 16015,
        "name": "東京スピーチ･クリニック",
        "address": "中野区中央1-43-21",
        "lat": 35.682846,
        "lng": 139.705806
    },
    {
        "code": "H213311400030",
        "type": 16015,
        "name": "東京療術専修学校",
        "address": "中野区中央4-30-21",
        "lat": 35.701393,
        "lng": 139.669042
    },
    {
        "code": "H213311400058",
        "type": 16015,
        "name": "イーストウエスト日本語学校",
        "address": "中野区中央2-36-9",
        "lat": 35.701108,
        "lng": 139.679754
    }
]