[
    {
        "code": "A113212200029",
        "type": 16011,
        "name": "北住吉幼稚園",
        "address": "葛飾区柴又2-1-10",
        "lat": 35.756895,
        "lng": 139.868788
    },
    {
        "code": "A113212200038",
        "type": 16011,
        "name": "水元幼稚園",
        "address": "葛飾区水元1-16-22",
        "lat": 35.783383,
        "lng": 139.857269
    },
    {
        "code": "A113312200018",
        "type": 16011,
        "name": "共栄幼稚園",
        "address": "葛飾区お花茶屋2-6-1",
        "lat": 35.750439,
        "lng": 139.840114
    },
    {
        "code": "A113312200027",
        "type": 16011,
        "name": "明昭幼稚園",
        "address": "葛飾区四つ木1-41-1",
        "lat": 35.734837,
        "lng": 139.837203
    },
    {
        "code": "A113312200036",
        "type": 16011,
        "name": "明昭第二幼稚園",
        "address": "葛飾区堀切1-26-15",
        "lat": 35.741541,
        "lng": 139.830367
    },
    {
        "code": "A113312200045",
        "type": 16011,
        "name": "上平井幼稚園",
        "address": "葛飾区東新小岩5-11-15",
        "lat": 35.722096,
        "lng": 139.856007
    },
    {
        "code": "A113312200054",
        "type": 16011,
        "name": "東江幼稚園",
        "address": "葛飾区東金町2-25-12",
        "lat": 35.775703,
        "lng": 139.86974
    },
    {
        "code": "A113312200063",
        "type": 16011,
        "name": "熊野幼稚園",
        "address": "葛飾区立石8-44-31",
        "lat": 35.740093,
        "lng": 139.858442
    },
    {
        "code": "A113312200072",
        "type": 16011,
        "name": "和光幼稚園",
        "address": "葛飾区奥戸5-5-16",
        "lat": 35.732998,
        "lng": 139.865292
    },
    {
        "code": "A113312200081",
        "type": 16011,
        "name": "あすなろ幼稚園",
        "address": "葛飾区奥戸3-28-21",
        "lat": 35.733704,
        "lng": 139.863648
    },
    {
        "code": "A113312200090",
        "type": 16011,
        "name": "摩耶幼稚園",
        "address": "葛飾区立石8-4-12",
        "lat": 35.738714,
        "lng": 139.851201
    },
    {
        "code": "A113312200107",
        "type": 16011,
        "name": "ルンビニー幼稚園",
        "address": "葛飾区柴又7-10-30",
        "lat": 35.758858,
        "lng": 139.879634
    },
    {
        "code": "A113312200116",
        "type": 16011,
        "name": "やくし幼稚園",
        "address": "葛飾区東四つ木1-5-9",
        "lat": 35.726746,
        "lng": 139.840936
    },
    {
        "code": "A113312200125",
        "type": 16011,
        "name": "葛飾こどもの園幼稚園",
        "address": "葛飾区立石2-29-6",
        "lat": 35.741205,
        "lng": 139.841616
    },
    {
        "code": "A113312200134",
        "type": 16011,
        "name": "遍照院幼稚園",
        "address": "葛飾区水元5-5-33",
        "lat": 35.790475,
        "lng": 139.859131
    },
    {
        "code": "A113312200143",
        "type": 16011,
        "name": "千鶴幼稚園",
        "address": "葛飾区堀切5-41-22",
        "lat": 35.750401,
        "lng": 139.832727
    },
    {
        "code": "A113312200152",
        "type": 16011,
        "name": "葛飾白百合幼稚園",
        "address": "葛飾区西新小岩4-19-13",
        "lat": 35.719946,
        "lng": 139.852572
    },
    {
        "code": "A113312200161",
        "type": 16011,
        "name": "葛飾若草幼稚園",
        "address": "葛飾区細田5-4-11",
        "lat": 35.738661,
        "lng": 139.874444
    },
    {
        "code": "A113312200170",
        "type": 16011,
        "name": "青鳩幼稚園",
        "address": "葛飾区青戸6-8-3",
        "lat": 35.750184,
        "lng": 139.855925
    },
    {
        "code": "A113312200189",
        "type": 16011,
        "name": "金町幼稚園",
        "address": "葛飾区金町4-10-14",
        "lat": 35.7663,
        "lng": 139.864376
    },
    {
        "code": "A113312200198",
        "type": 16011,
        "name": "あやめ幼稚園",
        "address": "葛飾区堀切7-17-6",
        "lat": 35.755756,
        "lng": 139.834074
    },
    {
        "code": "A113312200205",
        "type": 16011,
        "name": "葛飾やまびこ幼稚園",
        "address": "葛飾区青戸8-4-20",
        "lat": 35.756834,
        "lng": 139.85075
    },
    {
        "code": "A113312200214",
        "type": 16011,
        "name": "葛飾しらゆり学園幼稚園",
        "address": "葛飾区鎌倉2-8-11",
        "lat": 35.746205,
        "lng": 139.874832
    },
    {
        "code": "A113312200223",
        "type": 16011,
        "name": "東光幼稚園",
        "address": "葛飾区お花茶屋1-2-15",
        "lat": 35.748128,
        "lng": 139.837756
    },
    {
        "code": "A113312200232",
        "type": 16011,
        "name": "水元八千代幼稚園",
        "address": "葛飾区西水元3-12-12",
        "lat": 35.787991,
        "lng": 139.847275
    },
    {
        "code": "A113312200241",
        "type": 16011,
        "name": "浜島幼稚園",
        "address": "葛飾区東金町5-47-5",
        "lat": 35.779861,
        "lng": 139.879934
    },
    {
        "code": "A113312200250",
        "type": 16011,
        "name": "新小岩ちぐさ幼稚園",
        "address": "葛飾区西新小岩4-35-5",
        "lat": 35.720251,
        "lng": 139.85388
    },
    {
        "code": "A113312200269",
        "type": 16011,
        "name": "延命幼稚園",
        "address": "葛飾区東水元3-18-18",
        "lat": 35.785506,
        "lng": 139.867791
    },
    {
        "code": "A213312200017",
        "type": 16013,
        "name": "幼保連携型認定こども園葛飾みどり",
        "address": "葛飾区鎌倉1-21-9",
        "lat": 35.741964,
        "lng": 139.879285
    },
    {
        "code": "A213312200026",
        "type": 16013,
        "name": "まどか幼稚園",
        "address": "葛飾区東新小岩7-2-8",
        "lat": 35.724065,
        "lng": 139.853432
    },
    {
        "code": "A213312200035",
        "type": 16013,
        "name": "葛飾二葉幼稚園",
        "address": "葛飾区金町2-19-6",
        "lat": 35.764817,
        "lng": 139.871
    },
    {
        "code": "B113212200018",
        "type": 16001,
        "name": "本田小学校",
        "address": "葛飾区立石1-7-23",
        "lat": 35.737205,
        "lng": 139.844868
    },
    {
        "code": "B113212200027",
        "type": 16001,
        "name": "葛飾小学校",
        "address": "葛飾区青戸1-3-1",
        "lat": 35.742455,
        "lng": 139.854839
    },
    {
        "code": "B113212200036",
        "type": 16001,
        "name": "梅田小学校",
        "address": "葛飾区立石3-24-1",
        "lat": 35.741594,
        "lng": 139.844368
    },
    {
        "code": "B113212200045",
        "type": 16001,
        "name": "渋江小学校",
        "address": "葛飾区東四つ木2-13-1",
        "lat": 35.730621,
        "lng": 139.842657
    },
    {
        "code": "B113212200054",
        "type": 16001,
        "name": "南綾瀬小学校",
        "address": "葛飾区堀切6-1-1",
        "lat": 35.75187,
        "lng": 139.828314
    },
    {
        "code": "B113212200063",
        "type": 16001,
        "name": "上千葉小学校",
        "address": "葛飾区東堀切3-26-1",
        "lat": 35.753953,
        "lng": 139.838229
    },
    {
        "code": "B113212200072",
        "type": 16001,
        "name": "堀切小学校",
        "address": "葛飾区堀切2-42-1",
        "lat": 35.744288,
        "lng": 139.82837
    },
    {
        "code": "B113212200081",
        "type": 16001,
        "name": "奥戸小学校",
        "address": "葛飾区奥戸8-20-17",
        "lat": 35.739011,
        "lng": 139.865311
    },
    {
        "code": "B113212200090",
        "type": 16001,
        "name": "上平井小学校",
        "address": "葛飾区西新小岩4-22-1",
        "lat": 35.722818,
        "lng": 139.85173
    },
    {
        "code": "B113212200107",
        "type": 16001,
        "name": "二上小学校",
        "address": "葛飾区東新小岩7-18-1",
        "lat": 35.724484,
        "lng": 139.855174
    },
    {
        "code": "B113212200116",
        "type": 16001,
        "name": "高砂小学校",
        "address": "葛飾区高砂3-30-1",
        "lat": 35.746677,
        "lng": 139.869977
    },
    {
        "code": "B113212200125",
        "type": 16001,
        "name": "新宿小学校",
        "address": "葛飾区新宿2-26-1",
        "lat": 35.763091,
        "lng": 139.858199
    },
    {
        "code": "B113212200134",
        "type": 16001,
        "name": "住吉小学校",
        "address": "葛飾区高砂8-14-1",
        "lat": 35.754592,
        "lng": 139.867032
    },
    {
        "code": "B113212200143",
        "type": 16001,
        "name": "亀青小学校",
        "address": "葛飾区青戸8-17-1",
        "lat": 35.758731,
        "lng": 139.85245
    },
    {
        "code": "B113212200152",
        "type": 16001,
        "name": "道上小学校",
        "address": "葛飾区亀有4-35-1",
        "lat": 35.763897,
        "lng": 139.845089
    },
    {
        "code": "B113212200161",
        "type": 16001,
        "name": "金町小学校",
        "address": "葛飾区金町3-44-1",
        "lat": 35.766563,
        "lng": 139.877559
    },
    {
        "code": "B113212200170",
        "type": 16001,
        "name": "末広小学校",
        "address": "葛飾区金町4-21-1",
        "lat": 35.766646,
        "lng": 139.865143
    },
    {
        "code": "B113212200189",
        "type": 16001,
        "name": "柴又小学校",
        "address": "葛飾区柴又4-30-1",
        "lat": 35.753065,
        "lng": 139.877254
    },
    {
        "code": "B113212200198",
        "type": 16001,
        "name": "鎌倉小学校",
        "address": "葛飾区鎌倉4-24-1",
        "lat": 35.747121,
        "lng": 139.882448
    },
    {
        "code": "B113212200205",
        "type": 16001,
        "name": "水元小学校",
        "address": "葛飾区水元4-21-1",
        "lat": 35.787977,
        "lng": 139.863976
    },
    {
        "code": "B113212200214",
        "type": 16001,
        "name": "半田小学校",
        "address": "葛飾区東金町5-16-1",
        "lat": 35.777367,
        "lng": 139.877226
    },
    {
        "code": "B113212200223",
        "type": 16001,
        "name": "宝木塚小学校",
        "address": "葛飾区宝町2-29-23",
        "lat": 35.744788,
        "lng": 139.838202
    },
    {
        "code": "B113212200232",
        "type": 16001,
        "name": "青戸小学校",
        "address": "葛飾区青戸6-18-1",
        "lat": 35.751537,
        "lng": 139.8572
    },
    {
        "code": "B113212200241",
        "type": 16001,
        "name": "清和小学校",
        "address": "葛飾区立石6-2-1",
        "lat": 35.743066,
        "lng": 139.848757
    },
    {
        "code": "B113212200250",
        "type": 16001,
        "name": "木根川小学校",
        "address": "葛飾区東四つ木1-10-1",
        "lat": 35.727714,
        "lng": 139.840362
    },
    {
        "code": "B113212200269",
        "type": 16001,
        "name": "中之台小学校",
        "address": "葛飾区亀有5-2-1",
        "lat": 35.766396,
        "lng": 139.843006
    },
    {
        "code": "B113212200278",
        "type": 16001,
        "name": "綾南小学校",
        "address": "葛飾区堀切1-22-1",
        "lat": 35.739956,
        "lng": 139.830481
    },
    {
        "code": "B113212200287",
        "type": 16001,
        "name": "川端小学校",
        "address": "葛飾区東立石1-2-1",
        "lat": 35.731845,
        "lng": 139.845813
    },
    {
        "code": "B113212200296",
        "type": 16001,
        "name": "北野小学校",
        "address": "葛飾区柴又3-10-1",
        "lat": 35.759758,
        "lng": 139.872088
    },
    {
        "code": "B113212200303",
        "type": 16001,
        "name": "白鳥小学校",
        "address": "葛飾区白鳥3-4-1",
        "lat": 35.750537,
        "lng": 139.844118
    },
    {
        "code": "B113212200312",
        "type": 16001,
        "name": "松上小学校",
        "address": "葛飾区西新小岩2-1-1",
        "lat": 35.717818,
        "lng": 139.853174
    },
    {
        "code": "B113212200321",
        "type": 16001,
        "name": "西小菅小学校",
        "address": "葛飾区小菅1-25-1",
        "lat": 35.756314,
        "lng": 139.817703
    },
    {
        "code": "B113212200330",
        "type": 16001,
        "name": "柴原小学校",
        "address": "葛飾区金町1-15-1",
        "lat": 35.76273,
        "lng": 139.867449
    },
    {
        "code": "B113212200349",
        "type": 16001,
        "name": "中青戸小学校",
        "address": "葛飾区青戸4-24-1",
        "lat": 35.750509,
        "lng": 139.851839
    },
    {
        "code": "B113212200358",
        "type": 16001,
        "name": "南奥戸小学校",
        "address": "葛飾区奥戸3-5-1",
        "lat": 35.731651,
        "lng": 139.860117
    },
    {
        "code": "B113212200367",
        "type": 16001,
        "name": "東綾瀬小学校",
        "address": "葛飾区堀切6-21-1",
        "lat": 35.753787,
        "lng": 139.831924
    },
    {
        "code": "B113212200376",
        "type": 16001,
        "name": "原田小学校",
        "address": "葛飾区東金町2-16-1",
        "lat": 35.773173,
        "lng": 139.868171
    },
    {
        "code": "B113212200385",
        "type": 16001,
        "name": "東柴又小学校",
        "address": "葛飾区柴又5-12-15",
        "lat": 35.752815,
        "lng": 139.880393
    },
    {
        "code": "B113212200394",
        "type": 16001,
        "name": "飯塚小学校",
        "address": "葛飾区南水元1-13-1",
        "lat": 35.777089,
        "lng": 139.858116
    },
    {
        "code": "B113212200401",
        "type": 16001,
        "name": "西亀有小学校",
        "address": "葛飾区西亀有2-42-1",
        "lat": 35.760675,
        "lng": 139.834646
    },
    {
        "code": "B113212200410",
        "type": 16001,
        "name": "花の木小学校",
        "address": "葛飾区南水元3-2-1",
        "lat": 35.774229,
        "lng": 139.864282
    },
    {
        "code": "B113212200429",
        "type": 16001,
        "name": "上小松小学校",
        "address": "葛飾区奥戸4-1-4",
        "lat": 35.728095,
        "lng": 139.862673
    },
    {
        "code": "B113212200438",
        "type": 16001,
        "name": "幸田小学校",
        "address": "葛飾区西水元3-24-12",
        "lat": 35.789004,
        "lng": 139.849561
    },
    {
        "code": "B113212200447",
        "type": 16001,
        "name": "細田小学校",
        "address": "葛飾区細田3-20-1",
        "lat": 35.741428,
        "lng": 139.868394
    },
    {
        "code": "B113212200456",
        "type": 16001,
        "name": "東金町小学校",
        "address": "葛飾区東金町1-33-1",
        "lat": 35.77384,
        "lng": 139.870809
    },
    {
        "code": "B113212200465",
        "type": 16001,
        "name": "東水元小学校",
        "address": "葛飾区東水元5-38-1",
        "lat": 35.790809,
        "lng": 139.86767
    },
    {
        "code": "B113212200474",
        "type": 16001,
        "name": "よつぎ小学校",
        "address": "葛飾区四つ木4-8-1",
        "lat": 35.736741,
        "lng": 139.834015
    },
    {
        "code": "B113212200483",
        "type": 16001,
        "name": "小松南小学校",
        "address": "葛飾区新小岩2-25-1",
        "lat": 35.71669,
        "lng": 139.863798
    },
    {
        "code": "B113212200492",
        "type": 16001,
        "name": "こすげ小学校",
        "address": "葛飾区小菅3-8-1",
        "lat": 35.754397,
        "lng": 139.824342
    },
    {
        "code": "C113212200016",
        "type": 16002,
        "name": "本田中学校",
        "address": "葛飾区東立石4-7-1",
        "lat": 35.732345,
        "lng": 139.852396
    },
    {
        "code": "C113212200025",
        "type": 16002,
        "name": "金町中学校",
        "address": "葛飾区南水元3-1-1",
        "lat": 35.773645,
        "lng": 139.865143
    },
    {
        "code": "C113212200034",
        "type": 16002,
        "name": "水元中学校",
        "address": "葛飾区水元3-20-1",
        "lat": 35.782755,
        "lng": 139.865337
    },
    {
        "code": "C113212200043",
        "type": 16002,
        "name": "新宿中学校",
        "address": "葛飾区新宿3-20-10",
        "lat": 35.761175,
        "lng": 139.863227
    },
    {
        "code": "C113212200052",
        "type": 16002,
        "name": "奥戸中学校",
        "address": "葛飾区細田1-6-1",
        "lat": 35.737178,
        "lng": 139.871227
    },
    {
        "code": "C113212200061",
        "type": 16002,
        "name": "綾瀬中学校",
        "address": "葛飾区小菅2-12-1",
        "lat": 35.752703,
        "lng": 139.824369
    },
    {
        "code": "C113212200070",
        "type": 16002,
        "name": "上平井中学校",
        "address": "葛飾区東新小岩4-2-1",
        "lat": 35.72479,
        "lng": 139.860507
    },
    {
        "code": "C113212200089",
        "type": 16002,
        "name": "中川中学校",
        "address": "葛飾区東四つ木1-3-1",
        "lat": 35.725891,
        "lng": 139.841534
    },
    {
        "code": "C113212200098",
        "type": 16002,
        "name": "桜道中学校",
        "address": "葛飾区柴又4-3-1",
        "lat": 35.752648,
        "lng": 139.87306
    },
    {
        "code": "C113212200105",
        "type": 16002,
        "name": "堀切中学校",
        "address": "葛飾区堀切1-36-1",
        "lat": 35.741511,
        "lng": 139.832786
    },
    {
        "code": "C113212200114",
        "type": 16002,
        "name": "双葉中学校",
        "address": "葛飾区お花茶屋1-10-1",
        "lat": 35.750315,
        "lng": 139.838035
    },
    {
        "code": "C113212200123",
        "type": 16002,
        "name": "大道中学校",
        "address": "葛飾区四つ木5-22-1",
        "lat": 35.744161,
        "lng": 139.842509
    },
    {
        "code": "C113212200132",
        "type": 16002,
        "name": "四ツ木中学校",
        "address": "葛飾区四つ木4-22-1",
        "lat": 35.738694,
        "lng": 139.835333
    },
    {
        "code": "C113212200141",
        "type": 16002,
        "name": "小松中学校",
        "address": "葛飾区新小岩4-30-1",
        "lat": 35.720457,
        "lng": 139.86434
    },
    {
        "code": "C113212200150",
        "type": 16002,
        "name": "亀有中学校",
        "address": "葛飾区亀有1-23-1",
        "lat": 35.760342,
        "lng": 139.846673
    },
    {
        "code": "C113212200169",
        "type": 16002,
        "name": "立石中学校",
        "address": "葛飾区立石6-3-1",
        "lat": 35.743844,
        "lng": 139.848507
    },
    {
        "code": "C113212200178",
        "type": 16002,
        "name": "常盤中学校",
        "address": "葛飾区金町2-11-1",
        "lat": 35.762925,
        "lng": 139.870976
    },
    {
        "code": "C113212200187",
        "type": 16002,
        "name": "一之台中学校",
        "address": "葛飾区西亀有4-1-1",
        "lat": 35.764258,
        "lng": 139.83809
    },
    {
        "code": "C113212200196",
        "type": 16002,
        "name": "青戸中学校",
        "address": "葛飾区青戸5-10-1",
        "lat": 35.751009,
        "lng": 139.853256
    },
    {
        "code": "C113212200203",
        "type": 16002,
        "name": "青葉中学校",
        "address": "葛飾区堀切8-12-1",
        "lat": 35.757286,
        "lng": 139.834229
    },
    {
        "code": "C113212200212",
        "type": 16002,
        "name": "高砂中学校",
        "address": "葛飾区高砂3-32-1",
        "lat": 35.746038,
        "lng": 139.869588
    },
    {
        "code": "C113212200221",
        "type": 16002,
        "name": "東金町中学校",
        "address": "葛飾区東金町5-3-1",
        "lat": 35.777811,
        "lng": 139.874004
    },
    {
        "code": "C113212200230",
        "type": 16002,
        "name": "葛美中学校",
        "address": "葛飾区水元2-17-1",
        "lat": 35.784783,
        "lng": 139.858171
    },
    {
        "code": "C113212200249",
        "type": 16002,
        "name": "新小岩中学校",
        "address": "葛飾区西新小岩2-1-2",
        "lat": 35.71754,
        "lng": 139.85248
    },
    {
        "code": "C113312200014",
        "type": 16002,
        "name": "共栄学園中学校",
        "address": "葛飾区お花茶屋2-6-1",
        "lat": 35.750787,
        "lng": 139.840452
    },
    {
        "code": "C113312200023",
        "type": 16002,
        "name": "修徳中学校",
        "address": "葛飾区青戸8-10-1",
        "lat": 35.757671,
        "lng": 139.851786
    },
    {
        "code": "C113312200032",
        "type": 16002,
        "name": "東京シューレ葛飾中学校",
        "address": "葛飾区新小岩3-25-1",
        "lat": 35.713468,
        "lng": 139.865889
    },
    {
        "code": "D113299906045",
        "type": 16004,
        "name": "葛飾野高等学校",
        "address": "葛飾区亀有1-7-1",
        "lat": 35.755898,
        "lng": 139.845812
    },
    {
        "code": "D113299906054",
        "type": 16004,
        "name": "南葛飾高等学校",
        "address": "葛飾区立石6-4-1",
        "lat": 35.744871,
        "lng": 139.848423
    },
    {
        "code": "D113299906170",
        "type": 16004,
        "name": "葛飾総合高等学校",
        "address": "葛飾区南水元4-21-1",
        "lat": 35.777701,
        "lng": 139.865234
    },
    {
        "code": "D113299906189",
        "type": 16004,
        "name": "葛飾商業高等学校",
        "address": "葛飾区新宿3-14-1",
        "lat": 35.757259,
        "lng": 139.86481
    },
    {
        "code": "D113299906214",
        "type": 16004,
        "name": "本所工業高等学校",
        "address": "葛飾区南水元4-21-1",
        "lat": 35.7777,
        "lng": 139.865226
    },
    {
        "code": "D113299906250",
        "type": 16004,
        "name": "農産高等学校",
        "address": "葛飾区西亀有1-28-1",
        "lat": 35.759008,
        "lng": 139.841812
    },
    {
        "code": "D113312200012",
        "type": 16004,
        "name": "共栄学園高等学校",
        "address": "葛飾区お花茶屋2-6-1",
        "lat": 35.750787,
        "lng": 139.840479
    },
    {
        "code": "D113312200021",
        "type": 16004,
        "name": "修徳高等学校",
        "address": "葛飾区青戸8-10-1",
        "lat": 35.757647,
        "lng": 139.851784
    },
    {
        "code": "E113299910028",
        "type": 16012,
        "name": "葛飾盲学校",
        "address": "葛飾区堀切7-31-5",
        "lat": 35.755925,
        "lng": 139.829424
    },
    {
        "code": "E113299920035",
        "type": 16012,
        "name": "葛飾ろう学校",
        "address": "葛飾区西亀有2-58-1",
        "lat": 35.76348,
        "lng": 139.832229
    },
    {
        "code": "E113299940120",
        "type": 16012,
        "name": "水元特別支援学校",
        "address": "葛飾区西水元5-2-1",
        "lat": 35.784283,
        "lng": 139.853866
    },
    {
        "code": "E113299940184",
        "type": 16012,
        "name": "葛飾特別支援学校",
        "address": "葛飾区金町2-14-1",
        "lat": 35.764008,
        "lng": 139.870615
    },
    {
        "code": "E113299940344",
        "type": 16012,
        "name": "水元小合学園",
        "address": "葛飾区水元1-24-1",
        "lat": 35.782991,
        "lng": 139.859063
    },
    {
        "code": "F113310104018",
        "type": 16007,
        "name": "東京聖栄大学",
        "address": "葛飾区西新小岩1-4-6",
        "lat": 35.718035,
        "lng": 139.856816
    },
    {
        "code": "H113312200013",
        "type": 16016,
        "name": "東京聖栄大学附属調理師専門学校",
        "address": "葛飾区西新小岩1-7-5",
        "lat": 35.718567,
        "lng": 139.856783
    },
    {
        "code": "H113312200022",
        "type": 16016,
        "name": "国際鍼灸専門学校",
        "address": "葛飾区立石6-36-7",
        "lat": 35.743516,
        "lng": 139.853636
    },
    {
        "code": "H113312200031",
        "type": 16016,
        "name": "葛飾区医師会附属看護専門学校",
        "address": "葛飾区四つ木1-6-5",
        "lat": 35.733198,
        "lng": 139.833218
    },
    {
        "code": "H113312200040",
        "type": 16016,
        "name": "中央医療技術専門学校",
        "address": "葛飾区立石3-5-12",
        "lat": 35.739147,
        "lng": 139.843313
    },
    {
        "code": "H113312200059",
        "type": 16016,
        "name": "東京自動車大学校",
        "address": "葛飾区西亀有3-28-3",
        "lat": 35.762522,
        "lng": 139.839862
    }
]