[
    {
        "code": "A113320100012",
        "type": 16011,
        "name": "帝京大学幼稚園",
        "address": "八王子市大塚359",
        "lat": 35.6418,
        "lng": 139.419635
    },
    {
        "code": "A113320100021",
        "type": 16011,
        "name": "八王子実践幼稚園",
        "address": "八王子市台町1-12-15",
        "lat": 35.650777,
        "lng": 139.327466
    },
    {
        "code": "A113320100030",
        "type": 16011,
        "name": "なかよし幼稚園",
        "address": "八王子市台町4-34-11",
        "lat": 35.657784,
        "lng": 139.317533
    },
    {
        "code": "A113320100049",
        "type": 16011,
        "name": "八王子幼稚園",
        "address": "八王子市新町1-11",
        "lat": 35.660141,
        "lng": 139.340637
    },
    {
        "code": "A113320100058",
        "type": 16011,
        "name": "本町幼稚園",
        "address": "八王子市本町16-3",
        "lat": 35.661345,
        "lng": 139.331929
    },
    {
        "code": "A113320100067",
        "type": 16011,
        "name": "八王子幼稚園",
        "address": "八王子市天神町22-1",
        "lat": 35.657268,
        "lng": 139.329832
    },
    {
        "code": "A113320100076",
        "type": 16011,
        "name": "かしわ幼稚園",
        "address": "八王子市明神町1-20-7",
        "lat": 35.66044,
        "lng": 139.347889
    },
    {
        "code": "A113320100085",
        "type": 16011,
        "name": "みころも幼稚園",
        "address": "八王子市初沢町1310",
        "lat": 35.639175,
        "lng": 139.283095
    },
    {
        "code": "A113320100094",
        "type": 16011,
        "name": "八王子白百合幼稚園",
        "address": "八王子市長房町75-1",
        "lat": 35.660412,
        "lng": 139.303348
    },
    {
        "code": "A113320100101",
        "type": 16011,
        "name": "なかの幼稚園",
        "address": "八王子市中野上町5-32-13",
        "lat": 35.67505,
        "lng": 139.315002
    },
    {
        "code": "A113320100110",
        "type": 16011,
        "name": "長沼幼稚園",
        "address": "八王子市長沼町960-11",
        "lat": 35.64156,
        "lng": 139.363816
    },
    {
        "code": "A113320100129",
        "type": 16011,
        "name": "元八王子幼稚園",
        "address": "八王子市元八王子町2-1012-3",
        "lat": 35.662411,
        "lng": 139.283919
    },
    {
        "code": "A113320100138",
        "type": 16011,
        "name": "真理学園幼稚園",
        "address": "八王子市別所2-24",
        "lat": 35.620965,
        "lng": 139.40127
    },
    {
        "code": "A113320100147",
        "type": 16011,
        "name": "柚木武蔵野幼稚園",
        "address": "八王子市上柚木3-8",
        "lat": 35.616158,
        "lng": 139.370501
    },
    {
        "code": "A113320100156",
        "type": 16011,
        "name": "武蔵野幼稚園",
        "address": "八王子市松が谷24",
        "lat": 35.630556,
        "lng": 139.41887
    },
    {
        "code": "A113320100165",
        "type": 16011,
        "name": "サンライズ幼稚園",
        "address": "八王子市片倉町1296-6",
        "lat": 35.630377,
        "lng": 139.346523
    },
    {
        "code": "A113320100174",
        "type": 16011,
        "name": "聖徳大学多摩幼稚園",
        "address": "八王子市鹿島1",
        "lat": 35.632747,
        "lng": 139.427756
    },
    {
        "code": "A113320100183",
        "type": 16011,
        "name": "おさひめ幼稚園",
        "address": "八王子市下柚木1982",
        "lat": 35.631897,
        "lng": 139.365333
    },
    {
        "code": "A113320100192",
        "type": 16011,
        "name": "八王子すみれ幼稚園",
        "address": "八王子市丹木町2-355",
        "lat": 35.696022,
        "lng": 139.333842
    },
    {
        "code": "A113320100209",
        "type": 16011,
        "name": "八王子桑の実幼稚園",
        "address": "八王子市諏訪町212",
        "lat": 35.677806,
        "lng": 139.291643
    },
    {
        "code": "A113320100218",
        "type": 16011,
        "name": "犬目幼稚園",
        "address": "八王子市犬目町488",
        "lat": 35.687292,
        "lng": 139.311543
    },
    {
        "code": "A113320100227",
        "type": 16011,
        "name": "たてまち幼稚園",
        "address": "八王子市館町2435",
        "lat": 35.627677,
        "lng": 139.294789
    },
    {
        "code": "A113320100236",
        "type": 16011,
        "name": "聖徳大学八王子幼稚園",
        "address": "八王子市椚田町1003",
        "lat": 35.639614,
        "lng": 139.303346
    },
    {
        "code": "A113320100245",
        "type": 16011,
        "name": "セント・ベル幼稚園",
        "address": "八王子市並木町33-2",
        "lat": 35.654502,
        "lng": 139.303866
    },
    {
        "code": "A113320100254",
        "type": 16011,
        "name": "永明院ルンビニ幼稚園",
        "address": "八王子市山田町1622",
        "lat": 35.647436,
        "lng": 139.318672
    },
    {
        "code": "A113320100263",
        "type": 16011,
        "name": "高尾幼稚園",
        "address": "八王子市東浅川町515-5",
        "lat": 35.645827,
        "lng": 139.296852
    },
    {
        "code": "A113320100272",
        "type": 16011,
        "name": "東京ゆりかご幼稚園",
        "address": "八王子市七国3-50-2",
        "lat": 35.61622,
        "lng": 139.327186
    },
    {
        "code": "A113320100281",
        "type": 16011,
        "name": "横川幼稚園",
        "address": "八王子市横川町209",
        "lat": 35.667733,
        "lng": 139.306681
    },
    {
        "code": "A113320100290",
        "type": 16011,
        "name": "グリーンヒル幼稚園",
        "address": "八王子市寺田町432",
        "lat": 35.621959,
        "lng": 139.307533
    },
    {
        "code": "A113320100307",
        "type": 16011,
        "name": "麻生学園南多摩幼稚園",
        "address": "八王子市南大沢3-10",
        "lat": 35.605811,
        "lng": 139.380455
    },
    {
        "code": "A113320100316",
        "type": 16011,
        "name": "多摩なかよし幼稚園",
        "address": "八王子市南大沢5-23",
        "lat": 35.610923,
        "lng": 139.369635
    },
    {
        "code": "A213320100011",
        "type": 16013,
        "name": "共励こども園",
        "address": "八王子市明神町1-9-20",
        "lat": 35.659124,
        "lng": 139.350291
    },
    {
        "code": "A213320100020",
        "type": 16013,
        "name": "共励第二こども園",
        "address": "八王子市川口町2631",
        "lat": 35.694321,
        "lng": 139.282185
    },
    {
        "code": "A213320100039",
        "type": 16013,
        "name": "由井さゆり学園",
        "address": "八王子市片倉町2436",
        "lat": 35.641348,
        "lng": 139.33854
    },
    {
        "code": "A213320100048",
        "type": 16013,
        "name": "みなみ野さゆり学園",
        "address": "八王子市七国5-14-1",
        "lat": 35.622937,
        "lng": 139.318827
    },
    {
        "code": "A213320100057",
        "type": 16013,
        "name": "さゆりの丘学園",
        "address": "八王子市宇津貫町945",
        "lat": 35.627855,
        "lng": 139.331914
    },
    {
        "code": "A213320100066",
        "type": 16013,
        "name": "幼保連携型認定こども園せいび",
        "address": "八王子市南大沢5-12",
        "lat": 35.611465,
        "lng": 139.370698
    },
    {
        "code": "B113220100012",
        "type": 16001,
        "name": "第一小学校",
        "address": "八王子市元横山町2-14-3",
        "lat": 35.66134,
        "lng": 139.336637
    },
    {
        "code": "B113220100021",
        "type": 16001,
        "name": "第二小学校",
        "address": "八王子市八木町7-1",
        "lat": 35.661645,
        "lng": 139.321916
    },
    {
        "code": "B113220100030",
        "type": 16001,
        "name": "第三小学校",
        "address": "八王子市寺町29-15",
        "lat": 35.655479,
        "lng": 139.331943
    },
    {
        "code": "B113220100049",
        "type": 16001,
        "name": "第四小学校",
        "address": "八王子市明神町2-15-1",
        "lat": 35.65773,
        "lng": 139.345831
    },
    {
        "code": "B113220100058",
        "type": 16001,
        "name": "第五小学校",
        "address": "八王子市千人町3-7-7",
        "lat": 35.659367,
        "lng": 139.308112
    },
    {
        "code": "B113220100067",
        "type": 16001,
        "name": "第七小学校",
        "address": "八王子市台町4-2-1",
        "lat": 35.65709,
        "lng": 139.323583
    },
    {
        "code": "B113220100076",
        "type": 16001,
        "name": "第八小学校",
        "address": "八王子市石川町2065",
        "lat": 35.671312,
        "lng": 139.360662
    },
    {
        "code": "B113220100085",
        "type": 16001,
        "name": "第九小学校",
        "address": "八王子市中野上町2-14-1",
        "lat": 35.670894,
        "lng": 139.324804
    },
    {
        "code": "B113220100094",
        "type": 16001,
        "name": "第十小学校",
        "address": "八王子市大和田町7-5-1",
        "lat": 35.666201,
        "lng": 139.343553
    },
    {
        "code": "B113220100101",
        "type": 16001,
        "name": "中野北小学校",
        "address": "八王子市中野山王3-1-1",
        "lat": 35.674561,
        "lng": 139.327165
    },
    {
        "code": "B113220100110",
        "type": 16001,
        "name": "大和田小学校",
        "address": "八王子市大和田町4-19-1",
        "lat": 35.66559,
        "lng": 139.354441
    },
    {
        "code": "B113220100129",
        "type": 16001,
        "name": "横山第一小学校",
        "address": "八王子市館町74",
        "lat": 35.633954,
        "lng": 139.304363
    },
    {
        "code": "B113220100138",
        "type": 16001,
        "name": "横山第二小学校",
        "address": "八王子市並木町26-1",
        "lat": 35.653923,
        "lng": 139.301529
    },
    {
        "code": "B113220100147",
        "type": 16001,
        "name": "散田小学校",
        "address": "八王子市散田町5-23-1",
        "lat": 35.647841,
        "lng": 139.301751
    },
    {
        "code": "B113220100156",
        "type": 16001,
        "name": "長房小学校",
        "address": "八王子市長房町340-4",
        "lat": 35.657784,
        "lng": 139.300585
    },
    {
        "code": "B113220100165",
        "type": 16001,
        "name": "船田小学校",
        "address": "八王子市長房町1041-2",
        "lat": 35.657061,
        "lng": 139.28878
    },
    {
        "code": "B113220100174",
        "type": 16001,
        "name": "元八王子小学校",
        "address": "八王子市弐分方町761",
        "lat": 35.669727,
        "lng": 139.291946
    },
    {
        "code": "B113220100183",
        "type": 16001,
        "name": "元八王子東小学校",
        "address": "八王子市叶谷町1521",
        "lat": 35.671255,
        "lng": 139.304028
    },
    {
        "code": "B113220100192",
        "type": 16001,
        "name": "上壱分方小学校",
        "address": "八王子市上壱分方町799-2",
        "lat": 35.684808,
        "lng": 139.283974
    },
    {
        "code": "B113220100209",
        "type": 16001,
        "name": "恩方第一小学校",
        "address": "八王子市下恩方町1369",
        "lat": 35.669642,
        "lng": 139.254644
    },
    {
        "code": "B113220100218",
        "type": 16001,
        "name": "恩方第二小学校",
        "address": "八王子市上恩方町2193",
        "lat": 35.671923,
        "lng": 139.2109
    },
    {
        "code": "B113220100227",
        "type": 16001,
        "name": "川口小学校",
        "address": "八王子市川口町3675",
        "lat": 35.692057,
        "lng": 139.280252
    },
    {
        "code": "B113220100236",
        "type": 16001,
        "name": "陶鎔小学校",
        "address": "八王子市犬目町56",
        "lat": 35.68817,
        "lng": 139.307944
    },
    {
        "code": "B113220100245",
        "type": 16001,
        "name": "上川口小学校",
        "address": "八王子市上川町1099",
        "lat": 35.7055,
        "lng": 139.250032
    },
    {
        "code": "B113220100254",
        "type": 16001,
        "name": "美山小学校",
        "address": "八王子市美山町1892",
        "lat": 35.690863,
        "lng": 139.248422
    },
    {
        "code": "B113220100263",
        "type": 16001,
        "name": "楢原小学校",
        "address": "八王子市楢原町1287-2",
        "lat": 35.675588,
        "lng": 139.307361
    },
    {
        "code": "B113220100272",
        "type": 16001,
        "name": "加住小学校",
        "address": "八王子市加住町1-191",
        "lat": 35.701835,
        "lng": 139.316915
    },
    {
        "code": "B113220100281",
        "type": 16001,
        "name": "由井第一小学校",
        "address": "八王子市打越348-1",
        "lat": 35.645731,
        "lng": 139.356497
    },
    {
        "code": "B113220100290",
        "type": 16001,
        "name": "由井第二小学校",
        "address": "八王子市片倉町2180",
        "lat": 35.636621,
        "lng": 139.338165
    },
    {
        "code": "B113220100307",
        "type": 16001,
        "name": "由井第三小学校",
        "address": "八王子市小比企町1201",
        "lat": 35.642842,
        "lng": 139.327305
    },
    {
        "code": "B113220100316",
        "type": 16001,
        "name": "長沼小学校",
        "address": "八王子市長沼町707-3",
        "lat": 35.642482,
        "lng": 139.365496
    },
    {
        "code": "B113220100325",
        "type": 16001,
        "name": "浅川小学校",
        "address": "八王子市初沢町1335",
        "lat": 35.64023,
        "lng": 139.281781
    },
    {
        "code": "B113220100334",
        "type": 16001,
        "name": "由木中央小学校",
        "address": "八王子市下柚木25",
        "lat": 35.629492,
        "lng": 139.383373
    },
    {
        "code": "B113220100343",
        "type": 16001,
        "name": "由木東小学校",
        "address": "八王子市東中野1347",
        "lat": 35.6334,
        "lng": 139.408215
    },
    {
        "code": "B113220100352",
        "type": 16001,
        "name": "由木西小学校",
        "address": "八王子市上柚木538-1",
        "lat": 35.623123,
        "lng": 139.361358
    },
    {
        "code": "B113220100361",
        "type": 16001,
        "name": "清水小学校",
        "address": "八王子市中野山王3-25-1",
        "lat": 35.676144,
        "lng": 139.319555
    },
    {
        "code": "B113220100370",
        "type": 16001,
        "name": "小宮小学校",
        "address": "八王子市小宮町1128-3",
        "lat": 35.683644,
        "lng": 139.367633
    },
    {
        "code": "B113220100389",
        "type": 16001,
        "name": "山田小学校",
        "address": "八王子市山田町1553",
        "lat": 35.64673,
        "lng": 139.313556
    },
    {
        "code": "B113220100398",
        "type": 16001,
        "name": "城山小学校",
        "address": "八王子市元八王子町2-1767",
        "lat": 35.659144,
        "lng": 139.277614
    },
    {
        "code": "B113220100405",
        "type": 16001,
        "name": "片倉台小学校",
        "address": "八王子市片倉町1318",
        "lat": 35.631344,
        "lng": 139.346443
    },
    {
        "code": "B113220100414",
        "type": 16001,
        "name": "鹿島小学校",
        "address": "八王子市鹿島13",
        "lat": 35.633956,
        "lng": 139.426158
    },
    {
        "code": "B113220100423",
        "type": 16001,
        "name": "松が谷小学校",
        "address": "八王子市松が谷12",
        "lat": 35.63029,
        "lng": 139.417659
    },
    {
        "code": "B113220100432",
        "type": 16001,
        "name": "東浅川小学校",
        "address": "八王子市東浅川町550-22",
        "lat": 35.642674,
        "lng": 139.286503
    },
    {
        "code": "B113220100441",
        "type": 16001,
        "name": "椚田小学校",
        "address": "八王子市椚田町571-2",
        "lat": 35.636592,
        "lng": 139.302224
    },
    {
        "code": "B113220100450",
        "type": 16001,
        "name": "元木小学校",
        "address": "八王子市下恩方町515-1",
        "lat": 35.681114,
        "lng": 139.26442
    },
    {
        "code": "B113220100469",
        "type": 16001,
        "name": "高嶺小学校",
        "address": "八王子市北野台4-21-1",
        "lat": 35.628344,
        "lng": 139.350748
    },
    {
        "code": "B113220100478",
        "type": 16001,
        "name": "弐分方小学校",
        "address": "八王子市弐分方町520-1",
        "lat": 35.671727,
        "lng": 139.288502
    },
    {
        "code": "B113220100487",
        "type": 16001,
        "name": "横川小学校",
        "address": "八王子市横川町305",
        "lat": 35.667227,
        "lng": 139.3075
    },
    {
        "code": "B113220100496",
        "type": 16001,
        "name": "松枝小学校",
        "address": "八王子市楢原町601-13",
        "lat": 35.685086,
        "lng": 139.302333
    },
    {
        "code": "B113220100502",
        "type": 16001,
        "name": "中山小学校",
        "address": "八王子市中山1155",
        "lat": 35.625595,
        "lng": 139.35847
    },
    {
        "code": "B113220100511",
        "type": 16001,
        "name": "高倉小学校",
        "address": "八王子市高倉町67-2",
        "lat": 35.662452,
        "lng": 139.365745
    },
    {
        "code": "B113220100520",
        "type": 16001,
        "name": "宇津木台小学校",
        "address": "八王子市久保山町2-18",
        "lat": 35.687004,
        "lng": 139.353968
    },
    {
        "code": "B113220100539",
        "type": 16001,
        "name": "柏木小学校",
        "address": "八王子市南大沢3-3",
        "lat": 35.610319,
        "lng": 139.382968
    },
    {
        "code": "B113220100548",
        "type": 16001,
        "name": "南大沢小学校",
        "address": "八王子市南大沢4-18",
        "lat": 35.60843,
        "lng": 139.37433
    },
    {
        "code": "B113220100557",
        "type": 16001,
        "name": "宮上小学校",
        "address": "八王子市南大沢5-10",
        "lat": 35.610486,
        "lng": 139.371191
    },
    {
        "code": "B113220100566",
        "type": 16001,
        "name": "秋葉台小学校",
        "address": "八王子市別所2-5",
        "lat": 35.624179,
        "lng": 139.405382
    },
    {
        "code": "B113220100575",
        "type": 16001,
        "name": "別所小学校",
        "address": "八王子市別所2-44",
        "lat": 35.614153,
        "lng": 139.395661
    },
    {
        "code": "B113220100584",
        "type": 16001,
        "name": "愛宕小学校",
        "address": "八王子市上柚木3-20",
        "lat": 35.619294,
        "lng": 139.373267
    },
    {
        "code": "B113220100593",
        "type": 16001,
        "name": "松木小学校",
        "address": "八王子市松木57-3",
        "lat": 35.622013,
        "lng": 139.393883
    },
    {
        "code": "B113220100600",
        "type": 16001,
        "name": "下柚木小学校",
        "address": "八王子市下柚木3-9",
        "lat": 35.622401,
        "lng": 139.380468
    },
    {
        "code": "B113220100619",
        "type": 16001,
        "name": "上柚木小学校",
        "address": "八王子市上柚木3-15",
        "lat": 35.616263,
        "lng": 139.368886
    },
    {
        "code": "B113220100628",
        "type": 16001,
        "name": "みなみ野小学校",
        "address": "八王子市みなみ野6-14-1",
        "lat": 35.632871,
        "lng": 139.323417
    },
    {
        "code": "B113220100637",
        "type": 16001,
        "name": "長池小学校",
        "address": "八王子市別所1-55",
        "lat": 35.610745,
        "lng": 139.388451
    },
    {
        "code": "B113220100646",
        "type": 16001,
        "name": "鑓水小学校",
        "address": "八王子市鑓水2-74",
        "lat": 35.61274,
        "lng": 139.363698
    },
    {
        "code": "B113220100655",
        "type": 16001,
        "name": "館小学校",
        "address": "八王子市館町1097-15",
        "lat": 35.629664,
        "lng": 139.288166
    },
    {
        "code": "B113220100664",
        "type": 16001,
        "name": "七国小学校",
        "address": "八王子市七国5-27-1",
        "lat": 35.620594,
        "lng": 139.320488
    },
    {
        "code": "B113220100673",
        "type": 16001,
        "name": "高尾山学園小学部",
        "address": "八王子市館町1097-30",
        "lat": 35.624184,
        "lng": 139.288701
    },
    {
        "code": "B113220100682",
        "type": 16001,
        "name": "緑が丘小学校",
        "address": "八王子市寺田町405-5",
        "lat": 35.622539,
        "lng": 139.310085
    },
    {
        "code": "B113220100691",
        "type": 16001,
        "name": "みなみ野君田小学校",
        "address": "八王子市みなみ野4-3-1",
        "lat": 35.627208,
        "lng": 139.324634
    },
    {
        "code": "C113220100010",
        "type": 16002,
        "name": "第一中学校",
        "address": "八王子市石川町2957-1",
        "lat": 35.669701,
        "lng": 139.361301
    },
    {
        "code": "C113220100029",
        "type": 16002,
        "name": "第二中学校",
        "address": "八王子市中野上町4-28-1",
        "lat": 35.670588,
        "lng": 139.315
    },
    {
        "code": "C113220100038",
        "type": 16002,
        "name": "第四中学校",
        "address": "八王子市元本郷町2-21-1",
        "lat": 35.665922,
        "lng": 139.319805
    },
    {
        "code": "C113220100047",
        "type": 16002,
        "name": "第五中学校",
        "address": "八王子市明神町4-19-1",
        "lat": 35.661535,
        "lng": 139.344414
    },
    {
        "code": "C113220100056",
        "type": 16002,
        "name": "第六中学校",
        "address": "八王子市上野町97",
        "lat": 35.653452,
        "lng": 139.330082
    },
    {
        "code": "C113220100065",
        "type": 16002,
        "name": "第七中学校",
        "address": "八王子市散田町2-2-1",
        "lat": 35.65073,
        "lng": 139.316139
    },
    {
        "code": "C113220100074",
        "type": 16002,
        "name": "横山中学校",
        "address": "八王子市散田町5-22-36",
        "lat": 35.648702,
        "lng": 139.302585
    },
    {
        "code": "C113220100083",
        "type": 16002,
        "name": "長房中学校",
        "address": "八王子市長房町1041-1",
        "lat": 35.658089,
        "lng": 139.288002
    },
    {
        "code": "C113220100092",
        "type": 16002,
        "name": "館中学校",
        "address": "八王子市館町1097-15",
        "lat": 35.627672,
        "lng": 139.290594
    },
    {
        "code": "C113220100109",
        "type": 16002,
        "name": "元八王子中学校",
        "address": "八王子市大楽寺町415",
        "lat": 35.672421,
        "lng": 139.293612
    },
    {
        "code": "C113220100118",
        "type": 16002,
        "name": "恩方中学校",
        "address": "八王子市上恩方町11",
        "lat": 35.669699,
        "lng": 139.242729
    },
    {
        "code": "C113220100127",
        "type": 16002,
        "name": "川口中学校",
        "address": "八王子市川口町2555",
        "lat": 35.693918,
        "lng": 139.284029
    },
    {
        "code": "C113220100136",
        "type": 16002,
        "name": "加住中学校",
        "address": "八王子市加住町1-191",
        "lat": 35.703946,
        "lng": 139.313607
    },
    {
        "code": "C113220100145",
        "type": 16002,
        "name": "由井中学校",
        "address": "八王子市片倉町553",
        "lat": 35.644592,
        "lng": 139.339998
    },
    {
        "code": "C113220100154",
        "type": 16002,
        "name": "打越中学校",
        "address": "八王子市打越町349-1",
        "lat": 35.645287,
        "lng": 139.358024
    },
    {
        "code": "C113220100163",
        "type": 16002,
        "name": "浅川中学校",
        "address": "八王子市初沢町1370",
        "lat": 35.638508,
        "lng": 139.280143
    },
    {
        "code": "C113220100172",
        "type": 16002,
        "name": "由木中学校",
        "address": "八王子市下柚木2-34-2",
        "lat": 35.626888,
        "lng": 139.385277
    },
    {
        "code": "C113220100181",
        "type": 16002,
        "name": "四谷中学校",
        "address": "八王子市四谷町555",
        "lat": 35.677532,
        "lng": 139.296084
    },
    {
        "code": "C113220100190",
        "type": 16002,
        "name": "楢原中学校",
        "address": "八王子市楢原町1235",
        "lat": 35.678588,
        "lng": 139.313999
    },
    {
        "code": "C113220100207",
        "type": 16002,
        "name": "松が谷中学校",
        "address": "八王子市松が谷23",
        "lat": 35.628568,
        "lng": 139.414076
    },
    {
        "code": "C113220100216",
        "type": 16002,
        "name": "椚田中学校",
        "address": "八王子市椚田町172",
        "lat": 35.633954,
        "lng": 139.307918
    },
    {
        "code": "C113220100225",
        "type": 16002,
        "name": "ひよどり山中学校",
        "address": "八王子市暁町3-1-1",
        "lat": 35.675477,
        "lng": 139.33872
    },
    {
        "code": "C113220100234",
        "type": 16002,
        "name": "横川中学校",
        "address": "八王子市横川町364",
        "lat": 35.668505,
        "lng": 139.305389
    },
    {
        "code": "C113220100243",
        "type": 16002,
        "name": "中山中学校",
        "address": "八王子市中山1158-1",
        "lat": 35.624234,
        "lng": 139.358164
    },
    {
        "code": "C113220100252",
        "type": 16002,
        "name": "甲ノ原中学校",
        "address": "八王子市中野町2639-2",
        "lat": 35.682698,
        "lng": 139.321804
    },
    {
        "code": "C113220100261",
        "type": 16002,
        "name": "石川中学校",
        "address": "八王子市久保山町2-55",
        "lat": 35.683727,
        "lng": 139.357301
    },
    {
        "code": "C113220100270",
        "type": 16002,
        "name": "城山中学校",
        "address": "八王子市川町792-2",
        "lat": 35.669365,
        "lng": 139.281947
    },
    {
        "code": "C113220100289",
        "type": 16002,
        "name": "南大沢中学校",
        "address": "八王子市南大沢3-7",
        "lat": 35.608875,
        "lng": 139.380552
    },
    {
        "code": "C113220100298",
        "type": 16002,
        "name": "陵南中学校",
        "address": "八王子市東浅川町553-9",
        "lat": 35.645507,
        "lng": 139.293419
    },
    {
        "code": "C113220100305",
        "type": 16002,
        "name": "宮上中学校",
        "address": "八王子市南大沢5-5",
        "lat": 35.613207,
        "lng": 139.373108
    },
    {
        "code": "C113220100314",
        "type": 16002,
        "name": "別所中学校",
        "address": "八王子市別所2-28",
        "lat": 35.619208,
        "lng": 139.400689
    },
    {
        "code": "C113220100323",
        "type": 16002,
        "name": "上柚木中学校",
        "address": "八王子市上柚木3-17",
        "lat": 35.617471,
        "lng": 139.370582
    },
    {
        "code": "C113220100332",
        "type": 16002,
        "name": "松木中学校",
        "address": "八王子市別所1-34-1",
        "lat": 35.617819,
        "lng": 139.391384
    },
    {
        "code": "C113220100341",
        "type": 16002,
        "name": "みなみ野中学校",
        "address": "八王子市みなみ野6-14-2",
        "lat": 35.632398,
        "lng": 139.322
    },
    {
        "code": "C113220100350",
        "type": 16002,
        "name": "鑓水中学校",
        "address": "八王子市鑓水2-67",
        "lat": 35.612437,
        "lng": 139.359645
    },
    {
        "code": "C113220100369",
        "type": 16002,
        "name": "七国中学校",
        "address": "八王子市七国6-41-1",
        "lat": 35.621115,
        "lng": 139.322099
    },
    {
        "code": "C113220100378",
        "type": 16002,
        "name": "高尾山学園中学部",
        "address": "八王子市館町1097-30",
        "lat": 35.624153,
        "lng": 139.288704
    },
    {
        "code": "C113320100018",
        "type": 16002,
        "name": "穎明館中学校",
        "address": "八王子市館町2600",
        "lat": 35.623454,
        "lng": 139.292196
    },
    {
        "code": "C113320100027",
        "type": 16002,
        "name": "八王子実践中学校",
        "address": "八王子市台町1-6-15",
        "lat": 35.651624,
        "lng": 139.328836
    },
    {
        "code": "C113320100036",
        "type": 16002,
        "name": "明治大学付属中野八王子中学校",
        "address": "八王子市戸吹町1100",
        "lat": 35.706694,
        "lng": 139.28264
    },
    {
        "code": "C113320100045",
        "type": 16002,
        "name": "共立女子第二中学校",
        "address": "八王子市元八王子町1-710",
        "lat": 35.660678,
        "lng": 139.28946
    },
    {
        "code": "C113320100054",
        "type": 16002,
        "name": "東京純心女子中学校",
        "address": "八王子市滝山町2-600",
        "lat": 35.693336,
        "lng": 139.33558
    },
    {
        "code": "C113320100063",
        "type": 16002,
        "name": "工学院大学附属中学校",
        "address": "八王子市中野町2647-2",
        "lat": 35.68248,
        "lng": 139.319656
    },
    {
        "code": "C113320100072",
        "type": 16002,
        "name": "帝京八王子中学校",
        "address": "八王子市上川町3766",
        "lat": 35.704364,
        "lng": 139.243114
    },
    {
        "code": "C113320100081",
        "type": 16002,
        "name": "八王子学園八王子中学校",
        "address": "八王子市台町4-35-1",
        "lat": 35.658252,
        "lng": 139.317529
    },
    {
        "code": "C113320100090",
        "type": 16002,
        "name": "帝京大学中学校",
        "address": "八王子市越野322",
        "lat": 35.632176,
        "lng": 139.389078
    },
    {
        "code": "C213220100019",
        "type": 16014,
        "name": "いずみの森義務教育学校",
        "address": "八王子市子安2-18-1",
        "lat": 35.650166,
        "lng": 139.342531
    },
    {
        "code": "D113299907017",
        "type": 16004,
        "name": "富士森高等学校",
        "address": "八王子市長房町420-2",
        "lat": 35.657178,
        "lng": 139.302002
    },
    {
        "code": "D113299907026",
        "type": 16004,
        "name": "片倉高等学校",
        "address": "八王子市片倉町1643",
        "lat": 35.63001,
        "lng": 139.34011
    },
    {
        "code": "D113299907035",
        "type": 16004,
        "name": "八王子東高等学校",
        "address": "八王子市高倉町68-1",
        "lat": 35.662035,
        "lng": 139.364523
    },
    {
        "code": "D113299907044",
        "type": 16004,
        "name": "八王子北高等学校",
        "address": "八王子市楢原町601",
        "lat": 35.685559,
        "lng": 139.3035
    },
    {
        "code": "D113299907053",
        "type": 16004,
        "name": "松が谷高等学校",
        "address": "八王子市松が谷1772",
        "lat": 35.628429,
        "lng": 139.410021
    },
    {
        "code": "D113299907151",
        "type": 16004,
        "name": "翔陽高等学校",
        "address": "八王子市館町1097-136",
        "lat": 35.629926,
        "lng": 139.291725
    },
    {
        "code": "D113299907160",
        "type": 16004,
        "name": "八王子拓真高等学校",
        "address": "八王子市台町3-25-1",
        "lat": 35.654554,
        "lng": 139.317084
    },
    {
        "code": "D113299907188",
        "type": 16004,
        "name": "八王子桑志高等学校",
        "address": "八王子市千人町4-8-1",
        "lat": 35.658351,
        "lng": 139.305528
    },
    {
        "code": "D113320100016",
        "type": 16004,
        "name": "聖パウロ学園高等学校",
        "address": "八王子市下恩方町2727",
        "lat": 35.663116,
        "lng": 139.240091
    },
    {
        "code": "D113320100025",
        "type": 16004,
        "name": "帝京八王子高等学校",
        "address": "八王子市上川町3766",
        "lat": 35.704334,
        "lng": 139.243116
    },
    {
        "code": "D113320100034",
        "type": 16004,
        "name": "帝京大学高等学校",
        "address": "八王子市越野322",
        "lat": 35.63215,
        "lng": 139.389078
    },
    {
        "code": "D113320100043",
        "type": 16004,
        "name": "工学院大学附属高等学校",
        "address": "八王子市中野町2647-2",
        "lat": 35.682587,
        "lng": 139.319554
    },
    {
        "code": "D113320100052",
        "type": 16004,
        "name": "東京純心女子高等学校",
        "address": "八王子市滝山町2-600",
        "lat": 35.693531,
        "lng": 139.334775
    },
    {
        "code": "D113320100061",
        "type": 16004,
        "name": "八王子学園八王子高等学校",
        "address": "八王子市台町4-35-1",
        "lat": 35.658534,
        "lng": 139.317805
    },
    {
        "code": "D113320100070",
        "type": 16004,
        "name": "八王子実践高等学校",
        "address": "八王子市台町1-6-15",
        "lat": 35.651258,
        "lng": 139.328888
    },
    {
        "code": "D113320100089",
        "type": 16004,
        "name": "共立女子第二高等学校",
        "address": "八王子市元八王子町1-710",
        "lat": 35.660646,
        "lng": 139.28946
    },
    {
        "code": "D113320100098",
        "type": 16004,
        "name": "明治大学付属中野八王子高等学校",
        "address": "八王子市戸吹町1100",
        "lat": 35.707139,
        "lng": 139.284028
    },
    {
        "code": "D113320100105",
        "type": 16004,
        "name": "穎明館高等学校",
        "address": "八王子市館町2600",
        "lat": 35.623428,
        "lng": 139.292198
    },
    {
        "code": "D213299900040",
        "type": 16003,
        "name": "南多摩中等教育学校",
        "address": "八王子市明神町4-20-1",
        "lat": 35.660798,
        "lng": 139.344162
    },
    {
        "code": "E113299910037",
        "type": 16012,
        "name": "八王子盲学校",
        "address": "八王子市台町3-19-22",
        "lat": 35.656035,
        "lng": 139.319416
    },
    {
        "code": "E113299930051",
        "type": 16012,
        "name": "八王子東特別支援学校",
        "address": "八王子市石川町3246-1",
        "lat": 35.676811,
        "lng": 139.375578
    },
    {
        "code": "E113299940031",
        "type": 16012,
        "name": "八王子特別支援学校",
        "address": "八王子市台町3-5-1",
        "lat": 35.654313,
        "lng": 139.323888
    },
    {
        "code": "E113299940273",
        "type": 16012,
        "name": "南大沢学園",
        "address": "八王子市南大沢5-28",
        "lat": 35.608202,
        "lng": 139.368698
    },
    {
        "code": "E113299940371",
        "type": 16012,
        "name": "八王子西特別支援学校",
        "address": "八王子市東浅川町546-1",
        "lat": 35.639911,
        "lng": 139.288111
    },
    {
        "code": "F113210102824",
        "type": 16007,
        "name": "東京都立大学",
        "address": "八王子市南大沢1-1",
        "lat": 35.620179,
        "lng": 139.382079
    },
    {
        "code": "F113310103224",
        "type": 16007,
        "name": "中央大学",
        "address": "八王子市東中野742-1",
        "lat": 35.642121,
        "lng": 139.404354
    },
    {
        "code": "F113310103331",
        "type": 16007,
        "name": "東京薬科大学",
        "address": "八王子市堀ﾉ内1432-1",
        "lat": 35.638288,
        "lng": 139.384995
    },
    {
        "code": "F113310103803",
        "type": 16007,
        "name": "東京造形大学",
        "address": "八王子市宇津貫町1556",
        "lat": 35.615179,
        "lng": 139.334889
    },
    {
        "code": "F113310103885",
        "type": 16007,
        "name": "創価大学",
        "address": "八王子市丹木町1-236",
        "lat": 35.69042,
        "lng": 139.327053
    },
    {
        "code": "F113310103894",
        "type": 16007,
        "name": "日本文化大学",
        "address": "八王子市片倉町977",
        "lat": 35.634593,
        "lng": 139.341471
    },
    {
        "code": "F113310103901",
        "type": 16007,
        "name": "東京工科大学",
        "address": "八王子市片倉町1404-1",
        "lat": 35.625067,
        "lng": 139.342027
    },
    {
        "code": "F113310103947",
        "type": 16007,
        "name": "東京純心大学",
        "address": "八王子市滝山町2-600",
        "lat": 35.69385,
        "lng": 139.334303
    },
    {
        "code": "F113310104134",
        "type": 16007,
        "name": "ヤマザキ動物看護大学",
        "address": "八王子市南大沢4-7-2",
        "lat": 35.610533,
        "lng": 139.374936
    },
    {
        "code": "F213310104320",
        "type": 16006,
        "name": "帝京大学短期大学",
        "address": "八王子市大塚359",
        "lat": 35.643511,
        "lng": 139.41988
    },
    {
        "code": "F213310104455",
        "type": 16006,
        "name": "創価女子短期大学",
        "address": "八王子市丹木町1-236",
        "lat": 35.687615,
        "lng": 139.328887
    },
    {
        "code": "F213310104507",
        "type": 16006,
        "name": "山野美容芸術短期大学",
        "address": "八王子市鑓水530",
        "lat": 35.621206,
        "lng": 139.342277
    },
    {
        "code": "G113110104564",
        "type": 16005,
        "name": "東京工業高等専門学校",
        "address": "八王子市椚田町1220-2",
        "lat": 35.639258,
        "lng": 139.299308
    },
    {
        "code": "H113220100019",
        "type": 16016,
        "name": "八王子市立看護専門学校",
        "address": "八王子市館町1163",
        "lat": 35.631325,
        "lng": 139.28792
    },
    {
        "code": "H113320100017",
        "type": 16016,
        "name": "大竹高等専修学校",
        "address": "八王子市台町3-29-19",
        "lat": 35.656315,
        "lng": 139.316717
    },
    {
        "code": "H113320100026",
        "type": 16016,
        "name": "トヨタ東京自動車大学校",
        "address": "八王子市館町2193",
        "lat": 35.632204,
        "lng": 139.307313
    },
    {
        "code": "H113320100035",
        "type": 16016,
        "name": "東京高尾看護専門学校",
        "address": "八王子市初沢町1227-14",
        "lat": 35.643064,
        "lng": 139.285278
    },
    {
        "code": "H113320100044",
        "type": 16016,
        "name": "アポロ美容理容専門学校",
        "address": "八王子市万町23-2",
        "lat": 35.653883,
        "lng": 139.33456
    },
    {
        "code": "H113320100053",
        "type": 16016,
        "name": "国際電子会計専門学校",
        "address": "八王子市子安町1-11-14",
        "lat": 35.654274,
        "lng": 139.340309
    },
    {
        "code": "H113320100062",
        "type": 16016,
        "name": "日本工学院八王子専門学校",
        "address": "八王子市片倉町1404-1",
        "lat": 35.626303,
        "lng": 139.339349
    },
    {
        "code": "H113320100071",
        "type": 16016,
        "name": "萠愛調理師専門学校",
        "address": "八王子市下恩方町352",
        "lat": 35.677147,
        "lng": 139.26016
    },
    {
        "code": "H113320100080",
        "type": 16016,
        "name": "大竹栄養専門学校",
        "address": "八王子市台町3-28-16",
        "lat": 35.656304,
        "lng": 139.317453
    },
    {
        "code": "H213320100016",
        "type": 16015,
        "name": "開智国際日本語学校",
        "address": "八王子市台町4-44-13",
        "lat": 35.657457,
        "lng": 139.314582
    }
]