[
    {
        "code": "A113110000018",
        "type": 16011,
        "name": "東京学芸大学附属幼稚園",
        "address": "小金井市貫井北町4-1-1",
        "lat": 35.705749,
        "lng": 139.495778
    },
    {
        "code": "A113321000011",
        "type": 16011,
        "name": "小金井教会幼稚園",
        "address": "小金井市本町2-10-10",
        "lat": 35.702821,
        "lng": 139.509937
    },
    {
        "code": "A113321000020",
        "type": 16011,
        "name": "せいしん幼稚園",
        "address": "小金井市中町2-15-40",
        "lat": 35.696621,
        "lng": 139.516857
    },
    {
        "code": "A113321000039",
        "type": 16011,
        "name": "こどものくに幼稚園",
        "address": "小金井市前原町3-35-11",
        "lat": 35.698024,
        "lng": 139.503049
    },
    {
        "code": "A113321000048",
        "type": 16011,
        "name": "みそら幼稚園",
        "address": "小金井市東町2-27-7",
        "lat": 35.697852,
        "lng": 139.53213
    },
    {
        "code": "A113321000057",
        "type": 16011,
        "name": "朋愛幼稚園",
        "address": "小金井市中町4-2-18",
        "lat": 35.695113,
        "lng": 139.506313
    },
    {
        "code": "A113321000066",
        "type": 16011,
        "name": "ぬくい南幼稚園",
        "address": "小金井市貫井南町5-12-15",
        "lat": 35.693046,
        "lng": 139.489076
    },
    {
        "code": "A213321000010",
        "type": 16013,
        "name": "小金井けやきの森認定こども園",
        "address": "小金井市緑町1-6-17",
        "lat": 35.703111,
        "lng": 139.519446
    },
    {
        "code": "B113110000034",
        "type": 16001,
        "name": "東京学芸大学附属小金井小学校",
        "address": "小金井市貫井北町4-1-1",
        "lat": 35.704922,
        "lng": 139.495427
    },
    {
        "code": "B113221000011",
        "type": 16001,
        "name": "小金井第一小学校",
        "address": "小金井市本町1-1-6",
        "lat": 35.698396,
        "lng": 139.510343
    },
    {
        "code": "B113221000020",
        "type": 16001,
        "name": "小金井第二小学校",
        "address": "小金井市桜町2-3-58",
        "lat": 35.71045,
        "lng": 139.505537
    },
    {
        "code": "B113221000039",
        "type": 16001,
        "name": "小金井第三小学校",
        "address": "小金井市梶野町5-7-1",
        "lat": 35.704562,
        "lng": 139.523064
    },
    {
        "code": "B113221000048",
        "type": 16001,
        "name": "小金井第四小学校",
        "address": "小金井市貫井南町3-9-1",
        "lat": 35.699867,
        "lng": 139.494011
    },
    {
        "code": "B113221000057",
        "type": 16001,
        "name": "東小学校",
        "address": "小金井市東町4-25-6",
        "lat": 35.698563,
        "lng": 139.526897
    },
    {
        "code": "B113221000066",
        "type": 16001,
        "name": "前原小学校",
        "address": "小金井市前原町3-4-22",
        "lat": 35.694229,
        "lng": 139.501899
    },
    {
        "code": "B113221000075",
        "type": 16001,
        "name": "本町小学校",
        "address": "小金井市本町5-29-21",
        "lat": 35.704367,
        "lng": 139.500955
    },
    {
        "code": "B113221000084",
        "type": 16001,
        "name": "緑小学校",
        "address": "小金井市緑町4-15-39",
        "lat": 35.709145,
        "lng": 139.516314
    },
    {
        "code": "B113221000093",
        "type": 16001,
        "name": "南小学校",
        "address": "小金井市前原町2-2-1",
        "lat": 35.691785,
        "lng": 139.51376
    },
    {
        "code": "C113110000032",
        "type": 16002,
        "name": "東京学芸大学附属小金井中学校",
        "address": "小金井市貫井北町4-1-1",
        "lat": 35.7052,
        "lng": 139.493428
    },
    {
        "code": "C113221000019",
        "type": 16002,
        "name": "小金井第一中学校",
        "address": "小金井市桜町2-3-15",
        "lat": 35.710561,
        "lng": 139.503815
    },
    {
        "code": "C113221000028",
        "type": 16002,
        "name": "小金井第二中学校",
        "address": "小金井市中町1-8-25",
        "lat": 35.695285,
        "lng": 139.510843
    },
    {
        "code": "C113221000037",
        "type": 16002,
        "name": "東中学校",
        "address": "小金井市東町1-5-33",
        "lat": 35.69048,
        "lng": 139.525203
    },
    {
        "code": "C113221000046",
        "type": 16002,
        "name": "緑中学校",
        "address": "小金井市緑町2-11-47",
        "lat": 35.708645,
        "lng": 139.519314
    },
    {
        "code": "C113221000055",
        "type": 16002,
        "name": "南中学校",
        "address": "小金井市貫井南町1-26-1",
        "lat": 35.690646,
        "lng": 139.499844
    },
    {
        "code": "C113321000017",
        "type": 16002,
        "name": "武蔵野東中学校",
        "address": "小金井市緑町2-6-4",
        "lat": 35.706395,
        "lng": 139.520925
    },
    {
        "code": "C113321000026",
        "type": 16002,
        "name": "東京電機大学中学校",
        "address": "小金井市梶野町4-8-1",
        "lat": 35.706214,
        "lng": 139.525899
    },
    {
        "code": "C113321000035",
        "type": 16002,
        "name": "中央大学附属中学校",
        "address": "小金井市貫井北町3-22-1",
        "lat": 35.710616,
        "lng": 139.49723
    },
    {
        "code": "D113299909033",
        "type": 16004,
        "name": "小金井北高等学校",
        "address": "小金井市緑町4-1-1",
        "lat": 35.705423,
        "lng": 139.516787
    },
    {
        "code": "D113299909159",
        "type": 16004,
        "name": "小金井工業高等学校",
        "address": "小金井市本町6-8-9",
        "lat": 35.69984,
        "lng": 139.50101
    },
    {
        "code": "D113299909177",
        "type": 16004,
        "name": "多摩科学技術高等学校",
        "address": "小金井市本町6-8-9",
        "lat": 35.699839,
        "lng": 139.50101
    },
    {
        "code": "D113321000015",
        "type": 16004,
        "name": "東京電機大学高等学校",
        "address": "小金井市梶野町4-8-1",
        "lat": 35.706201,
        "lng": 139.525925
    },
    {
        "code": "D113321000024",
        "type": 16004,
        "name": "中央大学附属高等学校",
        "address": "小金井市貫井北町3-22-1",
        "lat": 35.710616,
        "lng": 139.497233
    },
    {
        "code": "D113321000033",
        "type": 16004,
        "name": "国際基督教大学高等学校",
        "address": "小金井市東町1-1-1",
        "lat": 35.690036,
        "lng": 139.531203
    },
    {
        "code": "E113299940111",
        "type": 16012,
        "name": "小金井特別支援学校",
        "address": "小金井市桜町2-1-14",
        "lat": 35.709366,
        "lng": 139.506398
    },
    {
        "code": "F113110102764",
        "type": 16007,
        "name": "東京学芸大学",
        "address": "小金井市貫井北町4-1-1",
        "lat": 35.705339,
        "lng": 139.49015
    },
    {
        "code": "H113321000016",
        "type": 16016,
        "name": "東京工学院専門学校",
        "address": "小金井市前原町5-1-29",
        "lat": 35.686758,
        "lng": 139.498216
    },
    {
        "code": "H113321000025",
        "type": 16016,
        "name": "社会医学技術学院",
        "address": "小金井市中町2-22-32",
        "lat": 35.699729,
        "lng": 139.521745
    },
    {
        "code": "H113321000034",
        "type": 16016,
        "name": "東京エアトラベル・ホテル専門学校",
        "address": "小金井市前原町5-1-29",
        "lat": 35.686897,
        "lng": 139.498256
    },
    {
        "code": "H213321000015",
        "type": 16015,
        "name": "中野洋裁学院",
        "address": "小金井市本町1-15-21",
        "lat": 35.700124,
        "lng": 139.50952
    }
]