[
    {
        "code": "A113321900012",
        "type": 16011,
        "name": "狛江こだま幼稚園",
        "address": "狛江市中和泉3-14-8",
        "lat": 35.63759,
        "lng": 139.568671
    },
    {
        "code": "A113321900021",
        "type": 16011,
        "name": "狛江みずほ幼稚園",
        "address": "狛江市岩戸南4-14-1",
        "lat": 35.62652,
        "lng": 139.590248
    },
    {
        "code": "A113321900030",
        "type": 16011,
        "name": "子鹿幼稚園",
        "address": "狛江市東野川3-17-1",
        "lat": 35.646011,
        "lng": 139.584435
    },
    {
        "code": "B113221900012",
        "type": 16001,
        "name": "狛江第一小学校",
        "address": "狛江市和泉本町1-37-1",
        "lat": 35.637127,
        "lng": 139.578145
    },
    {
        "code": "B113221900021",
        "type": 16001,
        "name": "狛江第三小学校",
        "address": "狛江市猪方1-11-1",
        "lat": 35.628073,
        "lng": 139.585173
    },
    {
        "code": "B113221900030",
        "type": 16001,
        "name": "狛江第五小学校",
        "address": "狛江市東野川1-35-13",
        "lat": 35.643931,
        "lng": 139.581672
    },
    {
        "code": "B113221900049",
        "type": 16001,
        "name": "狛江第六小学校",
        "address": "狛江市駒井町1-21-1",
        "lat": 35.624435,
        "lng": 139.585312
    },
    {
        "code": "B113221900058",
        "type": 16001,
        "name": "和泉小学校",
        "address": "狛江市中和泉3-33-1",
        "lat": 35.634401,
        "lng": 139.568221
    },
    {
        "code": "B113221900067",
        "type": 16001,
        "name": "緑野小学校",
        "address": "狛江市和泉本町4-3-1",
        "lat": 35.647431,
        "lng": 139.569701
    },
    {
        "code": "C113221900010",
        "type": 16002,
        "name": "狛江第一中学校",
        "address": "狛江市和泉本町2-15-1",
        "lat": 35.640793,
        "lng": 139.577728
    },
    {
        "code": "C113221900029",
        "type": 16002,
        "name": "狛江第二中学校",
        "address": "狛江市猪方2-7-1",
        "lat": 35.62724,
        "lng": 139.583229
    },
    {
        "code": "C113221900038",
        "type": 16002,
        "name": "狛江第三中学校",
        "address": "狛江市元和泉1-23-1",
        "lat": 35.629906,
        "lng": 139.574646
    },
    {
        "code": "C113221900047",
        "type": 16002,
        "name": "狛江第四中学校",
        "address": "狛江市東野川4-1-1",
        "lat": 35.645181,
        "lng": 139.581755
    },
    {
        "code": "D113299910049",
        "type": 16004,
        "name": "狛江高等学校",
        "address": "狛江市元和泉3-9-1",
        "lat": 35.627851,
        "lng": 139.570369
    },
    {
        "code": "H113321900017",
        "type": 16016,
        "name": "慈恵第三看護専門学校",
        "address": "狛江市和泉本町4-11-1",
        "lat": 35.645484,
        "lng": 139.565988
    }
]