[
    {
        "code": "A113321100010",
        "type": 16011,
        "name": "小平神明幼稚園",
        "address": "小平市小川町1-2572",
        "lat": 35.732323,
        "lng": 139.449291
    },
    {
        "code": "A113321100029",
        "type": 16011,
        "name": "りんどう幼稚園",
        "address": "小平市花小金井1-26-34",
        "lat": 35.728691,
        "lng": 139.515226
    },
    {
        "code": "A113321100038",
        "type": 16011,
        "name": "小平学園幼稚園",
        "address": "小平市学園東町1-2-41",
        "lat": 35.721716,
        "lng": 139.480314
    },
    {
        "code": "A113321100047",
        "type": 16011,
        "name": "洗心幼稚園",
        "address": "小平市学園西町2-21-9",
        "lat": 35.723656,
        "lng": 139.47134
    },
    {
        "code": "A113321100056",
        "type": 16011,
        "name": "小平あおば幼稚園",
        "address": "小平市上水南町2-8-15",
        "lat": 35.713463,
        "lng": 139.486114
    },
    {
        "code": "A113321100065",
        "type": 16011,
        "name": "なおび幼稚園",
        "address": "小平市上水本町4-21-1",
        "lat": 35.715829,
        "lng": 139.479453
    },
    {
        "code": "A113321100074",
        "type": 16011,
        "name": "丸山幼稚園",
        "address": "小平市小川東町1-29-21",
        "lat": 35.739451,
        "lng": 139.464615
    },
    {
        "code": "A113321100083",
        "type": 16011,
        "name": "小平花小金井幼稚園",
        "address": "小平市花小金井2-9-11",
        "lat": 35.731578,
        "lng": 139.514949
    },
    {
        "code": "A113321100092",
        "type": 16011,
        "name": "小平なみき幼稚園",
        "address": "小平市仲町306-3",
        "lat": 35.729319,
        "lng": 139.491371
    },
    {
        "code": "A113321100109",
        "type": 16011,
        "name": "小平若竹幼稚園",
        "address": "小平市回田町122-3",
        "lat": 35.716043,
        "lng": 139.492661
    },
    {
        "code": "A113321100118",
        "type": 16011,
        "name": "小平姫百合幼稚園",
        "address": "小平市上水新町1-5-15",
        "lat": 35.726388,
        "lng": 139.435826
    },
    {
        "code": "A113321100127",
        "type": 16011,
        "name": "弥生台幼稚園",
        "address": "小平市花小金井4-9-20",
        "lat": 35.740488,
        "lng": 139.507033
    },
    {
        "code": "A113321100136",
        "type": 16011,
        "name": "小平みどり幼稚園",
        "address": "小平市鈴木町1-341",
        "lat": 35.724431,
        "lng": 139.50269
    },
    {
        "code": "A113321100145",
        "type": 16011,
        "name": "白梅幼稚園",
        "address": "小平市小川町1-830",
        "lat": 35.724187,
        "lng": 139.450365
    },
    {
        "code": "A113321100154",
        "type": 16011,
        "name": "たかのだい幼稚園",
        "address": "小平市上水本町1-21-3",
        "lat": 35.720664,
        "lng": 139.462991
    },
    {
        "code": "B113221100010",
        "type": 16001,
        "name": "小平第一小学校",
        "address": "小平市小川町1-1082",
        "lat": 35.728891,
        "lng": 139.462735
    },
    {
        "code": "B113221100029",
        "type": 16001,
        "name": "小平第二小学校",
        "address": "小平市仲町310",
        "lat": 35.72792,
        "lng": 139.491205
    },
    {
        "code": "B113221100038",
        "type": 16001,
        "name": "小平第三小学校",
        "address": "小平市回田町118",
        "lat": 35.715115,
        "lng": 139.492399
    },
    {
        "code": "B113221100047",
        "type": 16001,
        "name": "小平第四小学校",
        "address": "小平市学園西町1-34-1",
        "lat": 35.71992,
        "lng": 139.471762
    },
    {
        "code": "B113221100056",
        "type": 16001,
        "name": "小平第五小学校",
        "address": "小平市花小金井6-24-1",
        "lat": 35.72842,
        "lng": 139.510397
    },
    {
        "code": "B113221100065",
        "type": 16001,
        "name": "小平第六小学校",
        "address": "小平市小川東町3-1-2",
        "lat": 35.73514,
        "lng": 139.466401
    },
    {
        "code": "B113221100074",
        "type": 16001,
        "name": "小平第七小学校",
        "address": "小平市大沼町1-22-1",
        "lat": 35.735854,
        "lng": 139.495399
    },
    {
        "code": "B113221100083",
        "type": 16001,
        "name": "小平第八小学校",
        "address": "小平市鈴木町1-355",
        "lat": 35.720171,
        "lng": 139.501815
    },
    {
        "code": "B113221100092",
        "type": 16001,
        "name": "小平第九小学校",
        "address": "小平市鈴木町1-82",
        "lat": 35.718893,
        "lng": 139.497732
    },
    {
        "code": "B113221100109",
        "type": 16001,
        "name": "小平第十小学校",
        "address": "小平市上水本町4-4-1",
        "lat": 35.716754,
        "lng": 139.473429
    },
    {
        "code": "B113221100118",
        "type": 16001,
        "name": "小平第十一小学校",
        "address": "小平市花小金井4-16-1",
        "lat": 35.737808,
        "lng": 139.509508
    },
    {
        "code": "B113221100127",
        "type": 16001,
        "name": "小平第十二小学校",
        "address": "小平市小川町1-464",
        "lat": 35.728974,
        "lng": 139.44332
    },
    {
        "code": "B113221100136",
        "type": 16001,
        "name": "小平第十三小学校",
        "address": "小平市小川西町1-22-1",
        "lat": 35.736112,
        "lng": 139.453763
    },
    {
        "code": "B113221100145",
        "type": 16001,
        "name": "小平第十四小学校",
        "address": "小平市仲町33",
        "lat": 35.733476,
        "lng": 139.480871
    },
    {
        "code": "B113221100154",
        "type": 16001,
        "name": "小平第十五小学校",
        "address": "小平市小川町2-1136",
        "lat": 35.726363,
        "lng": 139.466846
    },
    {
        "code": "B113221100163",
        "type": 16001,
        "name": "花小金井小学校",
        "address": "小平市花小金井1-35-1",
        "lat": 35.726309,
        "lng": 139.518424
    },
    {
        "code": "B113221100172",
        "type": 16001,
        "name": "鈴木小学校",
        "address": "小平市鈴木町1-450",
        "lat": 35.724726,
        "lng": 139.494204
    },
    {
        "code": "B113221100181",
        "type": 16001,
        "name": "学園東小学校",
        "address": "小平市学園東町2-15-1",
        "lat": 35.728919,
        "lng": 139.485344
    },
    {
        "code": "B113221100190",
        "type": 16001,
        "name": "上宿小学校",
        "address": "小平市小川町1-327",
        "lat": 35.731168,
        "lng": 139.44157
    },
    {
        "code": "B113321100018",
        "type": 16001,
        "name": "サレジオ小学校",
        "address": "小平市上水南町4-7-1",
        "lat": 35.709309,
        "lng": 139.490428
    },
    {
        "code": "B113321100027",
        "type": 16001,
        "name": "東京創価小学校",
        "address": "小平市上水新町2-20-1",
        "lat": 35.721821,
        "lng": 139.452953
    },
    {
        "code": "C113221100018",
        "type": 16002,
        "name": "小平第一中学校",
        "address": "小平市仲町506",
        "lat": 35.725864,
        "lng": 139.484733
    },
    {
        "code": "C113221100027",
        "type": 16002,
        "name": "小平第二中学校",
        "address": "小平市小川東町1-17-1",
        "lat": 35.736168,
        "lng": 139.46429
    },
    {
        "code": "C113221100036",
        "type": 16002,
        "name": "小平第三中学校",
        "address": "小平市鈴木町1-311",
        "lat": 35.726198,
        "lng": 139.502009
    },
    {
        "code": "C113221100045",
        "type": 16002,
        "name": "小平第四中学校",
        "address": "小平市学園西町1-3-1",
        "lat": 35.718059,
        "lng": 139.478206
    },
    {
        "code": "C113221100054",
        "type": 16002,
        "name": "小平第五中学校",
        "address": "小平市小川町1-798",
        "lat": 35.726669,
        "lng": 139.451375
    },
    {
        "code": "C113221100063",
        "type": 16002,
        "name": "小平第六中学校",
        "address": "小平市大沼町6-4-1",
        "lat": 35.733483,
        "lng": 139.500815
    },
    {
        "code": "C113221100072",
        "type": 16002,
        "name": "上水中学校",
        "address": "小平市上水南町1-7-1",
        "lat": 35.714449,
        "lng": 139.481484
    },
    {
        "code": "C113221100081",
        "type": 16002,
        "name": "花小金井南中学校",
        "address": "小平市花小金井南町1-9-1",
        "lat": 35.721412,
        "lng": 139.511288
    },
    {
        "code": "C113321100016",
        "type": 16002,
        "name": "サレジオ中学校",
        "address": "小平市上水南町4-7-1",
        "lat": 35.709283,
        "lng": 139.490428
    },
    {
        "code": "C113321100025",
        "type": 16002,
        "name": "創価中学校",
        "address": "小平市小川町1-860",
        "lat": 35.724835,
        "lng": 139.452791
    },
    {
        "code": "C113321100034",
        "type": 16002,
        "name": "白梅学園清修中学校",
        "address": "小平市小川町1-830",
        "lat": 35.724492,
        "lng": 139.451772
    },
    {
        "code": "D113299909079",
        "type": 16004,
        "name": "小平高等学校",
        "address": "小平市仲町112",
        "lat": 35.733863,
        "lng": 139.484149
    },
    {
        "code": "D113299909088",
        "type": 16004,
        "name": "小平西高等学校",
        "address": "小平市小川町1-502-95",
        "lat": 35.725585,
        "lng": 139.442209
    },
    {
        "code": "D113299909122",
        "type": 16004,
        "name": "小平南高等学校",
        "address": "小平市上水本町6-21-1",
        "lat": 35.711699,
        "lng": 139.474929
    },
    {
        "code": "D113321100014",
        "type": 16004,
        "name": "錦城高等学校",
        "address": "小平市大沼町5-3-7",
        "lat": 35.73918,
        "lng": 139.501453
    },
    {
        "code": "D113321100023",
        "type": 16004,
        "name": "白梅学園高等学校",
        "address": "小平市小川町1-830",
        "lat": 35.725058,
        "lng": 139.45118
    },
    {
        "code": "D113321100032",
        "type": 16004,
        "name": "創価高等学校",
        "address": "小平市たかの台2-1",
        "lat": 35.723586,
        "lng": 139.453791
    },
    {
        "code": "E113299930015",
        "type": 16012,
        "name": "小平特別支援学校",
        "address": "小平市小川西町2-33-1",
        "lat": 35.738056,
        "lng": 139.461096
    },
    {
        "code": "F113310103750",
        "type": 16007,
        "name": "津田塾大学",
        "address": "小平市津田町2-1-1",
        "lat": 35.721503,
        "lng": 139.46629
    },
    {
        "code": "F113310103849",
        "type": 16007,
        "name": "武蔵野美術大学",
        "address": "小平市小川町1-736",
        "lat": 35.726891,
        "lng": 139.447764
    },
    {
        "code": "F113310103956",
        "type": 16007,
        "name": "嘉悦大学",
        "address": "小平市花小金井南町2-8-4",
        "lat": 35.720805,
        "lng": 139.516073
    },
    {
        "code": "F113310103992",
        "type": 16007,
        "name": "白梅学園大学",
        "address": "小平市小川町1-830",
        "lat": 35.725707,
        "lng": 139.451381
    },
    {
        "code": "F213310104464",
        "type": 16006,
        "name": "白梅学園短期大学",
        "address": "小平市小川町1-830",
        "lat": 35.72478,
        "lng": 139.451653
    },
    {
        "code": "H113321100015",
        "type": 16016,
        "name": "国際パティシエ調理師専門学校",
        "address": "小平市小川東町5-21-14",
        "lat": 35.73386,
        "lng": 139.476611
    },
    {
        "code": "H213321100014",
        "type": 16015,
        "name": "朝鮮大学校",
        "address": "小平市小川町1-700",
        "lat": 35.724932,
        "lng": 139.447782
    }
]