[
    {
        "code": "A113322900010",
        "type": 16011,
        "name": "谷戸幼稚園",
        "address": "西東京市谷戸町1-16-2",
        "lat": 35.740861,
        "lng": 139.545258
    },
    {
        "code": "A113322900029",
        "type": 16011,
        "name": "明成幼稚園",
        "address": "西東京市西原町2-2-3",
        "lat": 35.7339,
        "lng": 139.533576
    },
    {
        "code": "A113322900038",
        "type": 16011,
        "name": "田無いづみ幼稚園",
        "address": "西東京市芝久保町3-6-20",
        "lat": 35.730012,
        "lng": 139.52271
    },
    {
        "code": "A113322900047",
        "type": 16011,
        "name": "田無富士見幼稚園",
        "address": "西東京市田無町4-17-24",
        "lat": 35.729056,
        "lng": 139.536211
    },
    {
        "code": "A113322900056",
        "type": 16011,
        "name": "田無向ヶ丘幼稚園",
        "address": "西東京市芝久保町1-13-10",
        "lat": 35.722993,
        "lng": 139.52809
    },
    {
        "code": "A113322900065",
        "type": 16011,
        "name": "こみね幼稚園",
        "address": "西東京市南町4-13-20",
        "lat": 35.722524,
        "lng": 139.541428
    },
    {
        "code": "A113322900074",
        "type": 16011,
        "name": "武蔵野大学附属幼稚園",
        "address": "西東京市新町1-1-20",
        "lat": 35.717565,
        "lng": 139.546323
    },
    {
        "code": "A113322900083",
        "type": 16011,
        "name": "東京女子学院幼稚園",
        "address": "西東京市富士町2-13-24",
        "lat": 35.73323,
        "lng": 139.563574
    },
    {
        "code": "A113322900092",
        "type": 16011,
        "name": "ひなぎく幼稚園",
        "address": "西東京市ひばりが丘北1-9-32",
        "lat": 35.752067,
        "lng": 139.549689
    },
    {
        "code": "A113322900109",
        "type": 16011,
        "name": "ひばりヶ丘幼稚園",
        "address": "西東京市ひばりが丘4-1-15",
        "lat": 35.741521,
        "lng": 139.531767
    },
    {
        "code": "A113322900118",
        "type": 16011,
        "name": "みどりが丘保谷幼稚園",
        "address": "西東京市東町6-10-7",
        "lat": 35.741578,
        "lng": 139.564423
    },
    {
        "code": "A113322900127",
        "type": 16011,
        "name": "宝樹院幼稚園",
        "address": "西東京市泉町2-7-25",
        "lat": 35.739695,
        "lng": 139.550624
    },
    {
        "code": "A113322900136",
        "type": 16011,
        "name": "つくし幼稚園",
        "address": "西東京市北町3-6-10",
        "lat": 35.758484,
        "lng": 139.559784
    },
    {
        "code": "B113222900010",
        "type": 16001,
        "name": "田無小学校",
        "address": "西東京市田無町4-5-21",
        "lat": 35.728313,
        "lng": 139.537604
    },
    {
        "code": "B113222900029",
        "type": 16001,
        "name": "谷戸小学校",
        "address": "西東京市緑町3-1-1",
        "lat": 35.740253,
        "lng": 139.542727
    },
    {
        "code": "B113222900038",
        "type": 16001,
        "name": "向台小学校",
        "address": "西東京市向台町2-1-1",
        "lat": 35.722338,
        "lng": 139.539617
    },
    {
        "code": "B113222900047",
        "type": 16001,
        "name": "芝久保小学校",
        "address": "西東京市芝久保町3-7-1",
        "lat": 35.728747,
        "lng": 139.522859
    },
    {
        "code": "B113222900056",
        "type": 16001,
        "name": "谷戸第二小学校",
        "address": "西東京市谷戸町1-17-27",
        "lat": 35.741475,
        "lng": 139.545199
    },
    {
        "code": "B113222900065",
        "type": 16001,
        "name": "柳沢小学校",
        "address": "西東京市南町2-12-37",
        "lat": 35.722033,
        "lng": 139.547783
    },
    {
        "code": "B113222900074",
        "type": 16001,
        "name": "上向台小学校",
        "address": "西東京市向台町6-7-28",
        "lat": 35.720727,
        "lng": 139.525896
    },
    {
        "code": "B113222900083",
        "type": 16001,
        "name": "保谷小学校",
        "address": "西東京市保谷町1-3-35",
        "lat": 35.736906,
        "lng": 139.554595
    },
    {
        "code": "B113222900092",
        "type": 16001,
        "name": "保谷第一小学校",
        "address": "西東京市下保谷1-4-4",
        "lat": 35.749891,
        "lng": 139.558003
    },
    {
        "code": "B113222900109",
        "type": 16001,
        "name": "保谷第二小学校",
        "address": "西東京市柳沢4-2-11",
        "lat": 35.720283,
        "lng": 139.550561
    },
    {
        "code": "B113222900118",
        "type": 16001,
        "name": "東伏見小学校",
        "address": "西東京市東伏見6-1-28",
        "lat": 35.725949,
        "lng": 139.559254
    },
    {
        "code": "B113222900127",
        "type": 16001,
        "name": "中原小学校",
        "address": "西東京市ひばりが丘2-6-25",
        "lat": 35.74703,
        "lng": 139.538061
    },
    {
        "code": "B113222900136",
        "type": 16001,
        "name": "碧山小学校",
        "address": "西東京市中町5-11-4",
        "lat": 35.738337,
        "lng": 139.563031
    },
    {
        "code": "B113222900145",
        "type": 16001,
        "name": "栄小学校",
        "address": "西東京市栄町2-10-9",
        "lat": 35.752085,
        "lng": 139.552921
    },
    {
        "code": "B113222900154",
        "type": 16001,
        "name": "東小学校",
        "address": "西東京市東町6-2-33",
        "lat": 35.741781,
        "lng": 139.56417
    },
    {
        "code": "B113222900163",
        "type": 16001,
        "name": "本町小学校",
        "address": "西東京市保谷町1-14-23",
        "lat": 35.732914,
        "lng": 139.555669
    },
    {
        "code": "B113222900172",
        "type": 16001,
        "name": "住吉小学校",
        "address": "西東京市住吉町5-2-1",
        "lat": 35.745919,
        "lng": 139.553171
    },
    {
        "code": "B113222900181",
        "type": 16001,
        "name": "けやき小学校",
        "address": "西東京市芝久保町5-7-1",
        "lat": 35.734302,
        "lng": 139.526032
    },
    {
        "code": "C113222900018",
        "type": 16002,
        "name": "田無第一中学校",
        "address": "西東京市南町6-9-37",
        "lat": 35.724504,
        "lng": 139.531729
    },
    {
        "code": "C113222900027",
        "type": 16002,
        "name": "田無第二中学校",
        "address": "西東京市北原町2-9-1",
        "lat": 35.738309,
        "lng": 139.545116
    },
    {
        "code": "C113222900036",
        "type": 16002,
        "name": "田無第三中学校",
        "address": "西東京市西原町3-4-1",
        "lat": 35.734809,
        "lng": 139.53109
    },
    {
        "code": "C113222900045",
        "type": 16002,
        "name": "田無第四中学校",
        "address": "西東京市向台町2-14-9",
        "lat": 35.719727,
        "lng": 139.540423
    },
    {
        "code": "C113222900054",
        "type": 16002,
        "name": "保谷中学校",
        "address": "西東京市保谷町1-17-4",
        "lat": 35.733565,
        "lng": 139.556645
    },
    {
        "code": "C113222900063",
        "type": 16002,
        "name": "ひばりが丘中学校",
        "address": "西東京市住吉町1-14-28",
        "lat": 35.742836,
        "lng": 139.548393
    },
    {
        "code": "C113222900072",
        "type": 16002,
        "name": "青嵐中学校",
        "address": "西東京市北町2-13-17",
        "lat": 35.756668,
        "lng": 139.55667
    },
    {
        "code": "C113222900081",
        "type": 16002,
        "name": "柳沢中学校",
        "address": "西東京市柳沢3-8-22",
        "lat": 35.720561,
        "lng": 139.552533
    },
    {
        "code": "C113222900090",
        "type": 16002,
        "name": "明保中学校",
        "address": "西東京市東町1-1-24",
        "lat": 35.742836,
        "lng": 139.56267
    },
    {
        "code": "C113322900016",
        "type": 16002,
        "name": "文華女子中学校",
        "address": "西東京市西原町4-5-85",
        "lat": 35.73809,
        "lng": 139.530432
    },
    {
        "code": "C113322900025",
        "type": 16002,
        "name": "武蔵野大学中学校",
        "address": "西東京市新町1-1-20",
        "lat": 35.718315,
        "lng": 139.546931
    },
    {
        "code": "D113299909042",
        "type": 16004,
        "name": "保谷高等学校",
        "address": "西東京市住吉町5-8-23",
        "lat": 35.746086,
        "lng": 139.555393
    },
    {
        "code": "D113299909060",
        "type": 16004,
        "name": "田無高等学校",
        "address": "西東京市向台町5-4-34",
        "lat": 35.720505,
        "lng": 139.528702
    },
    {
        "code": "D113299909168",
        "type": 16004,
        "name": "田無工業高等学校",
        "address": "西東京市向台町1-9-1",
        "lat": 35.720477,
        "lng": 139.548561
    },
    {
        "code": "D113322900014",
        "type": 16004,
        "name": "文華女子高等学校",
        "address": "西東京市西原町4-5-85",
        "lat": 35.738086,
        "lng": 139.530451
    },
    {
        "code": "D113322900023",
        "type": 16004,
        "name": "武蔵野大学高等学校",
        "address": "西東京市新町1-1-20",
        "lat": 35.718311,
        "lng": 139.54695
    },
    {
        "code": "E113299940237",
        "type": 16012,
        "name": "田無特別支援学校",
        "address": "西東京市南町5-15-5",
        "lat": 35.723366,
        "lng": 139.534312
    }
]