[
    {
        "code": "A113322800011",
        "type": 16011,
        "name": "多摩川幼稚園",
        "address": "あきる野市雨間430",
        "lat": 35.724517,
        "lng": 139.291586
    },
    {
        "code": "A113322800020",
        "type": 16011,
        "name": "ほうりんじ幼稚園",
        "address": "あきる野市小川東2-12-24",
        "lat": 35.719597,
        "lng": 139.3192
    },
    {
        "code": "A113322800039",
        "type": 16011,
        "name": "すもも木幼稚園",
        "address": "あきる野市秋川6-17-10",
        "lat": 35.731403,
        "lng": 139.291805
    },
    {
        "code": "A113322800048",
        "type": 16011,
        "name": "草花幼稚園",
        "address": "あきる野市草花3060",
        "lat": 35.739283,
        "lng": 139.304089
    },
    {
        "code": "A113322800057",
        "type": 16011,
        "name": "秋川文化幼稚園",
        "address": "あきる野市引田388",
        "lat": 35.726564,
        "lng": 139.268263
    },
    {
        "code": "A113322800066",
        "type": 16011,
        "name": "秋川幼稚園",
        "address": "あきる野市山田951",
        "lat": 35.725483,
        "lng": 139.25708
    },
    {
        "code": "B113222800011",
        "type": 16001,
        "name": "東秋留小学校",
        "address": "あきる野市野辺1123",
        "lat": 35.724443,
        "lng": 139.305637
    },
    {
        "code": "B113222800020",
        "type": 16001,
        "name": "多西小学校",
        "address": "あきる野市草花2885",
        "lat": 35.742107,
        "lng": 139.300165
    },
    {
        "code": "B113222800039",
        "type": 16001,
        "name": "西秋留小学校",
        "address": "あきる野市上代継292",
        "lat": 35.723498,
        "lng": 139.276862
    },
    {
        "code": "B113222800048",
        "type": 16001,
        "name": "屋城小学校",
        "address": "あきる野市二宮東1-12-1",
        "lat": 35.723888,
        "lng": 139.32308
    },
    {
        "code": "B113222800057",
        "type": 16001,
        "name": "南秋留小学校",
        "address": "あきる野市雨間810",
        "lat": 35.720971,
        "lng": 139.292833
    },
    {
        "code": "B113222800066",
        "type": 16001,
        "name": "草花小学校",
        "address": "あきる野市草花3130",
        "lat": 35.737136,
        "lng": 139.305137
    },
    {
        "code": "B113222800075",
        "type": 16001,
        "name": "一の谷小学校",
        "address": "あきる野市引田980",
        "lat": 35.720104,
        "lng": 139.272051
    },
    {
        "code": "B113222800084",
        "type": 16001,
        "name": "前田小学校",
        "address": "あきる野市野辺92",
        "lat": 35.723527,
        "lng": 139.314636
    },
    {
        "code": "B113222800093",
        "type": 16001,
        "name": "増戸小学校",
        "address": "あきる野市伊奈1173",
        "lat": 35.728246,
        "lng": 139.248392
    },
    {
        "code": "B113222800100",
        "type": 16001,
        "name": "五日市小学校",
        "address": "あきる野市五日市315",
        "lat": 35.731581,
        "lng": 139.222228
    },
    {
        "code": "B113322800019",
        "type": 16001,
        "name": "菅生学園初等学校",
        "address": "あきる野市菅生1468",
        "lat": 35.756021,
        "lng": 139.287324
    },
    {
        "code": "C113222800019",
        "type": 16002,
        "name": "秋多中学校",
        "address": "あきる野市二宮334",
        "lat": 35.731025,
        "lng": 139.293916
    },
    {
        "code": "C113222800028",
        "type": 16002,
        "name": "東中学校",
        "address": "あきる野市平沢200",
        "lat": 35.732331,
        "lng": 139.302943
    },
    {
        "code": "C113222800037",
        "type": 16002,
        "name": "西中学校",
        "address": "あきる野市上代継190",
        "lat": 35.729969,
        "lng": 139.277945
    },
    {
        "code": "C113222800046",
        "type": 16002,
        "name": "御堂中学校",
        "address": "あきる野市草花3322",
        "lat": 35.740607,
        "lng": 139.296915
    },
    {
        "code": "C113222800055",
        "type": 16002,
        "name": "増戸中学校",
        "address": "あきる野市伊奈1181",
        "lat": 35.728246,
        "lng": 139.249642
    },
    {
        "code": "C113222800064",
        "type": 16002,
        "name": "五日市中学校",
        "address": "あきる野市五日市400",
        "lat": 35.730332,
        "lng": 139.221117
    },
    {
        "code": "C113322800017",
        "type": 16002,
        "name": "東海大学菅生高等学校中等部",
        "address": "あきる野市菅生1468",
        "lat": 35.756214,
        "lng": 139.286825
    },
    {
        "code": "D113299908105",
        "type": 16004,
        "name": "秋留台高等学校",
        "address": "あきる野市平沢153-4",
        "lat": 35.732192,
        "lng": 139.30086
    },
    {
        "code": "D113299908123",
        "type": 16004,
        "name": "五日市高等学校",
        "address": "あきる野市五日市894",
        "lat": 35.728693,
        "lng": 139.217951
    },
    {
        "code": "D113322800015",
        "type": 16004,
        "name": "東海大学菅生高等学校",
        "address": "あきる野市菅生1817",
        "lat": 35.756602,
        "lng": 139.277714
    },
    {
        "code": "E113299930097",
        "type": 16012,
        "name": "あきる野学園",
        "address": "あきる野市上代継123-1",
        "lat": 35.730608,
        "lng": 139.276667
    },
    {
        "code": "H113322800016",
        "type": 16016,
        "name": "横沢家政専門学校",
        "address": "あきる野市伊奈912",
        "lat": 35.732063,
        "lng": 139.252675
    }
]