[
    {
        "code": "A113322400015",
        "type": 16011,
        "name": "多摩みゆき幼稚園",
        "address": "多摩市連光寺2-24-6",
        "lat": 35.64247,
        "lng": 139.454267
    },
    {
        "code": "A113322400024",
        "type": 16011,
        "name": "富士ヶ丘幼稚園",
        "address": "多摩市乞田1145",
        "lat": 35.632657,
        "lng": 139.440404
    },
    {
        "code": "A113322400033",
        "type": 16011,
        "name": "諏訪幼稚園",
        "address": "多摩市諏訪5-3",
        "lat": 35.622815,
        "lng": 139.45091
    },
    {
        "code": "A113322400042",
        "type": 16011,
        "name": "緑ヶ丘幼稚園",
        "address": "多摩市和田712",
        "lat": 35.637073,
        "lng": 139.4278
    },
    {
        "code": "A113322400051",
        "type": 16011,
        "name": "東京大谷幼稚園",
        "address": "多摩市愛宕1-51",
        "lat": 35.634046,
        "lng": 139.434434
    },
    {
        "code": "A113322400060",
        "type": 16011,
        "name": "文化学園大学附属すみれ幼稚園",
        "address": "多摩市諏訪4-11",
        "lat": 35.623814,
        "lng": 139.456299
    },
    {
        "code": "A113322400079",
        "type": 16011,
        "name": "錦秋幼稚園",
        "address": "多摩市永山3-8",
        "lat": 35.624611,
        "lng": 139.446156
    },
    {
        "code": "A113322400088",
        "type": 16011,
        "name": "せいとく幼稚園",
        "address": "多摩市落合4-12",
        "lat": 35.612956,
        "lng": 139.430179
    },
    {
        "code": "A213322400014",
        "type": 16013,
        "name": "おだ認定こども園",
        "address": "多摩市落合5-7-2",
        "lat": 35.613789,
        "lng": 139.424968
    },
    {
        "code": "B113222400015",
        "type": 16001,
        "name": "多摩第一小学校",
        "address": "多摩市関戸3-2-23",
        "lat": 35.650368,
        "lng": 139.456852
    },
    {
        "code": "B113222400024",
        "type": 16001,
        "name": "多摩第二小学校",
        "address": "多摩市和田75",
        "lat": 35.644816,
        "lng": 139.433352
    },
    {
        "code": "B113222400033",
        "type": 16001,
        "name": "多摩第三小学校",
        "address": "多摩市乞田712",
        "lat": 35.631762,
        "lng": 139.436241
    },
    {
        "code": "B113222400042",
        "type": 16001,
        "name": "連光寺小学校",
        "address": "多摩市連光寺3-64-1",
        "lat": 35.641623,
        "lng": 139.457322
    },
    {
        "code": "B113222400051",
        "type": 16001,
        "name": "北諏訪小学校",
        "address": "多摩市諏訪1-60-1",
        "lat": 35.630235,
        "lng": 139.450323
    },
    {
        "code": "B113222400060",
        "type": 16001,
        "name": "東寺方小学校",
        "address": "多摩市東寺方100",
        "lat": 35.647705,
        "lng": 139.439156
    },
    {
        "code": "B113222400079",
        "type": 16001,
        "name": "南鶴牧小学校",
        "address": "多摩市鶴牧5-43",
        "lat": 35.614181,
        "lng": 139.418187
    },
    {
        "code": "B113222400088",
        "type": 16001,
        "name": "聖ヶ丘小学校",
        "address": "多摩市聖ヶ丘3-66",
        "lat": 35.628708,
        "lng": 139.460461
    },
    {
        "code": "B113222400097",
        "type": 16001,
        "name": "西落合小学校",
        "address": "多摩市落合5-6",
        "lat": 35.613848,
        "lng": 139.423687
    },
    {
        "code": "B113222400104",
        "type": 16001,
        "name": "大松台小学校",
        "address": "多摩市鶴牧6-4",
        "lat": 35.615215,
        "lng": 139.415354
    },
    {
        "code": "B113222400113",
        "type": 16001,
        "name": "諏訪小学校",
        "address": "多摩市諏訪5-13",
        "lat": 35.62032,
        "lng": 139.455017
    },
    {
        "code": "B113222400122",
        "type": 16001,
        "name": "永山小学校",
        "address": "多摩市永山2-8-1",
        "lat": 35.627374,
        "lng": 139.445879
    },
    {
        "code": "B113222400131",
        "type": 16001,
        "name": "瓜生小学校",
        "address": "多摩市永山5-13",
        "lat": 35.620264,
        "lng": 139.445768
    },
    {
        "code": "B113222400140",
        "type": 16001,
        "name": "東落合小学校",
        "address": "多摩市落合3-24",
        "lat": 35.618384,
        "lng": 139.430196
    },
    {
        "code": "B113222400159",
        "type": 16001,
        "name": "貝取小学校",
        "address": "多摩市貝取3-9",
        "lat": 35.618156,
        "lng": 139.441004
    },
    {
        "code": "B113222400168",
        "type": 16001,
        "name": "豊ヶ丘小学校",
        "address": "多摩市豊ヶ丘2-4-1",
        "lat": 35.622536,
        "lng": 139.433603
    },
    {
        "code": "B113222400177",
        "type": 16001,
        "name": "愛和小学校",
        "address": "多摩市愛宕1-54",
        "lat": 35.634762,
        "lng": 139.434741
    },
    {
        "code": "B113322400013",
        "type": 16001,
        "name": "帝京大学小学校",
        "address": "多摩市和田1254-6",
        "lat": 35.644143,
        "lng": 139.418347
    },
    {
        "code": "C113222400013",
        "type": 16002,
        "name": "多摩中学校",
        "address": "多摩市関戸3-19-1",
        "lat": 35.649344,
        "lng": 139.45696
    },
    {
        "code": "C113222400022",
        "type": 16002,
        "name": "東愛宕中学校",
        "address": "多摩市愛宕1-52",
        "lat": 35.633345,
        "lng": 139.431658
    },
    {
        "code": "C113222400031",
        "type": 16002,
        "name": "和田中学校",
        "address": "多摩市和田234",
        "lat": 35.641789,
        "lng": 139.430352
    },
    {
        "code": "C113222400040",
        "type": 16002,
        "name": "諏訪中学校",
        "address": "多摩市諏訪5-12-1",
        "lat": 35.622042,
        "lng": 139.455101
    },
    {
        "code": "C113222400059",
        "type": 16002,
        "name": "聖ケ丘中学校",
        "address": "多摩市聖ヶ丘2-17",
        "lat": 35.633874,
        "lng": 139.457739
    },
    {
        "code": "C113222400068",
        "type": 16002,
        "name": "鶴牧中学校",
        "address": "多摩市鶴牧6-5-1",
        "lat": 35.613393,
        "lng": 139.414914
    },
    {
        "code": "C113222400077",
        "type": 16002,
        "name": "多摩永山中学校",
        "address": "多摩市永山2-7-1",
        "lat": 35.624903,
        "lng": 139.447157
    },
    {
        "code": "C113222400086",
        "type": 16002,
        "name": "落合中学校",
        "address": "多摩市落合4-14",
        "lat": 35.614738,
        "lng": 139.429024
    },
    {
        "code": "C113222400095",
        "type": 16002,
        "name": "青陵中学校",
        "address": "多摩市貝取2-9-1",
        "lat": 35.620709,
        "lng": 139.43916
    },
    {
        "code": "C113322400011",
        "type": 16002,
        "name": "聖ヶ丘中学校",
        "address": "多摩市聖ヶ丘4-1-1",
        "lat": 35.629912,
        "lng": 139.463742
    },
    {
        "code": "C113322400020",
        "type": 16002,
        "name": "大妻多摩中学校",
        "address": "多摩市唐木田2-7-1",
        "lat": 35.611613,
        "lng": 139.404563
    },
    {
        "code": "D113299910094",
        "type": 16004,
        "name": "永山高等学校",
        "address": "多摩市永山5-22",
        "lat": 35.614793,
        "lng": 139.448546
    },
    {
        "code": "D113322400019",
        "type": 16004,
        "name": "大妻多摩高等学校",
        "address": "多摩市唐木田2-7-1",
        "lat": 35.611597,
        "lng": 139.4048
    },
    {
        "code": "D113322400028",
        "type": 16004,
        "name": "多摩大学附属聖ヶ丘高等学校",
        "address": "多摩市聖ヶ丘4-1-1",
        "lat": 35.629903,
        "lng": 139.463766
    },
    {
        "code": "E113299930079",
        "type": 16012,
        "name": "多摩桜の丘学園",
        "address": "多摩市聖ヶ丘1-17-1",
        "lat": 35.636901,
        "lng": 139.457516
    },
    {
        "code": "F113310103929",
        "type": 16007,
        "name": "恵泉女学園大学",
        "address": "多摩市南野2-10-1",
        "lat": 35.608682,
        "lng": 139.436492
    },
    {
        "code": "F113310103938",
        "type": 16007,
        "name": "多摩大学",
        "address": "多摩市聖ｹ丘4-1-1",
        "lat": 35.630764,
        "lng": 139.464322
    },
    {
        "code": "F113310104143",
        "type": 16007,
        "name": "東京医療学院大学",
        "address": "多摩市落合4-11",
        "lat": 35.611725,
        "lng": 139.429901
    },
    {
        "code": "H113222400012",
        "type": 16016,
        "name": "南多摩看護専門学校",
        "address": "多摩市山王下1-18-1",
        "lat": 35.62534,
        "lng": 139.413996
    },
    {
        "code": "H113322400010",
        "type": 16016,
        "name": "東京多摩調理製菓専門学校",
        "address": "多摩市関戸4-20-3",
        "lat": 35.649355,
        "lng": 139.448222
    },
    {
        "code": "H113322400029",
        "type": 16016,
        "name": "芸術工芸高等専修学校",
        "address": "多摩市和田1717-2",
        "lat": 35.650097,
        "lng": 139.436042
    }
]