[
    {
        "code": "A101233300019",
        "type": 16011,
        "name": "知内幼稚園",
        "address": "上磯郡知内町字重内26",
        "lat": 41.600324,
        "lng": 140.417233
    },
    {
        "code": "B101233300017",
        "type": 16001,
        "name": "湯ノ里小学校",
        "address": "上磯郡知内町湯ﾉ里156-61",
        "lat": 41.601012,
        "lng": 140.319618
    },
    {
        "code": "B101233300026",
        "type": 16001,
        "name": "知内小学校",
        "address": "上磯郡知内町字重内16-7",
        "lat": 41.597498,
        "lng": 140.421387
    },
    {
        "code": "B101233300035",
        "type": 16001,
        "name": "涌元小学校",
        "address": "上磯郡知内町字涌元247",
        "lat": 41.562194,
        "lng": 140.425827
    },
    {
        "code": "C101233300015",
        "type": 16002,
        "name": "知内中学校",
        "address": "上磯郡知内町字重内22-1",
        "lat": 41.5998,
        "lng": 140.416659
    },
    {
        "code": "D101233300013",
        "type": 16004,
        "name": "知内高等学校",
        "address": "上磯郡知内町字重内984",
        "lat": 41.597523,
        "lng": 140.424353
    }
]