[
    {
        "code": "B113236300016",
        "type": 16001,
        "name": "新島小学校",
        "address": "新島村本村2-1-1",
        "lat": 34.378016,
        "lng": 139.257637
    },
    {
        "code": "B113236300025",
        "type": 16001,
        "name": "式根島小学校",
        "address": "新島村式根島244",
        "lat": 34.327299,
        "lng": 139.216322
    },
    {
        "code": "C113236300014",
        "type": 16002,
        "name": "新島中学校",
        "address": "新島村本村4-7-1",
        "lat": 34.371506,
        "lng": 139.258272
    },
    {
        "code": "C113236300023",
        "type": 16002,
        "name": "式根島中学校",
        "address": "新島村式根島166",
        "lat": 34.328549,
        "lng": 139.217155
    },
    {
        "code": "D113299911020",
        "type": 16004,
        "name": "新島高等学校",
        "address": "新島村本村4-10-1",
        "lat": 34.369162,
        "lng": 139.258223
    }
]