[
    {
        "code": "B113240100010",
        "type": 16001,
        "name": "三根小学校",
        "address": "八丈町三根341",
        "lat": 33.119017,
        "lng": 139.800927
    },
    {
        "code": "B113240100029",
        "type": 16001,
        "name": "大賀郷小学校",
        "address": "八丈町大賀郷15",
        "lat": 33.104574,
        "lng": 139.788012
    },
    {
        "code": "B113240100038",
        "type": 16001,
        "name": "三原小学校",
        "address": "八丈町中之郷2474",
        "lat": 33.069405,
        "lng": 139.804864
    },
    {
        "code": "C113240100018",
        "type": 16002,
        "name": "富士中学校",
        "address": "八丈町三根4655-1",
        "lat": 33.124667,
        "lng": 139.795026
    },
    {
        "code": "C113240100027",
        "type": 16002,
        "name": "大賀郷中学校",
        "address": "八丈町大賀郷3073",
        "lat": 33.106129,
        "lng": 139.782179
    },
    {
        "code": "C113240100036",
        "type": 16002,
        "name": "三原中学校",
        "address": "八丈町中之郷2474",
        "lat": 33.069495,
        "lng": 139.805485
    },
    {
        "code": "D113299913019",
        "type": 16004,
        "name": "八丈高等学校",
        "address": "八丈町大賀郷3020",
        "lat": 33.108128,
        "lng": 139.779707
    }
]