[
    {
        "code": "A201236300011",
        "type": 16013,
        "name": "厚沢部町認定こども園はぜる",
        "address": "檜山郡厚沢部町赤沼町337-1",
        "lat": 41.926986,
        "lng": 140.225422
    },
    {
        "code": "B101236300010",
        "type": 16001,
        "name": "館小学校",
        "address": "檜山郡厚沢部町館町187-1",
        "lat": 41.89026,
        "lng": 140.326683
    },
    {
        "code": "B101236300029",
        "type": 16001,
        "name": "鶉小学校",
        "address": "檜山郡厚沢部町鶉町212-3",
        "lat": 41.934454,
        "lng": 140.324762
    },
    {
        "code": "B101236300038",
        "type": 16001,
        "name": "厚沢部小学校",
        "address": "檜山郡厚沢部町新町104",
        "lat": 41.919508,
        "lng": 140.225494
    },
    {
        "code": "C101236300018",
        "type": 16002,
        "name": "厚沢部中学校",
        "address": "檜山郡厚沢部町新町250",
        "lat": 41.923064,
        "lng": 140.227188
    }
]