[
    {
        "code": "A101236700018",
        "type": 16011,
        "name": "奥尻幼稚園",
        "address": "奥尻郡奥尻町字奥尻428-2",
        "lat": 42.172024,
        "lng": 139.512986
    },
    {
        "code": "A101236700027",
        "type": 16011,
        "name": "青苗幼稚園",
        "address": "奥尻郡奥尻町字青苗351",
        "lat": 42.064956,
        "lng": 139.449464
    },
    {
        "code": "B101236700016",
        "type": 16001,
        "name": "奥尻小学校",
        "address": "奥尻郡奥尻町字宮津40",
        "lat": 42.204476,
        "lng": 139.543849
    },
    {
        "code": "B101236700025",
        "type": 16001,
        "name": "青苗小学校",
        "address": "奥尻郡奥尻町字富里36",
        "lat": 42.06996,
        "lng": 139.454116
    },
    {
        "code": "C101236700014",
        "type": 16002,
        "name": "奥尻中学校",
        "address": "奥尻郡奥尻町字赤石411-2",
        "lat": 42.148666,
        "lng": 139.515794
    },
    {
        "code": "D101236700012",
        "type": 16004,
        "name": "奥尻高等学校",
        "address": "奥尻郡奥尻町字赤石411-2",
        "lat": 42.1486,
        "lng": 139.516181
    }
]