[
    {
        "code": "A201237100011",
        "type": 16013,
        "name": "認定こども園きたひやま",
        "address": "久遠郡せたな町北檜山区豊岡259-1",
        "lat": 42.418932,
        "lng": 139.86861
    },
    {
        "code": "B101237100010",
        "type": 16001,
        "name": "久遠小学校",
        "address": "久遠郡せたな町大成区都366",
        "lat": 42.229412,
        "lng": 139.818202
    },
    {
        "code": "B101237100029",
        "type": 16001,
        "name": "瀬棚小学校",
        "address": "久遠郡せたな町瀬棚区本町513-1",
        "lat": 42.4539,
        "lng": 139.852715
    },
    {
        "code": "B101237100038",
        "type": 16001,
        "name": "若松小学校",
        "address": "久遠郡せたな町北檜山区若松461",
        "lat": 42.354085,
        "lng": 139.905988
    },
    {
        "code": "B101237100047",
        "type": 16001,
        "name": "北檜山小学校",
        "address": "久遠郡せたな町北檜山区豊岡200",
        "lat": 42.417446,
        "lng": 139.869708
    },
    {
        "code": "C101237100018",
        "type": 16002,
        "name": "大成中学校",
        "address": "久遠郡せたな町大成区都421",
        "lat": 42.22804,
        "lng": 139.820032
    },
    {
        "code": "C101237100027",
        "type": 16002,
        "name": "瀬棚中学校",
        "address": "久遠郡せたな町瀬棚区共和404-1",
        "lat": 42.449126,
        "lng": 139.856279
    },
    {
        "code": "C101237100036",
        "type": 16002,
        "name": "北檜山中学校",
        "address": "久遠郡せたな町北檜山区豊岡233",
        "lat": 42.421352,
        "lng": 139.876397
    },
    {
        "code": "D101237100016",
        "type": 16004,
        "name": "檜山北高等学校",
        "address": "久遠郡せたな町北檜山区丹羽360-1",
        "lat": 42.430935,
        "lng": 139.941291
    }
]