[
    {
        "code": "B101239300014",
        "type": 16001,
        "name": "黒松内小学校",
        "address": "寿都郡黒松内町字黒松内357-1",
        "lat": 42.664125,
        "lng": 140.308364
    },
    {
        "code": "B101239300023",
        "type": 16001,
        "name": "白井川小学校",
        "address": "寿都郡黒松内町字白井川16-35",
        "lat": 42.669015,
        "lng": 140.388441
    },
    {
        "code": "C101239300012",
        "type": 16002,
        "name": "黒松内中学校",
        "address": "寿都郡黒松内町字旭野48-1",
        "lat": 42.672735,
        "lng": 140.299753
    },
    {
        "code": "C101239300021",
        "type": 16002,
        "name": "白井川中学校",
        "address": "寿都郡黒松内町字白井川17-9",
        "lat": 42.670515,
        "lng": 140.382803
    },
    {
        "code": "E101239300017",
        "type": 16012,
        "name": "余市養護学校しりべし学園分校",
        "address": "寿都郡黒松内町字黒松内564",
        "lat": 42.659015,
        "lng": 140.312669
    }
]