[
    {
        "code": "A101340200013",
        "type": 16011,
        "name": "高田幼稚園",
        "address": "岩内郡岩内町字栄136",
        "lat": 42.98056,
        "lng": 140.518299
    },
    {
        "code": "A101340200022",
        "type": 16011,
        "name": "岩内幼稚園",
        "address": "岩内郡岩内町字高台180",
        "lat": 42.978451,
        "lng": 140.512358
    },
    {
        "code": "B101240200013",
        "type": 16001,
        "name": "岩内西小学校",
        "address": "岩内郡岩内町字野束172",
        "lat": 42.975582,
        "lng": 140.497633
    },
    {
        "code": "B101240200022",
        "type": 16001,
        "name": "岩内東小学校",
        "address": "岩内郡岩内町字東山130",
        "lat": 42.979068,
        "lng": 140.527162
    },
    {
        "code": "C101240200011",
        "type": 16002,
        "name": "岩内第一中学校",
        "address": "岩内郡岩内町字宮園313",
        "lat": 42.973077,
        "lng": 140.530929
    },
    {
        "code": "C101240200020",
        "type": 16002,
        "name": "岩内第二中学校",
        "address": "岩内郡岩内町字野束41",
        "lat": 42.971347,
        "lng": 140.50411
    },
    {
        "code": "D101240200019",
        "type": 16004,
        "name": "岩内高等学校",
        "address": "岩内郡岩内町字宮園43-1",
        "lat": 42.973708,
        "lng": 140.515931
    },
    {
        "code": "H201340200017",
        "type": 16015,
        "name": "岩内ドレスメーカー女学院",
        "address": "岩内郡岩内町字栄225",
        "lat": 42.976507,
        "lng": 140.519841
    }
]