[
    {
        "code": "A114220620014",
        "type": 16011,
        "name": "酒匂幼稚園",
        "address": "小田原市酒匂6-8-26",
        "lat": 35.270955,
        "lng": 139.193428
    },
    {
        "code": "A114220620023",
        "type": 16011,
        "name": "東富水幼稚園",
        "address": "小田原市中曽根355-5",
        "lat": 35.29137,
        "lng": 139.154032
    },
    {
        "code": "A114220620032",
        "type": 16011,
        "name": "前羽幼稚園",
        "address": "小田原市前川510",
        "lat": 35.284804,
        "lng": 139.227902
    },
    {
        "code": "A114220620041",
        "type": 16011,
        "name": "下中幼稚園",
        "address": "小田原市小船174-1",
        "lat": 35.302332,
        "lng": 139.225676
    },
    {
        "code": "A114220620050",
        "type": 16011,
        "name": "矢作幼稚園",
        "address": "小田原市矢作231",
        "lat": 35.286297,
        "lng": 139.176779
    },
    {
        "code": "A114220620069",
        "type": 16011,
        "name": "報徳幼稚園",
        "address": "小田原市柳新田129-3",
        "lat": 35.30116,
        "lng": 139.140757
    },
    {
        "code": "A114320600016",
        "type": 16011,
        "name": "浅野記念御濠端幼稚園",
        "address": "小田原市城内2-16",
        "lat": 35.251777,
        "lng": 139.156855
    },
    {
        "code": "A114320600025",
        "type": 16011,
        "name": "新玉幼稚園",
        "address": "小田原市栄町4-6-5",
        "lat": 35.254879,
        "lng": 139.161901
    },
    {
        "code": "A114320600034",
        "type": 16011,
        "name": "鴨宮幼稚園",
        "address": "小田原市上新田130",
        "lat": 35.276235,
        "lng": 139.173725
    },
    {
        "code": "A114320600043",
        "type": 16011,
        "name": "こゆるぎ幼稚園",
        "address": "小田原市永塚387-5",
        "lat": 35.299828,
        "lng": 139.177548
    },
    {
        "code": "A114320600052",
        "type": 16011,
        "name": "城山幼稚園",
        "address": "小田原市城山2-1-3",
        "lat": 35.257539,
        "lng": 139.151898
    },
    {
        "code": "A114320600061",
        "type": 16011,
        "name": "富水幼稚園",
        "address": "小田原市飯田岡92",
        "lat": 35.292378,
        "lng": 139.147743
    },
    {
        "code": "A114320600070",
        "type": 16011,
        "name": "花園幼稚園",
        "address": "小田原市南町2-2-45",
        "lat": 35.246314,
        "lng": 139.153539
    },
    {
        "code": "A114320600089",
        "type": 16011,
        "name": "みみづく幼稚園",
        "address": "小田原市城山4-19-8",
        "lat": 35.248695,
        "lng": 139.14796
    },
    {
        "code": "A114320600098",
        "type": 16011,
        "name": "友愛幼稚園",
        "address": "小田原市北ﾉ窪176",
        "lat": 35.285451,
        "lng": 139.13372
    },
    {
        "code": "A114320600105",
        "type": 16011,
        "name": "れんげ幼稚園",
        "address": "小田原市東町3-12-23",
        "lat": 35.259512,
        "lng": 139.175956
    },
    {
        "code": "A214320600015",
        "type": 16013,
        "name": "小田原みどり学園",
        "address": "小田原市中町1-15-11",
        "lat": 35.260903,
        "lng": 139.159846
    },
    {
        "code": "B114220620012",
        "type": 16001,
        "name": "三の丸小学校",
        "address": "小田原市本町1-12-49",
        "lat": 35.248477,
        "lng": 139.156304
    },
    {
        "code": "B114220620021",
        "type": 16001,
        "name": "新玉小学校",
        "address": "小田原市浜町2-1-20",
        "lat": 35.255226,
        "lng": 139.164191
    },
    {
        "code": "B114220620030",
        "type": 16001,
        "name": "足柄小学校",
        "address": "小田原市扇町3-21-7",
        "lat": 35.269029,
        "lng": 139.156552
    },
    {
        "code": "B114220620049",
        "type": 16001,
        "name": "芦子小学校",
        "address": "小田原市扇町1-37-7",
        "lat": 35.265086,
        "lng": 139.157247
    },
    {
        "code": "B114220620058",
        "type": 16001,
        "name": "大窪小学校",
        "address": "小田原市板橋985",
        "lat": 35.250392,
        "lng": 139.136666
    },
    {
        "code": "B114220620067",
        "type": 16001,
        "name": "早川小学校",
        "address": "小田原市早川2-14-1",
        "lat": 35.243449,
        "lng": 139.143722
    },
    {
        "code": "B114220620076",
        "type": 16001,
        "name": "山王小学校",
        "address": "小田原市東町2-9-1",
        "lat": 35.257643,
        "lng": 139.175995
    },
    {
        "code": "B114220620085",
        "type": 16001,
        "name": "久野小学校",
        "address": "小田原市久野1561",
        "lat": 35.272862,
        "lng": 139.136665
    },
    {
        "code": "B114220620094",
        "type": 16001,
        "name": "富水小学校",
        "address": "小田原市飯田岡481",
        "lat": 35.28872,
        "lng": 139.140941
    },
    {
        "code": "B114220620101",
        "type": 16001,
        "name": "町田小学校",
        "address": "小田原市寿町2-7-25",
        "lat": 35.261003,
        "lng": 139.16694
    },
    {
        "code": "B114220620110",
        "type": 16001,
        "name": "下府中小学校",
        "address": "小田原市酒匂930",
        "lat": 35.278612,
        "lng": 139.187464
    },
    {
        "code": "B114220620129",
        "type": 16001,
        "name": "桜井小学校",
        "address": "小田原市曽比1943",
        "lat": 35.31055,
        "lng": 139.139551
    },
    {
        "code": "B114220620138",
        "type": 16001,
        "name": "千代小学校",
        "address": "小田原市千代687",
        "lat": 35.295582,
        "lng": 139.178326
    },
    {
        "code": "B114220620147",
        "type": 16001,
        "name": "下曽我小学校",
        "address": "小田原市曽我原333",
        "lat": 35.299942,
        "lng": 139.190824
    },
    {
        "code": "B114220620156",
        "type": 16001,
        "name": "国府津小学校",
        "address": "小田原市国府津2485",
        "lat": 35.282446,
        "lng": 139.202323
    },
    {
        "code": "B114220620165",
        "type": 16001,
        "name": "酒匂小学校",
        "address": "小田原市酒匂5-15-3",
        "lat": 35.270475,
        "lng": 139.19452
    },
    {
        "code": "B114220620174",
        "type": 16001,
        "name": "片浦小学校",
        "address": "小田原市根府川534-1",
        "lat": 35.203399,
        "lng": 139.136837
    },
    {
        "code": "B114220620183",
        "type": 16001,
        "name": "曽我小学校",
        "address": "小田原市曽我大沢69",
        "lat": 35.317133,
        "lng": 139.166326
    },
    {
        "code": "B114220620192",
        "type": 16001,
        "name": "東富水小学校",
        "address": "小田原市中曽根359-1",
        "lat": 35.291443,
        "lng": 139.154912
    },
    {
        "code": "B114220620209",
        "type": 16001,
        "name": "前羽小学校",
        "address": "小田原市前川858",
        "lat": 35.285362,
        "lng": 139.226738
    },
    {
        "code": "B114220620218",
        "type": 16001,
        "name": "下中小学校",
        "address": "小田原市小船178",
        "lat": 35.301887,
        "lng": 139.224904
    },
    {
        "code": "B114220620227",
        "type": 16001,
        "name": "矢作小学校",
        "address": "小田原市矢作227",
        "lat": 35.287083,
        "lng": 139.176715
    },
    {
        "code": "B114220620236",
        "type": 16001,
        "name": "報徳小学校",
        "address": "小田原市小台405",
        "lat": 35.301385,
        "lng": 139.140107
    },
    {
        "code": "B114220620245",
        "type": 16001,
        "name": "豊川小学校",
        "address": "小田原市成田530-1",
        "lat": 35.286166,
        "lng": 139.165828
    },
    {
        "code": "B114220620254",
        "type": 16001,
        "name": "富士見小学校",
        "address": "小田原市南鴨宮3-25-1",
        "lat": 35.270808,
        "lng": 139.182077
    },
    {
        "code": "B114320600014",
        "type": 16001,
        "name": "湘南ライナス学園小学部",
        "address": "小田原市風祭487-1",
        "lat": 35.247839,
        "lng": 139.130621
    },
    {
        "code": "C114220620010",
        "type": 16002,
        "name": "城山中学校",
        "address": "小田原市城山3-4-1",
        "lat": 35.25517,
        "lng": 139.151665
    },
    {
        "code": "C114220620029",
        "type": 16002,
        "name": "白鴎中学校",
        "address": "小田原市東町4-13-1",
        "lat": 35.260004,
        "lng": 139.180828
    },
    {
        "code": "C114220620038",
        "type": 16002,
        "name": "白山中学校",
        "address": "小田原市扇町5-7-17",
        "lat": 35.27314,
        "lng": 139.156552
    },
    {
        "code": "C114220620047",
        "type": 16002,
        "name": "城南中学校",
        "address": "小田原市板橋875-1",
        "lat": 35.252424,
        "lng": 139.141711
    },
    {
        "code": "C114220620056",
        "type": 16002,
        "name": "鴨宮中学校",
        "address": "小田原市鴨宮547",
        "lat": 35.284222,
        "lng": 139.176299
    },
    {
        "code": "C114220620065",
        "type": 16002,
        "name": "千代中学校",
        "address": "小田原市千代800",
        "lat": 35.294998,
        "lng": 139.176298
    },
    {
        "code": "C114220620074",
        "type": 16002,
        "name": "国府津中学校",
        "address": "小田原市国府津2372",
        "lat": 35.283973,
        "lng": 139.199629
    },
    {
        "code": "C114220620083",
        "type": 16002,
        "name": "酒匂中学校",
        "address": "小田原市酒匂3-4-1",
        "lat": 35.264337,
        "lng": 139.186882
    },
    {
        "code": "C114220620092",
        "type": 16002,
        "name": "泉中学校",
        "address": "小田原市飯田岡22",
        "lat": 35.287443,
        "lng": 139.147135
    },
    {
        "code": "C114220620109",
        "type": 16002,
        "name": "橘中学校",
        "address": "小田原市羽根尾410",
        "lat": 35.292667,
        "lng": 139.232209
    },
    {
        "code": "C114220620118",
        "type": 16002,
        "name": "城北中学校",
        "address": "小田原市栢山2888",
        "lat": 35.307801,
        "lng": 139.138968
    },
    {
        "code": "C114320600012",
        "type": 16002,
        "name": "相洋中学校",
        "address": "小田原市城山4-13-33",
        "lat": 35.251865,
        "lng": 139.147138
    },
    {
        "code": "C114320600021",
        "type": 16002,
        "name": "湘南ライナス学園中学部",
        "address": "小田原市風祭487-1",
        "lat": 35.247817,
        "lng": 139.13064
    },
    {
        "code": "D114220610010",
        "type": 16004,
        "name": "小田原高等学校",
        "address": "小田原市城山3-26-1",
        "lat": 35.25367,
        "lng": 139.149026
    },
    {
        "code": "D114220610029",
        "type": 16004,
        "name": "小田原東高等学校",
        "address": "小田原市東町4-12-1",
        "lat": 35.260643,
        "lng": 139.179883
    },
    {
        "code": "D114220610038",
        "type": 16004,
        "name": "西湘高等学校",
        "address": "小田原市酒匂1-3-1",
        "lat": 35.274419,
        "lng": 139.186687
    },
    {
        "code": "D114220610047",
        "type": 16004,
        "name": "小田原城北工業高等学校",
        "address": "小田原市栢山200",
        "lat": 35.314189,
        "lng": 139.145467
    },
    {
        "code": "D114320600010",
        "type": 16004,
        "name": "旭丘高等学校",
        "address": "小田原市城内1-13",
        "lat": 35.253059,
        "lng": 139.154831
    },
    {
        "code": "D114320600029",
        "type": 16004,
        "name": "相洋高等学校",
        "address": "小田原市城山4-13-33",
        "lat": 35.252004,
        "lng": 139.146415
    },
    {
        "code": "D114320600038",
        "type": 16004,
        "name": "湘南ライナス学園高等部",
        "address": "小田原市風祭487-1",
        "lat": 35.247813,
        "lng": 139.130623
    },
    {
        "code": "E114220610017",
        "type": 16012,
        "name": "小田原養護学校",
        "address": "小田原市蓮正寺1021",
        "lat": 35.284388,
        "lng": 139.147108
    },
    {
        "code": "F214310104962",
        "type": 16006,
        "name": "小田原短期大学",
        "address": "小田原市城山4-5-1",
        "lat": 35.249087,
        "lng": 139.14961
    },
    {
        "code": "H114320600011",
        "type": 16016,
        "name": "崎村調理師専門学校",
        "address": "小田原市城山2-1-9",
        "lat": 35.25697,
        "lng": 139.151923
    },
    {
        "code": "H114320600020",
        "type": 16016,
        "name": "小澤高等看護学院",
        "address": "小田原市本町1-1-17",
        "lat": 35.251624,
        "lng": 139.158598
    },
    {
        "code": "H114320600039",
        "type": 16016,
        "name": "積善会看護専門学校",
        "address": "小田原市曽我岸148",
        "lat": 35.30166,
        "lng": 139.180368
    },
    {
        "code": "H114320600048",
        "type": 16016,
        "name": "おだわら看護専門学校",
        "address": "小田原市久野115-2",
        "lat": 35.268121,
        "lng": 139.150153
    }
]