[
    {
        "code": "A114321400016",
        "type": 16011,
        "name": "伊勢原幼稚園",
        "address": "伊勢原市伊勢原3-10-5",
        "lat": 35.39876,
        "lng": 139.308679
    },
    {
        "code": "A114321400025",
        "type": 16011,
        "name": "伊勢原白百合幼稚園",
        "address": "伊勢原市池端536",
        "lat": 35.401394,
        "lng": 139.321383
    },
    {
        "code": "A114321400034",
        "type": 16011,
        "name": "伊勢原みのり幼稚園",
        "address": "伊勢原市岡崎6994-3",
        "lat": 35.380846,
        "lng": 139.315287
    },
    {
        "code": "A114321400043",
        "type": 16011,
        "name": "中央マドカ幼稚園",
        "address": "伊勢原市高森446-1",
        "lat": 35.421566,
        "lng": 139.328622
    },
    {
        "code": "A114321400052",
        "type": 16011,
        "name": "成瀬幼稚園",
        "address": "伊勢原市高森2-19-12",
        "lat": 35.410865,
        "lng": 139.328241
    },
    {
        "code": "A214321400015",
        "type": 16013,
        "name": "東海大学付属本田記念幼稚園",
        "address": "伊勢原市下糟屋111",
        "lat": 35.406098,
        "lng": 139.313659
    },
    {
        "code": "A214321400024",
        "type": 16013,
        "name": "伊勢原立正幼稚園",
        "address": "伊勢原市沼目6-1209",
        "lat": 35.389424,
        "lng": 139.331914
    },
    {
        "code": "A214321400033",
        "type": 16013,
        "name": "伊勢原山王幼稚園",
        "address": "伊勢原市三ﾉ宮468",
        "lat": 35.407539,
        "lng": 139.289729
    },
    {
        "code": "A214321400042",
        "type": 16013,
        "name": "伊勢原八雲幼稚園",
        "address": "伊勢原市板戸623",
        "lat": 35.397443,
        "lng": 139.300597
    },
    {
        "code": "A214321400051",
        "type": 16013,
        "name": "伊勢原ひかり幼稚園",
        "address": "伊勢原市東大竹1377",
        "lat": 35.388378,
        "lng": 139.307919
    },
    {
        "code": "B114221420012",
        "type": 16001,
        "name": "伊勢原小学校",
        "address": "伊勢原市伊勢原4-1-1",
        "lat": 35.398543,
        "lng": 139.311229
    },
    {
        "code": "B114221420021",
        "type": 16001,
        "name": "大山小学校",
        "address": "伊勢原市大山209",
        "lat": 35.419178,
        "lng": 139.261734
    },
    {
        "code": "B114221420030",
        "type": 16001,
        "name": "高部屋小学校",
        "address": "伊勢原市西富岡1090-1",
        "lat": 35.422734,
        "lng": 139.295397
    },
    {
        "code": "B114221420049",
        "type": 16001,
        "name": "比々多小学校",
        "address": "伊勢原市神戸521-1",
        "lat": 35.396515,
        "lng": 139.288704
    },
    {
        "code": "B114221420058",
        "type": 16001,
        "name": "成瀬小学校",
        "address": "伊勢原市高森1481-3",
        "lat": 35.409209,
        "lng": 139.329699
    },
    {
        "code": "B114221420067",
        "type": 16001,
        "name": "大田小学校",
        "address": "伊勢原市下谷1471-1",
        "lat": 35.391212,
        "lng": 139.337087
    },
    {
        "code": "B114221420076",
        "type": 16001,
        "name": "桜台小学校",
        "address": "伊勢原市桜台4-16-1",
        "lat": 35.388823,
        "lng": 139.316618
    },
    {
        "code": "B114221420085",
        "type": 16001,
        "name": "緑台小学校",
        "address": "伊勢原市高森482",
        "lat": 35.421124,
        "lng": 139.326839
    },
    {
        "code": "B114221420094",
        "type": 16001,
        "name": "竹園小学校",
        "address": "伊勢原市岡崎6611-1",
        "lat": 35.385406,
        "lng": 139.304369
    },
    {
        "code": "B114221420101",
        "type": 16001,
        "name": "石田小学校",
        "address": "伊勢原市石田1168-1",
        "lat": 35.408404,
        "lng": 139.345336
    },
    {
        "code": "C114221420010",
        "type": 16002,
        "name": "山王中学校",
        "address": "伊勢原市上粕屋804-2",
        "lat": 35.406542,
        "lng": 139.291481
    },
    {
        "code": "C114221420029",
        "type": 16002,
        "name": "成瀬中学校",
        "address": "伊勢原市高森2-22-1",
        "lat": 35.411376,
        "lng": 139.326561
    },
    {
        "code": "C114221420038",
        "type": 16002,
        "name": "伊勢原中学校",
        "address": "伊勢原市桜台4-2-1",
        "lat": 35.390322,
        "lng": 139.315895
    },
    {
        "code": "C114221420047",
        "type": 16002,
        "name": "中沢中学校",
        "address": "伊勢原市下糟屋231-1",
        "lat": 35.403099,
        "lng": 139.3207
    },
    {
        "code": "D114221410010",
        "type": 16004,
        "name": "伊勢原高等学校",
        "address": "伊勢原市田中1008-3",
        "lat": 35.403765,
        "lng": 139.305952
    },
    {
        "code": "D114221410029",
        "type": 16004,
        "name": "伊志田高等学校",
        "address": "伊勢原市石田1356-1",
        "lat": 35.413348,
        "lng": 139.346198
    },
    {
        "code": "D114321400010",
        "type": 16004,
        "name": "向上高等学校",
        "address": "伊勢原市見附島411",
        "lat": 35.405266,
        "lng": 139.340892
    },
    {
        "code": "D214321400019",
        "type": 16003,
        "name": "自修館中等教育学校",
        "address": "伊勢原市見附島411",
        "lat": 35.40587,
        "lng": 139.340706
    },
    {
        "code": "E114221410017",
        "type": 16012,
        "name": "伊勢原養護学校",
        "address": "伊勢原市石田1390",
        "lat": 35.412126,
        "lng": 139.344864
    },
    {
        "code": "H114321400011",
        "type": 16016,
        "name": "国際総合健康専門学校",
        "address": "伊勢原市善波1160-1",
        "lat": 35.387246,
        "lng": 139.259784
    }
]