[
    {
        "code": "A114321000010",
        "type": 16011,
        "name": "油壷幼稚園",
        "address": "三浦市三崎町諸磯79-1",
        "lat": 35.156027,
        "lng": 139.628735
    },
    {
        "code": "A114321000029",
        "type": 16011,
        "name": "椿の御所幼稚園",
        "address": "三浦市向ヶ崎町11-1",
        "lat": 35.140311,
        "lng": 139.623347
    },
    {
        "code": "A114321000038",
        "type": 16011,
        "name": "三浦幼稚園",
        "address": "三浦市南下浦町上宮田479",
        "lat": 35.193894,
        "lng": 139.662054
    },
    {
        "code": "B114221020016",
        "type": 16001,
        "name": "三崎小学校",
        "address": "三浦市三崎1-20-32",
        "lat": 35.142968,
        "lng": 139.619593
    },
    {
        "code": "B114221020025",
        "type": 16001,
        "name": "岬陽小学校",
        "address": "三浦市岬陽町10-1",
        "lat": 35.147658,
        "lng": 139.6304
    },
    {
        "code": "B114221020034",
        "type": 16001,
        "name": "南下浦小学校",
        "address": "三浦市南下浦町菊名1096",
        "lat": 35.173546,
        "lng": 139.654036
    },
    {
        "code": "B114221020043",
        "type": 16001,
        "name": "上宮田小学校",
        "address": "三浦市南下浦町上宮田3040",
        "lat": 35.188461,
        "lng": 139.648425
    },
    {
        "code": "B114221020052",
        "type": 16001,
        "name": "剣崎小学校",
        "address": "三浦市南下浦町松輪1710",
        "lat": 35.147243,
        "lng": 139.665814
    },
    {
        "code": "B114221020061",
        "type": 16001,
        "name": "初声小学校",
        "address": "三浦市初声町下宮田3728",
        "lat": 35.188211,
        "lng": 139.62987
    },
    {
        "code": "B114221020070",
        "type": 16001,
        "name": "名向小学校",
        "address": "三浦市三崎町諸磯65",
        "lat": 35.155324,
        "lng": 139.628039
    },
    {
        "code": "B114221020089",
        "type": 16001,
        "name": "旭小学校",
        "address": "三浦市南下浦町上宮田950",
        "lat": 35.195016,
        "lng": 139.655924
    },
    {
        "code": "C114221020014",
        "type": 16002,
        "name": "三崎中学校",
        "address": "三浦市三崎町六合45-1",
        "lat": 35.155537,
        "lng": 139.639635
    },
    {
        "code": "C114221020023",
        "type": 16002,
        "name": "南下浦中学校",
        "address": "三浦市南下浦町金田206",
        "lat": 35.172296,
        "lng": 139.65448
    },
    {
        "code": "C114221020032",
        "type": 16002,
        "name": "初声中学校",
        "address": "三浦市初声町下宮田3622",
        "lat": 35.189739,
        "lng": 139.634426
    },
    {
        "code": "D114221010014",
        "type": 16004,
        "name": "三浦初声高等学校",
        "address": "三浦市初声町入江274-2",
        "lat": 35.186934,
        "lng": 139.625843
    }
]