[
    {
        "code": "A114332100016",
        "type": 16011,
        "name": "一之宮相和幼稚園",
        "address": "高座郡寒川町一之宮4-14-7",
        "lat": 35.369109,
        "lng": 139.378445
    },
    {
        "code": "A114332100025",
        "type": 16011,
        "name": "倉見幼稚園",
        "address": "高座郡寒川町倉見2299",
        "lat": 35.395398,
        "lng": 139.39463
    },
    {
        "code": "A114332100034",
        "type": 16011,
        "name": "寒川さくら幼稚園",
        "address": "高座郡寒川町岡田4-20-35",
        "lat": 35.373045,
        "lng": 139.396957
    },
    {
        "code": "A214332100015",
        "type": 16013,
        "name": "湘南こども園",
        "address": "高座郡寒川町大曲1-1-6",
        "lat": 35.361953,
        "lng": 139.393765
    },
    {
        "code": "B114232120012",
        "type": 16001,
        "name": "寒川小学校",
        "address": "高座郡寒川町宮山934",
        "lat": 35.374269,
        "lng": 139.389083
    },
    {
        "code": "B114232120021",
        "type": 16001,
        "name": "一之宮小学校",
        "address": "高座郡寒川町一之宮7-3-1",
        "lat": 35.364243,
        "lng": 139.37975
    },
    {
        "code": "B114232120030",
        "type": 16001,
        "name": "旭小学校",
        "address": "高座郡寒川町倉見1675-3",
        "lat": 35.390962,
        "lng": 139.385806
    },
    {
        "code": "B114232120049",
        "type": 16001,
        "name": "小谷小学校",
        "address": "高座郡寒川町小谷4-5-1",
        "lat": 35.382741,
        "lng": 139.399028
    },
    {
        "code": "B114232120058",
        "type": 16001,
        "name": "南小学校",
        "address": "高座郡寒川町一之宮9-9-1",
        "lat": 35.361576,
        "lng": 139.386249
    },
    {
        "code": "C114232120010",
        "type": 16002,
        "name": "寒川中学校",
        "address": "高座郡寒川町一之宮3-9-1",
        "lat": 35.36852,
        "lng": 139.3805
    },
    {
        "code": "C114232120029",
        "type": 16002,
        "name": "旭が丘中学校",
        "address": "高座郡寒川町小動933",
        "lat": 35.384685,
        "lng": 139.389945
    },
    {
        "code": "C114232120038",
        "type": 16002,
        "name": "寒川東中学校",
        "address": "高座郡寒川町岡田718",
        "lat": 35.365798,
        "lng": 139.391805
    },
    {
        "code": "D114232110010",
        "type": 16004,
        "name": "寒川高等学校",
        "address": "高座郡寒川町一之宮9-30-1",
        "lat": 35.359854,
        "lng": 139.386749
    }
]