[
    {
        "code": "A114334200011",
        "type": 16011,
        "name": "海の星幼稚園",
        "address": "中郡二宮町二宮88",
        "lat": 35.297425,
        "lng": 139.261953
    },
    {
        "code": "A114334200020",
        "type": 16011,
        "name": "梅の木幼稚園",
        "address": "中郡二宮町一色724",
        "lat": 35.322316,
        "lng": 139.238285
    },
    {
        "code": "A114334200039",
        "type": 16011,
        "name": "二宮育美幼稚園",
        "address": "中郡二宮町百合が丘2-2-2",
        "lat": 35.311056,
        "lng": 139.244031
    },
    {
        "code": "A114334200048",
        "type": 16011,
        "name": "二宮みどり幼稚園",
        "address": "中郡二宮町山西1577",
        "lat": 35.301217,
        "lng": 139.241823
    },
    {
        "code": "A114334200057",
        "type": 16011,
        "name": "二宮めぐみ幼稚園",
        "address": "中郡二宮町二宮92",
        "lat": 35.296879,
        "lng": 139.25947
    },
    {
        "code": "B114234220017",
        "type": 16001,
        "name": "二宮小学校",
        "address": "中郡二宮町二宮872-1",
        "lat": 35.299278,
        "lng": 139.255874
    },
    {
        "code": "B114234220026",
        "type": 16001,
        "name": "一色小学校",
        "address": "中郡二宮町百合が丘2-7",
        "lat": 35.311164,
        "lng": 139.240514
    },
    {
        "code": "B114234220035",
        "type": 16001,
        "name": "山西小学校",
        "address": "中郡二宮町山西1401",
        "lat": 35.302443,
        "lng": 139.246792
    },
    {
        "code": "C114234220015",
        "type": 16002,
        "name": "二宮中学校",
        "address": "中郡二宮町二宮54-2",
        "lat": 35.298306,
        "lng": 139.264763
    },
    {
        "code": "C114234220024",
        "type": 16002,
        "name": "二宮西中学校",
        "address": "中郡二宮町川匂323",
        "lat": 35.297999,
        "lng": 139.236653
    },
    {
        "code": "D114234210015",
        "type": 16004,
        "name": "二宮高等学校",
        "address": "中郡二宮町一色1363",
        "lat": 35.314081,
        "lng": 139.246319
    }
]