[
    {
        "code": "A114236620010",
        "type": 16011,
        "name": "開成幼稚園",
        "address": "足柄上郡開成町牛島336",
        "lat": 35.325364,
        "lng": 139.128474
    },
    {
        "code": "B114236620018",
        "type": 16001,
        "name": "開成小学校",
        "address": "足柄上郡開成町延沢625",
        "lat": 35.334518,
        "lng": 139.121191
    },
    {
        "code": "B114236620027",
        "type": 16001,
        "name": "開成南小学校",
        "address": "足柄上郡開成町みなみ2-2-1",
        "lat": 35.321507,
        "lng": 139.131852
    },
    {
        "code": "C114236620016",
        "type": 16002,
        "name": "文命中学校",
        "address": "足柄上郡開成町吉田島1805",
        "lat": 35.337268,
        "lng": 139.126829
    },
    {
        "code": "D114236610016",
        "type": 16004,
        "name": "吉田島高等学校",
        "address": "足柄上郡開成町吉田島281",
        "lat": 35.336018,
        "lng": 139.125357
    }
]