[
    {
        "code": "A201345200011",
        "type": 16013,
        "name": "たかす円山幼稚園",
        "address": "上川郡鷹栖町北野東2条2",
        "lat": 43.821872,
        "lng": 142.338593
    },
    {
        "code": "B101245200012",
        "type": 16001,
        "name": "鷹栖小学校",
        "address": "上川郡鷹栖町北1条1-4",
        "lat": 43.849761,
        "lng": 142.35846
    },
    {
        "code": "B101245200021",
        "type": 16001,
        "name": "北野小学校",
        "address": "上川郡鷹栖町12線33",
        "lat": 43.830643,
        "lng": 142.320296
    },
    {
        "code": "C101245200010",
        "type": 16002,
        "name": "鷹栖中学校",
        "address": "上川郡鷹栖町11線6",
        "lat": 43.836616,
        "lng": 142.339544
    },
    {
        "code": "D101245200018",
        "type": 16004,
        "name": "鷹栖高等学校",
        "address": "上川郡鷹栖町南1条1-2-1",
        "lat": 43.846484,
        "lng": 142.359652
    },
    {
        "code": "E101245200015",
        "type": 16012,
        "name": "鷹栖養護学校",
        "address": "上川郡鷹栖町北野西3条2-1-1",
        "lat": 43.819339,
        "lng": 142.332768
    }
]