[
    {
        "code": "A101245300013",
        "type": 16011,
        "name": "東神楽幼稚園",
        "address": "上川郡東神楽町南2条東1-5-1",
        "lat": 43.693262,
        "lng": 142.454498
    },
    {
        "code": "A101345300020",
        "type": 16011,
        "name": "東聖こばと幼稚園",
        "address": "上川郡東神楽町ひじり野南1条2-2-2",
        "lat": 43.71896,
        "lng": 142.413272
    },
    {
        "code": "A201345300010",
        "type": 16013,
        "name": "認定こども園花の森",
        "address": "上川郡東神楽町ひじり野北2条8-1-2",
        "lat": 43.727656,
        "lng": 142.406714
    },
    {
        "code": "B101245300011",
        "type": 16001,
        "name": "東神楽小学校",
        "address": "上川郡東神楽町南3条東1-2-1",
        "lat": 43.692804,
        "lng": 142.450709
    },
    {
        "code": "B101245300020",
        "type": 16001,
        "name": "東聖小学校",
        "address": "上川郡東神楽町ひじり野南1条2-1-1",
        "lat": 43.719033,
        "lng": 142.414347
    },
    {
        "code": "B101245300048",
        "type": 16001,
        "name": "志比内小学校",
        "address": "上川郡東神楽町字志比内75",
        "lat": 43.644618,
        "lng": 142.58206
    },
    {
        "code": "C101245300019",
        "type": 16002,
        "name": "東神楽中学校",
        "address": "上川郡東神楽町南1条西3-6-1",
        "lat": 43.700202,
        "lng": 142.444278
    }
]