[
    {
        "code": "A201345900014",
        "type": 16013,
        "name": "びえい青葉幼稚園",
        "address": "上川郡美瑛町寿町3-1-32",
        "lat": 43.585467,
        "lng": 142.469844
    },
    {
        "code": "B101245900015",
        "type": 16001,
        "name": "美瑛小学校",
        "address": "上川郡美瑛町西町2-1-1",
        "lat": 43.587287,
        "lng": 142.460269
    },
    {
        "code": "B101245900024",
        "type": 16001,
        "name": "美馬牛小学校",
        "address": "上川郡美瑛町美馬牛南2-2-58",
        "lat": 43.536648,
        "lng": 142.45618
    },
    {
        "code": "B101245900033",
        "type": 16001,
        "name": "美沢小学校",
        "address": "上川郡美瑛町字美沢中央",
        "lat": 43.544131,
        "lng": 142.530141
    },
    {
        "code": "B101245900042",
        "type": 16001,
        "name": "明徳小学校",
        "address": "上川郡美瑛町字朗根内町内",
        "lat": 43.630116,
        "lng": 142.578399
    },
    {
        "code": "B101245900051",
        "type": 16001,
        "name": "美瑛東小学校",
        "address": "上川郡美瑛町丸山2-8-15",
        "lat": 43.582871,
        "lng": 142.478129
    },
    {
        "code": "C101245900013",
        "type": 16002,
        "name": "美瑛中学校",
        "address": "上川郡美瑛町字美瑛原野4線",
        "lat": 43.590148,
        "lng": 142.481545
    },
    {
        "code": "C101245900022",
        "type": 16002,
        "name": "美馬牛中学校",
        "address": "上川郡美瑛町美馬牛北3-7-1",
        "lat": 43.540855,
        "lng": 142.443317
    },
    {
        "code": "D101245900011",
        "type": 16004,
        "name": "美瑛高等学校",
        "address": "上川郡美瑛町旭町1-9-2",
        "lat": 43.595508,
        "lng": 142.470295
    },
    {
        "code": "H201345900019",
        "type": 16015,
        "name": "笹森服装学院",
        "address": "上川郡美瑛町栄町1-8-23",
        "lat": 43.589914,
        "lng": 142.46066
    }
]