[
    {
        "code": "A201346100010",
        "type": 16013,
        "name": "洗心会なかふらのこども園",
        "address": "空知郡中富良野町本町10-55",
        "lat": 43.407426,
        "lng": 142.426842
    },
    {
        "code": "B101246100011",
        "type": 16001,
        "name": "中富良野小学校",
        "address": "空知郡中富良野町北町8-8",
        "lat": 43.408866,
        "lng": 142.427349
    },
    {
        "code": "B101246100020",
        "type": 16001,
        "name": "旭中小学校",
        "address": "空知郡中富良野町東9線北12",
        "lat": 43.37778,
        "lng": 142.468446
    },
    {
        "code": "B101246100039",
        "type": 16001,
        "name": "宇文小学校",
        "address": "空知郡中富良野町東4線北7",
        "lat": 43.374918,
        "lng": 142.422867
    },
    {
        "code": "B101246100048",
        "type": 16001,
        "name": "西中小学校",
        "address": "空知郡中富良野町東1線北18",
        "lat": 43.427969,
        "lng": 142.445195
    },
    {
        "code": "C101246100019",
        "type": 16002,
        "name": "中富良野中学校",
        "address": "空知郡中富良野町南町9-19",
        "lat": 43.403397,
        "lng": 142.422906
    }
]