[
    {
        "code": "A201246900014",
        "type": 16013,
        "name": "美深町幼児センター",
        "address": "中川郡美深町字西1条北5-4",
        "lat": 44.486443,
        "lng": 142.342203
    },
    {
        "code": "B101246900013",
        "type": 16001,
        "name": "美深小学校",
        "address": "中川郡美深町字敷島108",
        "lat": 44.48985,
        "lng": 142.345502
    },
    {
        "code": "B101246900022",
        "type": 16001,
        "name": "仁宇布小学校",
        "address": "中川郡美深町字仁宇布252",
        "lat": 44.550563,
        "lng": 142.574394
    },
    {
        "code": "C101246900011",
        "type": 16002,
        "name": "美深中学校",
        "address": "中川郡美深町西1条南7",
        "lat": 44.475713,
        "lng": 142.348141
    },
    {
        "code": "C101246900020",
        "type": 16002,
        "name": "仁宇布中学校",
        "address": "中川郡美深町字荷宇布252",
        "lat": 44.550689,
        "lng": 142.574443
    },
    {
        "code": "D101246900019",
        "type": 16004,
        "name": "美深高等学校",
        "address": "中川郡美深町字西町40",
        "lat": 44.487156,
        "lng": 142.342502
    },
    {
        "code": "E101246900016",
        "type": 16012,
        "name": "美深高等養護学校",
        "address": "中川郡美深町字西町25",
        "lat": 44.483462,
        "lng": 142.340919
    }
]