[
    {
        "code": "B101251600016",
        "type": 16001,
        "name": "豊富小学校",
        "address": "天塩郡豊富町大通1",
        "lat": 45.096462,
        "lng": 141.78143
    },
    {
        "code": "B101251600025",
        "type": 16001,
        "name": "兜沼小学校",
        "address": "天塩郡豊富町字兜沼",
        "lat": 45.227044,
        "lng": 141.696165
    },
    {
        "code": "C101251600014",
        "type": 16002,
        "name": "豊富中学校",
        "address": "天塩郡豊富町西豊富",
        "lat": 45.108134,
        "lng": 141.764368
    },
    {
        "code": "C101251600023",
        "type": 16002,
        "name": "兜沼中学校",
        "address": "天塩郡豊富町字兜沼",
        "lat": 45.226909,
        "lng": 141.696155
    },
    {
        "code": "D101251600012",
        "type": 16004,
        "name": "豊富高等学校",
        "address": "天塩郡豊富町字上ｻﾛﾍﾞﾂ475",
        "lat": 45.096808,
        "lng": 141.786437
    }
]