[
    {
        "code": "A115110000016",
        "type": 16011,
        "name": "新潟大学附属幼稚園",
        "address": "長岡市学校町1-1-1",
        "lat": 37.441015,
        "lng": 138.863035
    },
    {
        "code": "A115220200011",
        "type": 16011,
        "name": "与板幼稚園",
        "address": "長岡市与板町甲95",
        "lat": 37.540355,
        "lng": 138.808775
    },
    {
        "code": "A115320200019",
        "type": 16011,
        "name": "鵬幼稚園",
        "address": "長岡市豊2-13-24",
        "lat": 37.46191,
        "lng": 138.870104
    },
    {
        "code": "A115320200028",
        "type": 16011,
        "name": "宮内白ゆり幼稚園",
        "address": "長岡市下条町1440-1",
        "lat": 37.407405,
        "lng": 138.840516
    },
    {
        "code": "A215320200018",
        "type": 16013,
        "name": "長岡和光幼稚園・なごみ保育園",
        "address": "長岡市長町2-550-1",
        "lat": 37.458658,
        "lng": 138.856442
    },
    {
        "code": "A215320200027",
        "type": 16013,
        "name": "太陽幼稚園・おひさま保育園",
        "address": "長岡市福山町447-2",
        "lat": 37.445078,
        "lng": 138.809213
    },
    {
        "code": "A215320200036",
        "type": 16013,
        "name": "帝京長岡幼稚園",
        "address": "長岡市干場1-4-24",
        "lat": 37.452478,
        "lng": 138.862772
    },
    {
        "code": "A215320200045",
        "type": 16013,
        "name": "長岡みのり幼稚園",
        "address": "長岡市石内2-5-38",
        "lat": 37.462569,
        "lng": 138.851725
    },
    {
        "code": "A215320200054",
        "type": 16013,
        "name": "明幸幼稚園すまいる保育園",
        "address": "長岡市錦1-6-23",
        "lat": 37.430555,
        "lng": 138.856283
    },
    {
        "code": "A215320200063",
        "type": 16013,
        "name": "東光こども園",
        "address": "長岡市上条町223-1",
        "lat": 37.430334,
        "lng": 138.853154
    },
    {
        "code": "A215320200072",
        "type": 16013,
        "name": "長岡天使・聖母幼稚園",
        "address": "長岡市表町4-2-10",
        "lat": 37.451365,
        "lng": 138.849097
    },
    {
        "code": "A215320200081",
        "type": 16013,
        "name": "長峰幼稚園",
        "address": "長岡市西津町字前島2444-1",
        "lat": 37.434413,
        "lng": 138.81044
    },
    {
        "code": "A215320200090",
        "type": 16013,
        "name": "第一幼稚園",
        "address": "長岡市緑町1-38-363",
        "lat": 37.449034,
        "lng": 138.823831
    },
    {
        "code": "A215320200107",
        "type": 16013,
        "name": "中島幼稚園わくわく保育園",
        "address": "長岡市中島1-14-14",
        "lat": 37.453683,
        "lng": 138.838747
    },
    {
        "code": "A215320200116",
        "type": 16013,
        "name": "長生幼稚園まんまる",
        "address": "長岡市西千手2-1-1",
        "lat": 37.441779,
        "lng": 138.841156
    },
    {
        "code": "A215320200125",
        "type": 16013,
        "name": "恵和こども園",
        "address": "長岡市蓮潟町312",
        "lat": 37.470383,
        "lng": 138.823701
    },
    {
        "code": "A215320200134",
        "type": 16013,
        "name": "みどりこども園",
        "address": "長岡市下樫出653-1",
        "lat": 37.495448,
        "lng": 139.019592
    },
    {
        "code": "A215320200143",
        "type": 16013,
        "name": "恵和めぐみキッズランド（恵和こども園分園）",
        "address": "長岡市大荒戸町字腰巻250-1",
        "lat": 37.481984,
        "lng": 138.802564
    },
    {
        "code": "A215320200152",
        "type": 16013,
        "name": "ひごし中央こども園",
        "address": "長岡市高瀬町110",
        "lat": 37.456559,
        "lng": 138.799264
    },
    {
        "code": "A215320200161",
        "type": 16013,
        "name": "東部保育園",
        "address": "長岡市四郎丸3-5-11",
        "lat": 37.441745,
        "lng": 138.856225
    },
    {
        "code": "A215320200170",
        "type": 16013,
        "name": "蔵王のもりこども園",
        "address": "長岡市蔵王1-8-15",
        "lat": 37.466784,
        "lng": 138.851223
    },
    {
        "code": "A215320200189",
        "type": 16013,
        "name": "宮内中央こども園",
        "address": "長岡市宮内3-10-13",
        "lat": 37.422195,
        "lng": 138.842968
    },
    {
        "code": "A215320200198",
        "type": 16013,
        "name": "あすなろこどもえん",
        "address": "長岡市下柳2-7-7",
        "lat": 37.473714,
        "lng": 138.83573
    },
    {
        "code": "A215320200205",
        "type": 16013,
        "name": "いなばこども園",
        "address": "長岡市稲葉町793-1",
        "lat": 37.474281,
        "lng": 138.868699
    },
    {
        "code": "A215320200214",
        "type": 16013,
        "name": "みしま中央こども園",
        "address": "長岡市上岩井6826",
        "lat": 37.493024,
        "lng": 138.78206
    },
    {
        "code": "A215320200223",
        "type": 16013,
        "name": "与板こども園",
        "address": "長岡市与板町与板452",
        "lat": 37.540244,
        "lng": 138.812472
    },
    {
        "code": "A215320200232",
        "type": 16013,
        "name": "希望が丘幼稚園",
        "address": "長岡市福島町566",
        "lat": 37.483643,
        "lng": 138.878794
    },
    {
        "code": "A215320200241",
        "type": 16013,
        "name": "栃尾天使幼稚園",
        "address": "長岡市金沢2-1-36",
        "lat": 37.477597,
        "lng": 138.997821
    },
    {
        "code": "A215320200250",
        "type": 16013,
        "name": "東部川崎保育園",
        "address": "長岡市川崎3-2388",
        "lat": 37.451908,
        "lng": 138.869857
    },
    {
        "code": "A215320200269",
        "type": 16013,
        "name": "くろじょうこども園",
        "address": "長岡市黒津町377",
        "lat": 37.498541,
        "lng": 138.85886
    },
    {
        "code": "A215320200278",
        "type": 16013,
        "name": "大島こどもえん",
        "address": "長岡市大島本町2-10-28",
        "lat": 37.443092,
        "lng": 138.824017
    },
    {
        "code": "A215320200287",
        "type": 16013,
        "name": "前川こども園",
        "address": "長岡市前島町211",
        "lat": 37.40461,
        "lng": 138.82116
    },
    {
        "code": "A215320200296",
        "type": 16013,
        "name": "関原こども園",
        "address": "長岡市関原町3-甲486-1",
        "lat": 37.453473,
        "lng": 138.771146
    },
    {
        "code": "A215320200303",
        "type": 16013,
        "name": "東部マドカ保育園",
        "address": "長岡市土合5-2-4",
        "lat": 37.437611,
        "lng": 138.859384
    },
    {
        "code": "A215320200312",
        "type": 16013,
        "name": "岡南こども園",
        "address": "長岡市滝谷町1701-2",
        "lat": 37.366354,
        "lng": 138.837659
    },
    {
        "code": "A215320200321",
        "type": 16013,
        "name": "柏こども園",
        "address": "長岡市寿2-1-5",
        "lat": 37.476039,
        "lng": 138.855281
    },
    {
        "code": "A215320200330",
        "type": 16013,
        "name": "太陽ゆうゆう保育園",
        "address": "長岡市青葉台5-8-1",
        "lat": 37.438125,
        "lng": 138.753065
    },
    {
        "code": "A215320200349",
        "type": 16013,
        "name": "悠みどりこども園",
        "address": "長岡市花園南2-317",
        "lat": 37.429874,
        "lng": 138.865242
    },
    {
        "code": "A215320200358",
        "type": 16013,
        "name": "長生保育園",
        "address": "長岡市西千手3-116-3",
        "lat": 37.44354,
        "lng": 138.841559
    },
    {
        "code": "A215320200367",
        "type": 16013,
        "name": "中沢白ゆり幼稚園",
        "address": "長岡市中沢町2280-1",
        "lat": 37.439053,
        "lng": 138.875443
    },
    {
        "code": "B115110000023",
        "type": 16001,
        "name": "新潟大学附属長岡小学校",
        "address": "長岡市学校町1-1-1",
        "lat": 37.440187,
        "lng": 138.862956
    },
    {
        "code": "B115220200019",
        "type": 16001,
        "name": "阪之上小学校",
        "address": "長岡市今朝白1-11-21",
        "lat": 37.447259,
        "lng": 138.857512
    },
    {
        "code": "B115220200028",
        "type": 16001,
        "name": "中島小学校",
        "address": "長岡市中島3-9-33",
        "lat": 37.452702,
        "lng": 138.843708
    },
    {
        "code": "B115220200037",
        "type": 16001,
        "name": "表町小学校",
        "address": "長岡市中島5-7-7",
        "lat": 37.453869,
        "lng": 138.848707
    },
    {
        "code": "B115220200046",
        "type": 16001,
        "name": "神田小学校",
        "address": "長岡市西神田町2-3",
        "lat": 37.459431,
        "lng": 138.853577
    },
    {
        "code": "B115220200055",
        "type": 16001,
        "name": "新町小学校",
        "address": "長岡市西新町2-2-7",
        "lat": 37.46384,
        "lng": 138.855817
    },
    {
        "code": "B115220200064",
        "type": 16001,
        "name": "川崎小学校",
        "address": "長岡市干場1-1-24",
        "lat": 37.451953,
        "lng": 138.861761
    },
    {
        "code": "B115220200073",
        "type": 16001,
        "name": "四郎丸小学校",
        "address": "長岡市四郎丸1-2-25",
        "lat": 37.438899,
        "lng": 138.85729
    },
    {
        "code": "B115220200082",
        "type": 16001,
        "name": "千手小学校",
        "address": "長岡市千手2-8-1",
        "lat": 37.441704,
        "lng": 138.843514
    },
    {
        "code": "B115220200091",
        "type": 16001,
        "name": "富曽亀小学校",
        "address": "長岡市永田町555",
        "lat": 37.465812,
        "lng": 138.874453
    },
    {
        "code": "B115220200108",
        "type": 16001,
        "name": "黒条小学校",
        "address": "長岡市高見町400",
        "lat": 37.498392,
        "lng": 138.860204
    },
    {
        "code": "B115220200117",
        "type": 16001,
        "name": "桂小学校",
        "address": "長岡市桂町8",
        "lat": 37.481384,
        "lng": 138.919069
    },
    {
        "code": "B115220200126",
        "type": 16001,
        "name": "浦瀬小学校",
        "address": "長岡市浦瀬町301",
        "lat": 37.467813,
        "lng": 138.905061
    },
    {
        "code": "B115220200135",
        "type": 16001,
        "name": "柿小学校",
        "address": "長岡市柿町650-1",
        "lat": 37.424106,
        "lng": 138.868274
    },
    {
        "code": "B115220200144",
        "type": 16001,
        "name": "栖吉小学校",
        "address": "長岡市悠久町3-232",
        "lat": 37.437601,
        "lng": 138.881842
    },
    {
        "code": "B115220200153",
        "type": 16001,
        "name": "前川小学校",
        "address": "長岡市前島町75",
        "lat": 37.403791,
        "lng": 138.82299
    },
    {
        "code": "B115220200162",
        "type": 16001,
        "name": "宮内小学校",
        "address": "長岡市宮栄3-22-1",
        "lat": 37.424817,
        "lng": 138.839571
    },
    {
        "code": "B115220200171",
        "type": 16001,
        "name": "上組小学校",
        "address": "長岡市豊詰町227",
        "lat": 37.408959,
        "lng": 138.841569
    },
    {
        "code": "B115220200180",
        "type": 16001,
        "name": "石坂小学校",
        "address": "長岡市村松町2735",
        "lat": 37.391432,
        "lng": 138.855015
    },
    {
        "code": "B115220200199",
        "type": 16001,
        "name": "十日町小学校",
        "address": "長岡市十日町1220",
        "lat": 37.387515,
        "lng": 138.837239
    },
    {
        "code": "B115220200206",
        "type": 16001,
        "name": "大島小学校",
        "address": "長岡市大島新町5-甲1000",
        "lat": 37.446976,
        "lng": 138.820916
    },
    {
        "code": "B115220200215",
        "type": 16001,
        "name": "才津小学校",
        "address": "長岡市才津西町2200の子",
        "lat": 37.432026,
        "lng": 138.797378
    },
    {
        "code": "B115220200224",
        "type": 16001,
        "name": "深沢小学校",
        "address": "長岡市深沢町3081",
        "lat": 37.412317,
        "lng": 138.775494
    },
    {
        "code": "B115220200233",
        "type": 16001,
        "name": "日越小学校",
        "address": "長岡市宝地町197-1",
        "lat": 37.452896,
        "lng": 138.798075
    },
    {
        "code": "B115220200242",
        "type": 16001,
        "name": "関原小学校",
        "address": "長岡市関原町2-110",
        "lat": 37.455312,
        "lng": 138.773604
    },
    {
        "code": "B115220200251",
        "type": 16001,
        "name": "福戸小学校",
        "address": "長岡市福道町141",
        "lat": 37.478032,
        "lng": 138.806044
    },
    {
        "code": "B115220200260",
        "type": 16001,
        "name": "下川西小学校",
        "address": "長岡市花井町1019",
        "lat": 37.507362,
        "lng": 138.826818
    },
    {
        "code": "B115220200279",
        "type": 16001,
        "name": "上川西小学校",
        "address": "長岡市下柳2-8-46",
        "lat": 37.473644,
        "lng": 138.83443
    },
    {
        "code": "B115220200288",
        "type": 16001,
        "name": "宮本小学校",
        "address": "長岡市宮本町1-甲67-1",
        "lat": 37.450012,
        "lng": 138.745581
    },
    {
        "code": "B115220200297",
        "type": 16001,
        "name": "大積小学校",
        "address": "長岡市大積町1-甲1021",
        "lat": 37.430049,
        "lng": 138.728786
    },
    {
        "code": "B115220200304",
        "type": 16001,
        "name": "新組小学校",
        "address": "長岡市福井町125",
        "lat": 37.501364,
        "lng": 138.883839
    },
    {
        "code": "B115220200313",
        "type": 16001,
        "name": "太田小学校",
        "address": "長岡市濁沢町485",
        "lat": 37.360376,
        "lng": 138.88654
    },
    {
        "code": "B115220200322",
        "type": 16001,
        "name": "希望が丘小学校",
        "address": "長岡市西津町2204-2",
        "lat": 37.439149,
        "lng": 138.813046
    },
    {
        "code": "B115220200331",
        "type": 16001,
        "name": "豊田小学校",
        "address": "長岡市豊田町4-1",
        "lat": 37.427928,
        "lng": 138.857374
    },
    {
        "code": "B115220200340",
        "type": 16001,
        "name": "川崎東小学校",
        "address": "長岡市川崎町671-1",
        "lat": 37.459396,
        "lng": 138.86651
    },
    {
        "code": "B115220200359",
        "type": 16001,
        "name": "青葉台小学校",
        "address": "長岡市青葉台4-15",
        "lat": 37.440702,
        "lng": 138.753412
    },
    {
        "code": "B115220200368",
        "type": 16001,
        "name": "和島小学校",
        "address": "長岡市小島谷3545-1",
        "lat": 37.57644,
        "lng": 138.770274
    },
    {
        "code": "B115220200377",
        "type": 16001,
        "name": "岡南小学校",
        "address": "長岡市滝谷町143",
        "lat": 37.374295,
        "lng": 138.835656
    },
    {
        "code": "B115220200386",
        "type": 16001,
        "name": "下塩小学校",
        "address": "長岡市吉水1720",
        "lat": 37.503783,
        "lng": 139.019937
    },
    {
        "code": "B115220200395",
        "type": 16001,
        "name": "上塩小学校",
        "address": "長岡市上塩878-1",
        "lat": 37.501618,
        "lng": 139.057322
    },
    {
        "code": "B115220200402",
        "type": 16001,
        "name": "東谷小学校",
        "address": "長岡市栃堀53",
        "lat": 37.447401,
        "lng": 139.018578
    },
    {
        "code": "B115220200411",
        "type": 16001,
        "name": "栃尾東小学校",
        "address": "長岡市栃尾原町4-3-1",
        "lat": 37.483823,
        "lng": 138.998385
    },
    {
        "code": "B115220200420",
        "type": 16001,
        "name": "栃尾南小学校",
        "address": "長岡市上の原町1-18",
        "lat": 37.470891,
        "lng": 138.9957
    },
    {
        "code": "B115220200439",
        "type": 16001,
        "name": "上通小学校",
        "address": "長岡市灰島新田10-2",
        "lat": 37.520084,
        "lng": 138.872368
    },
    {
        "code": "B115220200448",
        "type": 16001,
        "name": "信条小学校",
        "address": "長岡市中条新田92",
        "lat": 37.601375,
        "lng": 138.851852
    },
    {
        "code": "B115220200457",
        "type": 16001,
        "name": "中之島中央小学校",
        "address": "長岡市鶴ヶ曽根1162",
        "lat": 37.548942,
        "lng": 138.869257
    },
    {
        "code": "B115220200466",
        "type": 16001,
        "name": "越路小学校",
        "address": "長岡市浦270",
        "lat": 37.399707,
        "lng": 138.797243
    },
    {
        "code": "B115220200475",
        "type": 16001,
        "name": "越路西小学校",
        "address": "長岡市不動沢210-2",
        "lat": 37.364259,
        "lng": 138.742411
    },
    {
        "code": "B115220200484",
        "type": 16001,
        "name": "日吉小学校",
        "address": "長岡市鳥越甲420",
        "lat": 37.471921,
        "lng": 138.76566
    },
    {
        "code": "B115220200493",
        "type": 16001,
        "name": "脇野町小学校",
        "address": "長岡市脇野町1242",
        "lat": 37.501362,
        "lng": 138.787128
    },
    {
        "code": "B115220200509",
        "type": 16001,
        "name": "与板小学校",
        "address": "長岡市与板町東与板52",
        "lat": 37.543708,
        "lng": 138.814955
    },
    {
        "code": "B115220200518",
        "type": 16001,
        "name": "寺泊小学校",
        "address": "長岡市寺泊一里塚3890",
        "lat": 37.644427,
        "lng": 138.772793
    },
    {
        "code": "B115220200527",
        "type": 16001,
        "name": "大河津小学校",
        "address": "長岡市寺泊求草1035",
        "lat": 37.611452,
        "lng": 138.812072
    },
    {
        "code": "B115220200536",
        "type": 16001,
        "name": "山古志小学校",
        "address": "長岡市古志竹沢乙284",
        "lat": 37.331197,
        "lng": 138.889198
    },
    {
        "code": "B115220200545",
        "type": 16001,
        "name": "川口小学校",
        "address": "長岡市西川口1149",
        "lat": 37.264364,
        "lng": 138.862297
    },
    {
        "code": "B115220200554",
        "type": 16001,
        "name": "小国小学校",
        "address": "長岡市小国町二本柳80",
        "lat": 37.299076,
        "lng": 138.702427
    },
    {
        "code": "C115110000021",
        "type": 16002,
        "name": "新潟大学附属長岡中学校",
        "address": "長岡市学校町1-1-1",
        "lat": 37.440149,
        "lng": 138.862956
    },
    {
        "code": "C115220200017",
        "type": 16002,
        "name": "東中学校",
        "address": "長岡市水道町5-1-1",
        "lat": 37.459702,
        "lng": 138.846291
    },
    {
        "code": "C115220200026",
        "type": 16002,
        "name": "南中学校",
        "address": "長岡市南町2-1-1",
        "lat": 37.440371,
        "lng": 138.84768
    },
    {
        "code": "C115220200035",
        "type": 16002,
        "name": "北中学校",
        "address": "長岡市東蔵王2-8-37",
        "lat": 37.473923,
        "lng": 138.856595
    },
    {
        "code": "C115220200044",
        "type": 16002,
        "name": "旭岡中学校",
        "address": "長岡市高畑町883-2",
        "lat": 37.427134,
        "lng": 138.857832
    },
    {
        "code": "C115220200053",
        "type": 16002,
        "name": "栖吉中学校",
        "address": "長岡市悠久町2-1720",
        "lat": 37.435893,
        "lng": 138.882702
    },
    {
        "code": "C115220200062",
        "type": 16002,
        "name": "宮内中学校",
        "address": "長岡市宮栄2-3-50",
        "lat": 37.422928,
        "lng": 138.838099
    },
    {
        "code": "C115220200071",
        "type": 16002,
        "name": "東北中学校",
        "address": "長岡市川崎5-485-1",
        "lat": 37.456424,
        "lng": 138.868649
    },
    {
        "code": "C115220200080",
        "type": 16002,
        "name": "堤岡中学校",
        "address": "長岡市高見町字東堤90",
        "lat": 37.49742,
        "lng": 138.864787
    },
    {
        "code": "C115220200099",
        "type": 16002,
        "name": "山本中学校",
        "address": "長岡市浦瀬町11230",
        "lat": 37.470063,
        "lng": 138.912394
    },
    {
        "code": "C115220200106",
        "type": 16002,
        "name": "岡南中学校",
        "address": "長岡市十日町7",
        "lat": 37.376017,
        "lng": 138.837934
    },
    {
        "code": "C115220200115",
        "type": 16002,
        "name": "太田中学校",
        "address": "長岡市濁沢町485",
        "lat": 37.360353,
        "lng": 138.88654
    },
    {
        "code": "C115220200124",
        "type": 16002,
        "name": "関原中学校",
        "address": "長岡市関原南3-4920",
        "lat": 37.449225,
        "lng": 138.772127
    },
    {
        "code": "C115220200133",
        "type": 16002,
        "name": "西中学校",
        "address": "長岡市希望が丘1-107",
        "lat": 37.443148,
        "lng": 138.812407
    },
    {
        "code": "C115220200142",
        "type": 16002,
        "name": "江陽中学校",
        "address": "長岡市巻島町180",
        "lat": 37.481227,
        "lng": 138.832847
    },
    {
        "code": "C115220200151",
        "type": 16002,
        "name": "青葉台中学校",
        "address": "長岡市青葉台1甲222-1",
        "lat": 37.448349,
        "lng": 138.751305
    },
    {
        "code": "C115220200160",
        "type": 16002,
        "name": "大島中学校",
        "address": "長岡市三ｯ郷屋町字下川原342",
        "lat": 37.451143,
        "lng": 138.817388
    },
    {
        "code": "C115220200179",
        "type": 16002,
        "name": "秋葉中学校",
        "address": "長岡市上の原町6-3",
        "lat": 37.468231,
        "lng": 138.997107
    },
    {
        "code": "C115220200188",
        "type": 16002,
        "name": "刈谷田中学校",
        "address": "長岡市吉水353",
        "lat": 37.483119,
        "lng": 139.008883
    },
    {
        "code": "C115220200197",
        "type": 16002,
        "name": "中之島中学校",
        "address": "長岡市中野東2649-1",
        "lat": 37.554441,
        "lng": 138.863229
    },
    {
        "code": "C115220200204",
        "type": 16002,
        "name": "越路中学校",
        "address": "長岡市来迎寺甲841-10",
        "lat": 37.395114,
        "lng": 138.77556
    },
    {
        "code": "C115220200213",
        "type": 16002,
        "name": "三島中学校",
        "address": "長岡市吉崎617",
        "lat": 37.49789,
        "lng": 138.781185
    },
    {
        "code": "C115220200222",
        "type": 16002,
        "name": "与板中学校",
        "address": "長岡市大字東与板200",
        "lat": 37.541061,
        "lng": 138.817884
    },
    {
        "code": "C115220200231",
        "type": 16002,
        "name": "北辰中学校",
        "address": "長岡市島崎5687",
        "lat": 37.580601,
        "lng": 138.760962
    },
    {
        "code": "C115220200240",
        "type": 16002,
        "name": "寺泊中学校",
        "address": "長岡市寺泊吉1681",
        "lat": 37.6292,
        "lng": 138.787221
    },
    {
        "code": "C115220200259",
        "type": 16002,
        "name": "山古志中学校",
        "address": "長岡市古志竹沢乙284",
        "lat": 37.33136,
        "lng": 138.889611
    },
    {
        "code": "C115220200268",
        "type": 16002,
        "name": "川口中学校",
        "address": "長岡市西川口951",
        "lat": 37.262309,
        "lng": 138.863102
    },
    {
        "code": "C115220200277",
        "type": 16002,
        "name": "小国中学校",
        "address": "長岡市小国町新町673",
        "lat": 37.289094,
        "lng": 138.71019
    },
    {
        "code": "C115320200015",
        "type": 16002,
        "name": "帝京長岡中学校",
        "address": "長岡市住吉3-9-1",
        "lat": 37.436839,
        "lng": 138.85507
    },
    {
        "code": "D115220200015",
        "type": 16004,
        "name": "長岡高等学校",
        "address": "長岡市学校町3-14-1",
        "lat": 37.444565,
        "lng": 138.859512
    },
    {
        "code": "D115220200024",
        "type": 16004,
        "name": "長岡大手高等学校",
        "address": "長岡市沖田2-357",
        "lat": 37.446648,
        "lng": 138.864094
    },
    {
        "code": "D115220200033",
        "type": 16004,
        "name": "長岡農業高等学校",
        "address": "長岡市曲新町3-13-1",
        "lat": 37.420734,
        "lng": 138.843071
    },
    {
        "code": "D115220200042",
        "type": 16004,
        "name": "長岡工業高等学校",
        "address": "長岡市幸町2-7-70",
        "lat": 37.438315,
        "lng": 138.839154
    },
    {
        "code": "D115220200051",
        "type": 16004,
        "name": "長岡商業高等学校",
        "address": "長岡市西片貝町字大木1726",
        "lat": 37.453508,
        "lng": 138.887036
    },
    {
        "code": "D115220200060",
        "type": 16004,
        "name": "長岡明徳高等学校",
        "address": "長岡市水道町3-5-1",
        "lat": 37.455952,
        "lng": 138.846652
    },
    {
        "code": "D115220200079",
        "type": 16004,
        "name": "長岡向陵高等学校",
        "address": "長岡市喜多町字川原1030-1",
        "lat": 37.448786,
        "lng": 138.805852
    },
    {
        "code": "D115220200088",
        "type": 16004,
        "name": "栃尾高等学校",
        "address": "長岡市金沢1-2-1",
        "lat": 37.480813,
        "lng": 138.996412
    },
    {
        "code": "D115220200097",
        "type": 16004,
        "name": "正徳館高等学校",
        "address": "長岡市与板町東与板173",
        "lat": 37.542719,
        "lng": 138.816235
    },
    {
        "code": "D115320200013",
        "type": 16004,
        "name": "帝京長岡高等学校",
        "address": "長岡市住吉3-9-1",
        "lat": 37.436816,
        "lng": 138.855068
    },
    {
        "code": "D115320200022",
        "type": 16004,
        "name": "中越高等学校",
        "address": "長岡市新保町1371-1",
        "lat": 37.467868,
        "lng": 138.871315
    },
    {
        "code": "D115320200031",
        "type": 16004,
        "name": "長岡英智高等学校",
        "address": "長岡市宮栄3-16-14",
        "lat": 37.424406,
        "lng": 138.840574
    },
    {
        "code": "E115220200012",
        "type": 16012,
        "name": "長岡聾学校",
        "address": "長岡市水道町2-1-13",
        "lat": 37.454952,
        "lng": 138.843597
    },
    {
        "code": "E115220200021",
        "type": 16012,
        "name": "柏崎特別支援学校のぎく分校",
        "address": "長岡市寿2-4-1",
        "lat": 37.477811,
        "lng": 138.853234
    },
    {
        "code": "E115220200030",
        "type": 16012,
        "name": "長岡市立総合支援学校",
        "address": "長岡市大字日越1402",
        "lat": 37.443106,
        "lng": 138.780948
    },
    {
        "code": "E115220200049",
        "type": 16012,
        "name": "高等総合支援学校",
        "address": "長岡市大字日越1402",
        "lat": 37.442814,
        "lng": 138.78091
    },
    {
        "code": "F115110105055",
        "type": 16007,
        "name": "長岡技術科学大学",
        "address": "長岡市上富岡町1603-1",
        "lat": 37.42341,
        "lng": 138.777464
    },
    {
        "code": "F115210105099",
        "type": 16007,
        "name": "長岡造形大学",
        "address": "長岡市千秋4-197",
        "lat": 37.466654,
        "lng": 138.831243
    },
    {
        "code": "F115310105104",
        "type": 16007,
        "name": "長岡大学",
        "address": "長岡市御山町80-8",
        "lat": 37.430702,
        "lng": 138.878478
    },
    {
        "code": "F115310105248",
        "type": 16007,
        "name": "長岡崇徳大学",
        "address": "長岡市深沢町2278-8",
        "lat": 37.425071,
        "lng": 138.772718
    },
    {
        "code": "G115110105302",
        "type": 16005,
        "name": "長岡工業高等専門学校",
        "address": "長岡市西片貝町888",
        "lat": 37.432511,
        "lng": 138.888898
    },
    {
        "code": "H115320200014",
        "type": 16016,
        "name": "長岡赤十字看護専門学校",
        "address": "長岡市千秋2-297-1",
        "lat": 37.458892,
        "lng": 138.828754
    },
    {
        "code": "H115320200023",
        "type": 16016,
        "name": "中央看護専門学校",
        "address": "長岡市川崎町2041",
        "lat": 37.451532,
        "lng": 138.879367
    },
    {
        "code": "H115320200032",
        "type": 16016,
        "name": "北陸食育フードカレッジ",
        "address": "長岡市福住1-5-25",
        "lat": 37.450353,
        "lng": 138.856179
    },
    {
        "code": "H115320200041",
        "type": 16016,
        "name": "悠久山栄養調理専門学校",
        "address": "長岡市中沢4-403-1",
        "lat": 37.44151,
        "lng": 138.871636
    },
    {
        "code": "H115320200050",
        "type": 16016,
        "name": "長岡公務員・情報ビジネス専門学校",
        "address": "長岡市弓町1-8-37",
        "lat": 37.441712,
        "lng": 138.85288
    },
    {
        "code": "H115320200069",
        "type": 16016,
        "name": "北陸福祉保育専門学院",
        "address": "長岡市福住1-5-25",
        "lat": 37.45045,
        "lng": 138.856204
    },
    {
        "code": "H115320200078",
        "type": 16016,
        "name": "日本ビジネス公務員専門学校",
        "address": "長岡市殿町1-1-1",
        "lat": 37.444087,
        "lng": 138.851624
    },
    {
        "code": "H115320200087",
        "type": 16016,
        "name": "長岡崇徳福祉専門学校",
        "address": "長岡市上富岡町字松山1961-21",
        "lat": 37.42504,
        "lng": 138.773889
    },
    {
        "code": "H115320200096",
        "type": 16016,
        "name": "晴陵リハビリテーション学院",
        "address": "長岡市大字日越319",
        "lat": 37.435112,
        "lng": 138.779844
    },
    {
        "code": "H115320200103",
        "type": 16016,
        "name": "長岡美容専門学校",
        "address": "長岡市台町2-1-23",
        "lat": 37.44555,
        "lng": 138.855797
    },
    {
        "code": "H115320200112",
        "type": 16016,
        "name": "長岡こども福祉カレッジ",
        "address": "長岡市殿町1-1-32",
        "lat": 37.444147,
        "lng": 138.851858
    },
    {
        "code": "H115320200121",
        "type": 16016,
        "name": "クレアヘアモード専門学校",
        "address": "長岡市殿町1-5-9",
        "lat": 37.44452,
        "lng": 138.851266
    },
    {
        "code": "H115320200130",
        "type": 16016,
        "name": "長岡介護福祉専門学校あゆみ",
        "address": "長岡市福住1-7-21",
        "lat": 37.450247,
        "lng": 138.857321
    },
    {
        "code": "H115320200149",
        "type": 16016,
        "name": "長岡こども・医療・介護専門学校",
        "address": "長岡市弓町1-8-34",
        "lat": 37.441863,
        "lng": 138.853019
    },
    {
        "code": "H115320200158",
        "type": 16016,
        "name": "晴麗看護学校",
        "address": "長岡市学校町3-1-22",
        "lat": 37.443648,
        "lng": 138.862478
    },
    {
        "code": "H215320200013",
        "type": 16015,
        "name": "エイシン長岡日本語学校",
        "address": "長岡市今朝白1-10-5",
        "lat": 37.446144,
        "lng": 138.856773
    }
]