[
    {
        "code": "A115321100018",
        "type": 16011,
        "name": "聖母学園認定こども園見附天使幼稚園",
        "address": "見附市学校町2-14-4",
        "lat": 37.533454,
        "lng": 138.923224
    },
    {
        "code": "A115321100027",
        "type": 16011,
        "name": "つぐみ幼稚園",
        "address": "見附市今町5-38-18",
        "lat": 37.551262,
        "lng": 138.892224
    },
    {
        "code": "A215321100017",
        "type": 16013,
        "name": "ホップこども園",
        "address": "見附市今町2-15-21",
        "lat": 37.551489,
        "lng": 138.880861
    },
    {
        "code": "A215321100026",
        "type": 16013,
        "name": "見附みどりこども園",
        "address": "見附市学校町2-5-1",
        "lat": 37.532979,
        "lng": 138.917783
    },
    {
        "code": "A215321100035",
        "type": 16013,
        "name": "わかくさ中央保育園",
        "address": "見附市南本町1-3-36",
        "lat": 37.522658,
        "lng": 138.925768
    },
    {
        "code": "B115221100018",
        "type": 16001,
        "name": "見附小学校",
        "address": "見附市学校町1-3-89",
        "lat": 37.53189,
        "lng": 138.922196
    },
    {
        "code": "B115221100027",
        "type": 16001,
        "name": "見附第二小学校",
        "address": "見附市杉沢町3561",
        "lat": 37.522968,
        "lng": 138.978219
    },
    {
        "code": "B115221100036",
        "type": 16001,
        "name": "名木野小学校",
        "address": "見附市月見台1-10-75",
        "lat": 37.516781,
        "lng": 138.927418
    },
    {
        "code": "B115221100045",
        "type": 16001,
        "name": "田井小学校",
        "address": "見附市田井町306",
        "lat": 37.495866,
        "lng": 138.925725
    },
    {
        "code": "B115221100054",
        "type": 16001,
        "name": "葛巻小学校",
        "address": "見附市反田町10",
        "lat": 37.524251,
        "lng": 138.897449
    },
    {
        "code": "B115221100063",
        "type": 16001,
        "name": "新潟小学校",
        "address": "見附市新潟町2478",
        "lat": 37.550693,
        "lng": 138.92064
    },
    {
        "code": "B115221100072",
        "type": 16001,
        "name": "上北谷小学校",
        "address": "見附市牛ｹ嶺町1292",
        "lat": 37.509505,
        "lng": 138.973275
    },
    {
        "code": "B115221100081",
        "type": 16001,
        "name": "今町小学校",
        "address": "見附市今町6-19-1",
        "lat": 37.555414,
        "lng": 138.886394
    },
    {
        "code": "C115221100016",
        "type": 16002,
        "name": "見附中学校",
        "address": "見附市島切窪町644-2",
        "lat": 37.532974,
        "lng": 138.932278
    },
    {
        "code": "C115221100025",
        "type": 16002,
        "name": "今町中学校",
        "address": "見附市今町4-1-7",
        "lat": 37.547415,
        "lng": 138.888671
    },
    {
        "code": "C115221100034",
        "type": 16002,
        "name": "南中学校",
        "address": "見附市名木野町714",
        "lat": 37.512087,
        "lng": 138.924835
    },
    {
        "code": "C115221100043",
        "type": 16002,
        "name": "西中学校",
        "address": "見附市野坪127",
        "lat": 37.528723,
        "lng": 138.906253
    },
    {
        "code": "D115221100014",
        "type": 16004,
        "name": "見附高等学校",
        "address": "見附市本所1-20-6",
        "lat": 37.540278,
        "lng": 138.909308
    },
    {
        "code": "D115321100012",
        "type": 16004,
        "name": "創進学園高等学校",
        "address": "見附市本所2-2-21",
        "lat": 37.537983,
        "lng": 138.904838
    },
    {
        "code": "E115221100011",
        "type": 16012,
        "name": "見附特別支援学校",
        "address": "見附市月見台1-10-74",
        "lat": 37.517187,
        "lng": 138.928052
    }
]