[
    {
        "code": "A115221600015",
        "type": 16011,
        "name": "青海幼稚園",
        "address": "糸魚川市青海675",
        "lat": 37.021227,
        "lng": 137.796742
    },
    {
        "code": "A115221600024",
        "type": 16011,
        "name": "田沢幼稚園",
        "address": "糸魚川市大字田海13-2",
        "lat": 37.032628,
        "lng": 137.821094
    },
    {
        "code": "A115321600013",
        "type": 16011,
        "name": "糸魚川カトリック天使幼稚園",
        "address": "糸魚川市中央2-1-40",
        "lat": 37.040202,
        "lng": 137.859863
    },
    {
        "code": "A215321600012",
        "type": 16013,
        "name": "糸魚川幼稚園",
        "address": "糸魚川市寺町1-7-12",
        "lat": 37.045382,
        "lng": 137.862382
    },
    {
        "code": "B115221600013",
        "type": 16001,
        "name": "下早川小学校",
        "address": "糸魚川市日光寺322",
        "lat": 37.031703,
        "lng": 137.935339
    },
    {
        "code": "B115221600022",
        "type": 16001,
        "name": "大和川小学校",
        "address": "糸魚川市田伏87",
        "lat": 37.055365,
        "lng": 137.898258
    },
    {
        "code": "B115221600031",
        "type": 16001,
        "name": "糸魚川小学校",
        "address": "糸魚川市中央1-2-1",
        "lat": 37.041199,
        "lng": 137.859291
    },
    {
        "code": "B115221600040",
        "type": 16001,
        "name": "大野小学校",
        "address": "糸魚川市大野2044-1",
        "lat": 37.000899,
        "lng": 137.87443
    },
    {
        "code": "B115221600059",
        "type": 16001,
        "name": "根知小学校",
        "address": "糸魚川市東中5121-1",
        "lat": 36.9653,
        "lng": 137.886449
    },
    {
        "code": "B115221600068",
        "type": 16001,
        "name": "糸魚川東小学校",
        "address": "糸魚川市東寺町2-4-1",
        "lat": 37.044505,
        "lng": 137.873595
    },
    {
        "code": "B115221600077",
        "type": 16001,
        "name": "西海小学校",
        "address": "糸魚川市羽生1937",
        "lat": 37.029727,
        "lng": 137.888013
    },
    {
        "code": "B115221600086",
        "type": 16001,
        "name": "能生小学校",
        "address": "糸魚川市大字能生4485",
        "lat": 37.101696,
        "lng": 137.990693
    },
    {
        "code": "B115221600095",
        "type": 16001,
        "name": "中能生小学校",
        "address": "糸魚川市大字平404",
        "lat": 37.084004,
        "lng": 138.024551
    },
    {
        "code": "B115221600102",
        "type": 16001,
        "name": "南能生小学校",
        "address": "糸魚川市溝尾2991-4",
        "lat": 37.06498,
        "lng": 138.049855
    },
    {
        "code": "B115221600111",
        "type": 16001,
        "name": "木浦小学校",
        "address": "糸魚川市木浦6073",
        "lat": 37.083448,
        "lng": 137.971612
    },
    {
        "code": "B115221600120",
        "type": 16001,
        "name": "磯部小学校",
        "address": "糸魚川市大字筒石500",
        "lat": 37.131805,
        "lng": 138.055184
    },
    {
        "code": "B115221600139",
        "type": 16001,
        "name": "田沢小学校",
        "address": "糸魚川市田海13-2",
        "lat": 37.032673,
        "lng": 137.821934
    },
    {
        "code": "B115221600148",
        "type": 16001,
        "name": "青海小学校",
        "address": "糸魚川市青海382",
        "lat": 37.020257,
        "lng": 137.800019
    },
    {
        "code": "C115221600011",
        "type": 16002,
        "name": "糸魚川東中学校",
        "address": "糸魚川市梶屋敷433",
        "lat": 37.052171,
        "lng": 137.914951
    },
    {
        "code": "C115221600020",
        "type": 16002,
        "name": "糸魚川中学校",
        "address": "糸魚川市上刈4-1-1",
        "lat": 37.03445,
        "lng": 137.85968
    },
    {
        "code": "C115221600039",
        "type": 16002,
        "name": "能生中学校",
        "address": "糸魚川市大字能生2643",
        "lat": 37.095002,
        "lng": 137.991582
    },
    {
        "code": "C115221600048",
        "type": 16002,
        "name": "青海中学校",
        "address": "糸魚川市寺地1160",
        "lat": 37.021507,
        "lng": 137.809991
    },
    {
        "code": "D115221600019",
        "type": 16004,
        "name": "糸魚川高等学校",
        "address": "糸魚川市大字平牛248-2",
        "lat": 37.041533,
        "lng": 137.885205
    },
    {
        "code": "D115221600028",
        "type": 16004,
        "name": "糸魚川白嶺高等学校",
        "address": "糸魚川市清崎9-1",
        "lat": 37.037339,
        "lng": 137.859208
    },
    {
        "code": "D115221600037",
        "type": 16004,
        "name": "海洋高等学校",
        "address": "糸魚川市能生3040",
        "lat": 37.098196,
        "lng": 137.992359
    },
    {
        "code": "E115221600016",
        "type": 16012,
        "name": "高田特別支援学校白嶺分校",
        "address": "糸魚川市清崎5-25",
        "lat": 37.037548,
        "lng": 137.85976
    },
    {
        "code": "E115221600025",
        "type": 16012,
        "name": "ひすいの里総合学校",
        "address": "糸魚川市中央1-2-1",
        "lat": 37.04129,
        "lng": 137.859652
    }
]