[
    {
        "code": "A115221300018",
        "type": 16011,
        "name": "燕東幼稚園",
        "address": "燕市燕新町1-20",
        "lat": 37.663585,
        "lng": 138.9319
    },
    {
        "code": "A215221300017",
        "type": 16013,
        "name": "燕南こども園",
        "address": "燕市南3-1-20",
        "lat": 37.66128,
        "lng": 138.927003
    },
    {
        "code": "A215221300026",
        "type": 16013,
        "name": "燕こども園",
        "address": "燕市白山町1-9-15",
        "lat": 37.665643,
        "lng": 138.921142
    },
    {
        "code": "A215321300015",
        "type": 16013,
        "name": "真学園",
        "address": "燕市灰方726",
        "lat": 37.683699,
        "lng": 138.936182
    },
    {
        "code": "A215321300024",
        "type": 16013,
        "name": "きららおひさまこども園",
        "address": "燕市吉田東栄町34-10",
        "lat": 37.679753,
        "lng": 138.873841
    },
    {
        "code": "A215321300033",
        "type": 16013,
        "name": "きららにこにここども園",
        "address": "燕市吉田西太田704",
        "lat": 37.671149,
        "lng": 138.872831
    },
    {
        "code": "A215321300042",
        "type": 16013,
        "name": "ぎんなん保育園",
        "address": "燕市井土巻228",
        "lat": 37.655464,
        "lng": 138.93071
    },
    {
        "code": "B115221300016",
        "type": 16001,
        "name": "燕東小学校",
        "address": "燕市新町1-26",
        "lat": 37.664316,
        "lng": 138.932502
    },
    {
        "code": "B115221300025",
        "type": 16001,
        "name": "燕西小学校",
        "address": "燕市大字東太田7936",
        "lat": 37.665818,
        "lng": 138.917109
    },
    {
        "code": "B115221300034",
        "type": 16001,
        "name": "燕南小学校",
        "address": "燕市殿島1-4-21",
        "lat": 37.657486,
        "lng": 138.924664
    },
    {
        "code": "B115221300043",
        "type": 16001,
        "name": "小池小学校",
        "address": "燕市柳山2131",
        "lat": 37.637599,
        "lng": 138.905973
    },
    {
        "code": "B115221300052",
        "type": 16001,
        "name": "大関小学校",
        "address": "燕市大曲605",
        "lat": 37.654319,
        "lng": 138.915249
    },
    {
        "code": "B115221300061",
        "type": 16001,
        "name": "松長小学校",
        "address": "燕市舘野1204",
        "lat": 37.701647,
        "lng": 138.933856
    },
    {
        "code": "B115221300070",
        "type": 16001,
        "name": "燕北小学校",
        "address": "燕市東太田1680",
        "lat": 37.676317,
        "lng": 138.930191
    },
    {
        "code": "B115221300089",
        "type": 16001,
        "name": "小中川小学校",
        "address": "燕市花園町32-1",
        "lat": 37.685615,
        "lng": 138.952761
    },
    {
        "code": "B115221300098",
        "type": 16001,
        "name": "島上小学校",
        "address": "燕市横田301",
        "lat": 37.627127,
        "lng": 138.879031
    },
    {
        "code": "B115221300105",
        "type": 16001,
        "name": "分水小学校",
        "address": "燕市分水学校町1-7-1",
        "lat": 37.628016,
        "lng": 138.84782
    },
    {
        "code": "B115221300114",
        "type": 16001,
        "name": "分水北小学校",
        "address": "燕市中島1229-1",
        "lat": 37.648317,
        "lng": 138.838479
    },
    {
        "code": "B115221300123",
        "type": 16001,
        "name": "粟生津小学校",
        "address": "燕市粟生津657",
        "lat": 37.651485,
        "lng": 138.871337
    },
    {
        "code": "B115221300132",
        "type": 16001,
        "name": "吉田小学校",
        "address": "燕市吉田弥生町1-1",
        "lat": 37.693648,
        "lng": 138.873977
    },
    {
        "code": "B115221300141",
        "type": 16001,
        "name": "吉田南小学校",
        "address": "燕市吉田6126",
        "lat": 37.678051,
        "lng": 138.872464
    },
    {
        "code": "B115221300150",
        "type": 16001,
        "name": "吉田北小学校",
        "address": "燕市米納津4297-1",
        "lat": 37.702719,
        "lng": 138.89912
    },
    {
        "code": "C115221300014",
        "type": 16002,
        "name": "燕中学校",
        "address": "燕市秋葉町4-8-71",
        "lat": 37.663457,
        "lng": 138.913276
    },
    {
        "code": "C115221300023",
        "type": 16002,
        "name": "小池中学校",
        "address": "燕市道金1095-1",
        "lat": 37.642376,
        "lng": 138.914833
    },
    {
        "code": "C115221300032",
        "type": 16002,
        "name": "燕北中学校",
        "address": "燕市三王渕1940",
        "lat": 37.687482,
        "lng": 138.945244
    },
    {
        "code": "C115221300041",
        "type": 16002,
        "name": "分水中学校",
        "address": "燕市分水向陽1-1",
        "lat": 37.6357,
        "lng": 138.840246
    },
    {
        "code": "C115221300050",
        "type": 16002,
        "name": "吉田中学校",
        "address": "燕市吉田文京町1-1",
        "lat": 37.701893,
        "lng": 138.879738
    },
    {
        "code": "D115221300012",
        "type": 16004,
        "name": "分水高等学校",
        "address": "燕市笈ヶ島104-4",
        "lat": 37.618657,
        "lng": 138.847908
    },
    {
        "code": "D115221300021",
        "type": 16004,
        "name": "吉田高等学校",
        "address": "燕市吉田東町16-1",
        "lat": 37.695063,
        "lng": 138.88039
    },
    {
        "code": "D215221300011",
        "type": 16003,
        "name": "燕中等教育学校",
        "address": "燕市灰方815",
        "lat": 37.684015,
        "lng": 138.930075
    },
    {
        "code": "E115221300019",
        "type": 16012,
        "name": "吉田特別支援学校",
        "address": "燕市吉田大保町32-24",
        "lat": 37.687953,
        "lng": 138.885528
    },
    {
        "code": "H115221300013",
        "type": 16016,
        "name": "吉田病院附属看護専門学校",
        "address": "燕市吉田大保町32-60",
        "lat": 37.686539,
        "lng": 138.884912
    }
]