[
    {
        "code": "A115110000025",
        "type": 16011,
        "name": "上越教育大学附属幼稚園",
        "address": "上越市山屋敷町1",
        "lat": 37.133185,
        "lng": 138.222427
    },
    {
        "code": "A115222200017",
        "type": 16011,
        "name": "高田幼稚園",
        "address": "上越市大手町5-37",
        "lat": 37.107714,
        "lng": 138.248236
    },
    {
        "code": "A115322200015",
        "type": 16011,
        "name": "紅葉幼稚園",
        "address": "上越市西城町3-9-17",
        "lat": 37.113227,
        "lng": 138.247255
    },
    {
        "code": "A115322200024",
        "type": 16011,
        "name": "上越カトリック天使幼稚園",
        "address": "上越市西城町2-4-4",
        "lat": 37.111377,
        "lng": 138.249011
    },
    {
        "code": "A115322200033",
        "type": 16011,
        "name": "いずみ幼稚園",
        "address": "上越市南本町3-9-13",
        "lat": 37.100409,
        "lng": 138.244459
    },
    {
        "code": "A115322200042",
        "type": 16011,
        "name": "明照幼稚園",
        "address": "上越市寺町3-8-20",
        "lat": 37.118437,
        "lng": 138.238159
    },
    {
        "code": "A115322200051",
        "type": 16011,
        "name": "真行寺幼稚園",
        "address": "上越市中央5-1-1",
        "lat": 37.174854,
        "lng": 138.242747
    },
    {
        "code": "A215322200014",
        "type": 16013,
        "name": "たちばな認定こども園",
        "address": "上越市中央1-14-31",
        "lat": 37.175614,
        "lng": 138.244342
    },
    {
        "code": "A215322200023",
        "type": 16013,
        "name": "マハヤナ幼稚園ミルフィーユ保育園",
        "address": "上越市下門前1817",
        "lat": 37.156744,
        "lng": 138.249406
    },
    {
        "code": "A215322200032",
        "type": 16013,
        "name": "聖上智オリーブこども園",
        "address": "上越市春日新田2-9-7",
        "lat": 37.171731,
        "lng": 138.259255
    },
    {
        "code": "A215322200041",
        "type": 16013,
        "name": "たちばな春日",
        "address": "上越市春日山町3-1-39",
        "lat": 37.147229,
        "lng": 138.232691
    },
    {
        "code": "B115110000032",
        "type": 16001,
        "name": "上越教育大学附属小学校",
        "address": "上越市西城町1-7-1",
        "lat": 37.113536,
        "lng": 138.253499
    },
    {
        "code": "B115222200015",
        "type": 16001,
        "name": "大手町小学校",
        "address": "上越市大手町2-20",
        "lat": 37.109369,
        "lng": 138.248166
    },
    {
        "code": "B115222200024",
        "type": 16001,
        "name": "東本町小学校",
        "address": "上越市東本町2-2-7",
        "lat": 37.11784,
        "lng": 138.249166
    },
    {
        "code": "B115222200033",
        "type": 16001,
        "name": "南本町小学校",
        "address": "上越市南本町3-9-1",
        "lat": 37.10062,
        "lng": 138.242528
    },
    {
        "code": "B115222200042",
        "type": 16001,
        "name": "黒田小学校",
        "address": "上越市黒田463-1",
        "lat": 37.0834,
        "lng": 138.230391
    },
    {
        "code": "B115222200051",
        "type": 16001,
        "name": "飯小学校",
        "address": "上越市飯1946",
        "lat": 37.123617,
        "lng": 138.226862
    },
    {
        "code": "B115222200060",
        "type": 16001,
        "name": "富岡小学校",
        "address": "上越市富岡3117",
        "lat": 37.14056,
        "lng": 138.260164
    },
    {
        "code": "B115222200079",
        "type": 16001,
        "name": "稲田小学校",
        "address": "上越市稲田1-6-7",
        "lat": 37.11798,
        "lng": 138.267358
    },
    {
        "code": "B115222200088",
        "type": 16001,
        "name": "和田小学校",
        "address": "上越市上箱井202",
        "lat": 37.073458,
        "lng": 138.260417
    },
    {
        "code": "B115222200097",
        "type": 16001,
        "name": "大和小学校",
        "address": "上越市大和2-13-3",
        "lat": 37.086273,
        "lng": 138.253771
    },
    {
        "code": "B115222200104",
        "type": 16001,
        "name": "春日小学校",
        "address": "上越市大豆1-13-11",
        "lat": 37.148252,
        "lng": 138.225556
    },
    {
        "code": "B115222200113",
        "type": 16001,
        "name": "高志小学校",
        "address": "上越市木田3-1-25",
        "lat": 37.140174,
        "lng": 138.237281
    },
    {
        "code": "B115222200122",
        "type": 16001,
        "name": "諏訪小学校",
        "address": "上越市上真砂2040",
        "lat": 37.138923,
        "lng": 138.309797
    },
    {
        "code": "B115222200131",
        "type": 16001,
        "name": "三郷小学校",
        "address": "上越市長者町442-1",
        "lat": 37.089567,
        "lng": 138.286886
    },
    {
        "code": "B115222200140",
        "type": 16001,
        "name": "戸野目小学校",
        "address": "上越市大字戸野目682",
        "lat": 37.123507,
        "lng": 138.283384
    },
    {
        "code": "B115222200159",
        "type": 16001,
        "name": "上雲寺小学校",
        "address": "上越市上雲寺16",
        "lat": 37.101622,
        "lng": 138.301578
    },
    {
        "code": "B115222200168",
        "type": 16001,
        "name": "大町小学校",
        "address": "上越市大町3-2-32",
        "lat": 37.112341,
        "lng": 138.246333
    },
    {
        "code": "B115222200177",
        "type": 16001,
        "name": "高士小学校",
        "address": "上越市高津49",
        "lat": 37.094485,
        "lng": 138.332407
    },
    {
        "code": "B115222200186",
        "type": 16001,
        "name": "高田西小学校",
        "address": "上越市大貫1908",
        "lat": 37.107397,
        "lng": 138.236362
    },
    {
        "code": "B115222200195",
        "type": 16001,
        "name": "清里小学校",
        "address": "上越市清里区岡嶺新田180",
        "lat": 37.076015,
        "lng": 138.32702
    },
    {
        "code": "B115222200202",
        "type": 16001,
        "name": "有田小学校",
        "address": "上越市大字安江42",
        "lat": 37.160152,
        "lng": 138.263837
    },
    {
        "code": "B115222200211",
        "type": 16001,
        "name": "八千浦小学校",
        "address": "上越市下荒浜782-1",
        "lat": 37.197054,
        "lng": 138.282632
    },
    {
        "code": "B115222200220",
        "type": 16001,
        "name": "直江津小学校",
        "address": "上越市住吉町3-5",
        "lat": 37.175639,
        "lng": 138.246109
    },
    {
        "code": "B115222200239",
        "type": 16001,
        "name": "古城小学校",
        "address": "上越市港町2-16-1",
        "lat": 37.181138,
        "lng": 138.255802
    },
    {
        "code": "B115222200248",
        "type": 16001,
        "name": "直江津南小学校",
        "address": "上越市中央1-7-1",
        "lat": 37.173389,
        "lng": 138.243998
    },
    {
        "code": "B115222200257",
        "type": 16001,
        "name": "北諏訪小学校",
        "address": "上越市上千原165",
        "lat": 37.158365,
        "lng": 138.295826
    },
    {
        "code": "B115222200266",
        "type": 16001,
        "name": "春日新田小学校",
        "address": "上越市春日新田1274",
        "lat": 37.16914,
        "lng": 138.258274
    },
    {
        "code": "B115222200275",
        "type": 16001,
        "name": "国府小学校",
        "address": "上越市五智4-1-10",
        "lat": 37.171305,
        "lng": 138.228638
    },
    {
        "code": "B115222200284",
        "type": 16001,
        "name": "保倉小学校",
        "address": "上越市大字上吉野146-2",
        "lat": 37.167587,
        "lng": 138.325544
    },
    {
        "code": "B115222200293",
        "type": 16001,
        "name": "谷浜小学校",
        "address": "上越市大字有間川445",
        "lat": 37.157415,
        "lng": 138.143758
    },
    {
        "code": "B115222200300",
        "type": 16001,
        "name": "安塚小学校",
        "address": "上越市安塚区安塚2575",
        "lat": 37.129732,
        "lng": 138.444399
    },
    {
        "code": "B115222200319",
        "type": 16001,
        "name": "浦川原小学校",
        "address": "上越市浦川原区横川321",
        "lat": 37.159849,
        "lng": 138.414908
    },
    {
        "code": "B115222200328",
        "type": 16001,
        "name": "大島小学校",
        "address": "上越市大島区大平3735",
        "lat": 37.154166,
        "lng": 138.509822
    },
    {
        "code": "B115222200337",
        "type": 16001,
        "name": "牧小学校",
        "address": "上越市牧区国川1550-1",
        "lat": 37.075527,
        "lng": 138.388595
    },
    {
        "code": "B115222200346",
        "type": 16001,
        "name": "上下浜小学校",
        "address": "上越市柿崎区上下浜569",
        "lat": 37.253152,
        "lng": 138.359881
    },
    {
        "code": "B115222200355",
        "type": 16001,
        "name": "下黒川小学校",
        "address": "上越市柿崎区柳ｹ崎707",
        "lat": 37.25719,
        "lng": 138.405482
    },
    {
        "code": "B115222200364",
        "type": 16001,
        "name": "柿崎小学校",
        "address": "上越市柿崎区柿崎601-1",
        "lat": 37.275156,
        "lng": 138.38937
    },
    {
        "code": "B115222200373",
        "type": 16001,
        "name": "大潟町小学校",
        "address": "上越市大潟区土底浜1621",
        "lat": 37.22555,
        "lng": 138.324387
    },
    {
        "code": "B115222200382",
        "type": 16001,
        "name": "南川小学校",
        "address": "上越市頸城区上吉414",
        "lat": 37.182151,
        "lng": 138.285917
    },
    {
        "code": "B115222200391",
        "type": 16001,
        "name": "大瀁小学校",
        "address": "上越市頸城区百間町1134",
        "lat": 37.188879,
        "lng": 138.331223
    },
    {
        "code": "B115222200408",
        "type": 16001,
        "name": "明治小学校",
        "address": "上越市頸城区日根津2929",
        "lat": 37.19092,
        "lng": 138.359003
    },
    {
        "code": "B115222200417",
        "type": 16001,
        "name": "吉川小学校",
        "address": "上越市吉川区原之町1819",
        "lat": 37.223817,
        "lng": 138.404506
    },
    {
        "code": "B115222200426",
        "type": 16001,
        "name": "中郷小学校",
        "address": "上越市中郷区二本木704",
        "lat": 36.986056,
        "lng": 138.235918
    },
    {
        "code": "B115222200462",
        "type": 16001,
        "name": "豊原小学校",
        "address": "上越市高野730-4",
        "lat": 37.067586,
        "lng": 138.294175
    },
    {
        "code": "B115222200471",
        "type": 16001,
        "name": "里公小学校",
        "address": "上越市三和区鴨井710",
        "lat": 37.109766,
        "lng": 138.339136
    },
    {
        "code": "B115222200480",
        "type": 16001,
        "name": "上杉小学校",
        "address": "上越市三和区今保584",
        "lat": 37.11862,
        "lng": 138.368722
    },
    {
        "code": "B115222200499",
        "type": 16001,
        "name": "美守小学校",
        "address": "上越市三和区本郷668",
        "lat": 37.151081,
        "lng": 138.346995
    },
    {
        "code": "B115222200505",
        "type": 16001,
        "name": "宝田小学校",
        "address": "上越市名立区車路290",
        "lat": 37.143001,
        "lng": 138.107615
    },
    {
        "code": "B115222200514",
        "type": 16001,
        "name": "板倉小学校",
        "address": "上越市板倉区針1129",
        "lat": 37.049782,
        "lng": 138.295407
    },
    {
        "code": "C115110000030",
        "type": 16002,
        "name": "上越教育大学附属中学校",
        "address": "上越市本城町6-2",
        "lat": 37.111092,
        "lng": 138.257554
    },
    {
        "code": "C115222200013",
        "type": 16002,
        "name": "城北中学校",
        "address": "上越市栄町4-24",
        "lat": 37.123534,
        "lng": 138.249805
    },
    {
        "code": "C115222200022",
        "type": 16002,
        "name": "城西中学校",
        "address": "上越市南新町3-3",
        "lat": 37.098759,
        "lng": 138.245612
    },
    {
        "code": "C115222200031",
        "type": 16002,
        "name": "城東中学校",
        "address": "上越市本城町4-60",
        "lat": 37.111981,
        "lng": 138.26111
    },
    {
        "code": "C115222200040",
        "type": 16002,
        "name": "八千浦中学校",
        "address": "上越市下荒浜879",
        "lat": 37.195054,
        "lng": 138.278827
    },
    {
        "code": "C115222200059",
        "type": 16002,
        "name": "直江津中学校",
        "address": "上越市西本町4-15-2",
        "lat": 37.174111,
        "lng": 138.237554
    },
    {
        "code": "C115222200068",
        "type": 16002,
        "name": "直江津東中学校",
        "address": "上越市安江282-1",
        "lat": 37.168668,
        "lng": 138.267912
    },
    {
        "code": "C115222200077",
        "type": 16002,
        "name": "春日中学校",
        "address": "上越市春日野1-9-3",
        "lat": 37.15053,
        "lng": 138.233722
    },
    {
        "code": "C115222200086",
        "type": 16002,
        "name": "雄志中学校",
        "address": "上越市大字下池部707",
        "lat": 37.114481,
        "lng": 138.296355
    },
    {
        "code": "C115222200095",
        "type": 16002,
        "name": "潮陵中学校",
        "address": "上越市西戸野24",
        "lat": 37.15675,
        "lng": 138.144916
    },
    {
        "code": "C115222200102",
        "type": 16002,
        "name": "安塚中学校",
        "address": "上越市安塚区石橋6",
        "lat": 37.114846,
        "lng": 138.451088
    },
    {
        "code": "C115222200111",
        "type": 16002,
        "name": "浦川原中学校",
        "address": "上越市浦川原区顕聖寺350",
        "lat": 37.159719,
        "lng": 138.423892
    },
    {
        "code": "C115222200120",
        "type": 16002,
        "name": "大島中学校",
        "address": "上越市上越市大島区上達600",
        "lat": 37.139975,
        "lng": 138.506698
    },
    {
        "code": "C115222200139",
        "type": 16002,
        "name": "牧中学校",
        "address": "上越市牧区小川1752",
        "lat": 37.075397,
        "lng": 138.389571
    },
    {
        "code": "C115222200148",
        "type": 16002,
        "name": "柿崎中学校",
        "address": "上越市柿崎区法音寺392-1",
        "lat": 37.283454,
        "lng": 138.400386
    },
    {
        "code": "C115222200157",
        "type": 16002,
        "name": "大潟町中学校",
        "address": "上越市大潟区潟町575",
        "lat": 37.231539,
        "lng": 138.3342
    },
    {
        "code": "C115222200166",
        "type": 16002,
        "name": "頸城中学校",
        "address": "上越市潟口60",
        "lat": 37.191179,
        "lng": 138.328684
    },
    {
        "code": "C115222200175",
        "type": 16002,
        "name": "吉川中学校",
        "address": "上越市吉川区下町1130",
        "lat": 37.219868,
        "lng": 138.407973
    },
    {
        "code": "C115222200184",
        "type": 16002,
        "name": "中郷中学校",
        "address": "上越市中郷区二本木663",
        "lat": 36.988378,
        "lng": 138.235483
    },
    {
        "code": "C115222200193",
        "type": 16002,
        "name": "板倉中学校",
        "address": "上越市板倉区針1034-1",
        "lat": 37.049746,
        "lng": 138.296614
    },
    {
        "code": "C115222200200",
        "type": 16002,
        "name": "清里中学校",
        "address": "上越市清里区岡野町1525",
        "lat": 37.080169,
        "lng": 138.33279
    },
    {
        "code": "C115222200219",
        "type": 16002,
        "name": "三和中学校",
        "address": "上越市上越市三和区島倉2267",
        "lat": 37.136239,
        "lng": 138.35178
    },
    {
        "code": "C115222200228",
        "type": 16002,
        "name": "名立中学校",
        "address": "上越市名立区赤野俣532-1",
        "lat": 37.153112,
        "lng": 138.092431
    },
    {
        "code": "D115222200011",
        "type": 16004,
        "name": "高田高等学校",
        "address": "上越市南城町3-5-5",
        "lat": 37.104509,
        "lng": 138.255055
    },
    {
        "code": "D115222200020",
        "type": 16004,
        "name": "高田北城高等学校",
        "address": "上越市北城町2-8-1",
        "lat": 37.115008,
        "lng": 138.258499
    },
    {
        "code": "D115222200039",
        "type": 16004,
        "name": "高田農業高等学校",
        "address": "上越市東城町1-4-41",
        "lat": 37.100565,
        "lng": 138.260249
    },
    {
        "code": "D115222200048",
        "type": 16004,
        "name": "上越総合技術高等学校",
        "address": "上越市本城町3-1",
        "lat": 37.112869,
        "lng": 138.258832
    },
    {
        "code": "D115222200057",
        "type": 16004,
        "name": "高田商業高等学校",
        "address": "上越市中田原90-1",
        "lat": 37.094454,
        "lng": 138.236473
    },
    {
        "code": "D115222200066",
        "type": 16004,
        "name": "高田南城高等学校",
        "address": "上越市南城町3-3-8",
        "lat": 37.10487,
        "lng": 138.250305
    },
    {
        "code": "D115222200075",
        "type": 16004,
        "name": "高田高等学校安塚分校",
        "address": "上越市安塚区下方129",
        "lat": 37.135156,
        "lng": 138.444984
    },
    {
        "code": "D115222200084",
        "type": 16004,
        "name": "久比岐高等学校",
        "address": "上越市柿崎区柿崎7075",
        "lat": 37.279965,
        "lng": 138.393284
    },
    {
        "code": "D115222200093",
        "type": 16004,
        "name": "有恒高等学校",
        "address": "上越市板倉区針583-3",
        "lat": 37.053088,
        "lng": 138.295247
    },
    {
        "code": "D115322200019",
        "type": 16004,
        "name": "上越高等学校",
        "address": "上越市寺町3-4-34",
        "lat": 37.115879,
        "lng": 138.238609
    },
    {
        "code": "D115322200028",
        "type": 16004,
        "name": "関根学園高等学校",
        "address": "上越市大貫2-9-1",
        "lat": 37.106,
        "lng": 138.232982
    },
    {
        "code": "D215222200010",
        "type": 16003,
        "name": "直江津中等教育学校",
        "address": "上越市西本町4-20-1",
        "lat": 37.17349,
        "lng": 138.234419
    },
    {
        "code": "E115222200018",
        "type": 16012,
        "name": "長岡聾学校高田分校",
        "address": "上越市大和6-4-37",
        "lat": 37.085316,
        "lng": 138.241899
    },
    {
        "code": "E115222200027",
        "type": 16012,
        "name": "高田特別支援学校",
        "address": "上越市寺町15-44",
        "lat": 37.099731,
        "lng": 138.236779
    },
    {
        "code": "E115222200036",
        "type": 16012,
        "name": "上越特別支援学校",
        "address": "上越市大和6-4-37",
        "lat": 37.085483,
        "lng": 138.241723
    },
    {
        "code": "E115222200045",
        "type": 16012,
        "name": "吉川高等特別支援学校",
        "address": "上越市吉川区原之町1447",
        "lat": 37.227139,
        "lng": 138.407456
    },
    {
        "code": "F115110105064",
        "type": 16007,
        "name": "上越教育大学",
        "address": "上越市山屋敷町1",
        "lat": 37.135615,
        "lng": 138.225334
    },
    {
        "code": "F115210105071",
        "type": 16007,
        "name": "新潟県立看護大学",
        "address": "上越市新南町240",
        "lat": 37.105902,
        "lng": 138.268539
    },
    {
        "code": "H115322200010",
        "type": 16016,
        "name": "上越服装専門学校",
        "address": "上越市大町2-1-10",
        "lat": 37.117643,
        "lng": 138.252273
    },
    {
        "code": "H115322200029",
        "type": 16016,
        "name": "上越公務員・情報ビジネス専門学校",
        "address": "上越市北城町3-4-1",
        "lat": 37.117649,
        "lng": 138.252277
    },
    {
        "code": "H115322200038",
        "type": 16016,
        "name": "上越保健医療福祉専門学校",
        "address": "上越市西城町1-12-17",
        "lat": 37.109922,
        "lng": 138.251647
    },
    {
        "code": "H115322200047",
        "type": 16016,
        "name": "上越看護専門学校",
        "address": "上越市大潟区犀潟字三番割517-1",
        "lat": 37.211548,
        "lng": 138.308898
    }
]