[
    {
        "code": "A101355500018",
        "type": 16011,
        "name": "遠軽ひばり幼稚園",
        "address": "紋別郡遠軽町1条通北3-2-7",
        "lat": 44.061583,
        "lng": 143.528619
    },
    {
        "code": "A201355500017",
        "type": 16013,
        "name": "幼保連携型認定こども園こころ",
        "address": "紋別郡遠軽町1条通南1",
        "lat": 44.058123,
        "lng": 143.525693
    },
    {
        "code": "A201355500026",
        "type": 16013,
        "name": "遠軽幼稚園",
        "address": "紋別郡遠軽町岩見通北3-1-15",
        "lat": 44.062791,
        "lng": 143.522737
    },
    {
        "code": "B101255500018",
        "type": 16001,
        "name": "生田原小学校",
        "address": "紋別郡遠軽町生田原710-1",
        "lat": 43.911397,
        "lng": 143.533528
    },
    {
        "code": "B101255500027",
        "type": 16001,
        "name": "安国小学校",
        "address": "紋別郡遠軽町生田原安国271-1",
        "lat": 43.986814,
        "lng": 143.538404
    },
    {
        "code": "B101255500036",
        "type": 16001,
        "name": "遠軽小学校",
        "address": "紋別郡遠軽町西町3-3-15",
        "lat": 44.046963,
        "lng": 143.506567
    },
    {
        "code": "B101255500045",
        "type": 16001,
        "name": "東小学校",
        "address": "紋別郡遠軽町1条通北5",
        "lat": 44.064742,
        "lng": 143.531398
    },
    {
        "code": "B101255500054",
        "type": 16001,
        "name": "南小学校",
        "address": "紋別郡遠軽町南町3-4",
        "lat": 44.044661,
        "lng": 143.525351
    },
    {
        "code": "B101255500072",
        "type": 16001,
        "name": "丸瀬布小学校",
        "address": "紋別郡遠軽町丸瀬布東町113",
        "lat": 44.009093,
        "lng": 143.342771
    },
    {
        "code": "B101255500081",
        "type": 16001,
        "name": "白滝小学校",
        "address": "紋別郡遠軽町白滝942",
        "lat": 43.880279,
        "lng": 143.175667
    },
    {
        "code": "B101255500090",
        "type": 16001,
        "name": "東小学校望の岡分校",
        "address": "紋別郡遠軽町留岡34",
        "lat": 44.081109,
        "lng": 143.499502
    },
    {
        "code": "C101255500016",
        "type": 16002,
        "name": "生田原中学校",
        "address": "紋別郡遠軽町生田原712",
        "lat": 43.910092,
        "lng": 143.533417
    },
    {
        "code": "C101255500025",
        "type": 16002,
        "name": "安国中学校",
        "address": "紋別郡遠軽町生田原安国22-1",
        "lat": 43.993171,
        "lng": 143.540219
    },
    {
        "code": "C101255500034",
        "type": 16002,
        "name": "遠軽中学校",
        "address": "紋別郡遠軽町大通北5-2",
        "lat": 44.064731,
        "lng": 143.529327
    },
    {
        "code": "C101255500043",
        "type": 16002,
        "name": "丸瀬布中学校",
        "address": "紋別郡遠軽町丸瀬布新町78",
        "lat": 44.005708,
        "lng": 143.341941
    },
    {
        "code": "C101255500052",
        "type": 16002,
        "name": "白滝中学校",
        "address": "紋別郡遠軽町白滝942",
        "lat": 43.87874,
        "lng": 143.175244
    },
    {
        "code": "C101255500061",
        "type": 16002,
        "name": "南中学校",
        "address": "紋別郡遠軽町東町5-4-82",
        "lat": 44.039466,
        "lng": 143.528576
    },
    {
        "code": "C101255500070",
        "type": 16002,
        "name": "遠軽中学校望の岡分校",
        "address": "紋別郡遠軽町留岡34",
        "lat": 44.081109,
        "lng": 143.49949
    },
    {
        "code": "D101255500014",
        "type": 16004,
        "name": "遠軽高等学校",
        "address": "紋別郡遠軽町南町1",
        "lat": 44.051187,
        "lng": 143.526381
    },
    {
        "code": "E101255500011",
        "type": 16012,
        "name": "紋別養護学校ひまわり学園分校",
        "address": "紋別郡遠軽町生田原安国302-2",
        "lat": 43.984472,
        "lng": 143.536995
    },
    {
        "code": "H101355500013",
        "type": 16016,
        "name": "遠軽服装専門学校",
        "address": "紋別郡遠軽町岩見通北5",
        "lat": 44.066424,
        "lng": 143.523366
    }
]