[
    {
        "code": "A101355900014",
        "type": 16011,
        "name": "みのり幼稚園",
        "address": "紋別郡湧別町中湧別南町842-8",
        "lat": 44.187156,
        "lng": 143.589517
    },
    {
        "code": "B101255900014",
        "type": 16001,
        "name": "上湧別小学校",
        "address": "紋別郡湧別町上湧別屯田市街地98-1",
        "lat": 44.145282,
        "lng": 143.566397
    },
    {
        "code": "B101255900023",
        "type": 16001,
        "name": "中湧別小学校",
        "address": "紋別郡湧別町中湧別南町914",
        "lat": 44.183133,
        "lng": 143.590006
    },
    {
        "code": "B101255900032",
        "type": 16001,
        "name": "開盛小学校",
        "address": "紋別郡湧別町開盛462-3",
        "lat": 44.093941,
        "lng": 143.526074
    },
    {
        "code": "B101255900041",
        "type": 16001,
        "name": "富美小学校",
        "address": "紋別郡湧別町富美568",
        "lat": 44.140292,
        "lng": 143.511012
    },
    {
        "code": "B101255900050",
        "type": 16001,
        "name": "湧別小学校",
        "address": "紋別郡湧別町錦町211-1",
        "lat": 44.215659,
        "lng": 143.609893
    },
    {
        "code": "C101255900012",
        "type": 16002,
        "name": "上湧別中学校",
        "address": "紋別郡湧別町上湧別屯田市街地1-1",
        "lat": 44.160339,
        "lng": 143.575123
    },
    {
        "code": "C101255900021",
        "type": 16002,
        "name": "湧別中学校",
        "address": "紋別郡湧別町錦町223",
        "lat": 44.213312,
        "lng": 143.609088
    },
    {
        "code": "C201255900011",
        "type": 16014,
        "name": "芭露学園",
        "address": "紋別郡湧別町芭露411",
        "lat": 44.149223,
        "lng": 143.689563
    },
    {
        "code": "D101255900010",
        "type": 16004,
        "name": "湧別高等学校",
        "address": "紋別郡湧別町中湧別南町846-2",
        "lat": 44.185607,
        "lng": 143.587529
    }
]