[
    {
        "code": "A201356400016",
        "type": 16013,
        "name": "大空町認定こども園めまんべつ",
        "address": "網走郡大空町女満別中央341-1",
        "lat": 43.908833,
        "lng": 144.175944
    },
    {
        "code": "B101256400017",
        "type": 16001,
        "name": "東藻琴小学校",
        "address": "網走郡大空町東藻琴268",
        "lat": 43.84151,
        "lng": 144.298854
    },
    {
        "code": "B101256400026",
        "type": 16001,
        "name": "女満別小学校",
        "address": "網走郡大空町女満別夕陽台1-1-1",
        "lat": 43.910949,
        "lng": 144.182893
    },
    {
        "code": "C101256400015",
        "type": 16002,
        "name": "東藻琴中学校",
        "address": "網走郡大空町東藻琴57",
        "lat": 43.846287,
        "lng": 144.288605
    },
    {
        "code": "C101256400024",
        "type": 16002,
        "name": "女満別中学校",
        "address": "網走郡大空町女満別東陽3-2-1",
        "lat": 43.916156,
        "lng": 144.183039
    },
    {
        "code": "D101256400031",
        "type": 16004,
        "name": "大空高等学校",
        "address": "網走郡大空町東藻琴79",
        "lat": 43.845929,
        "lng": 144.291166
    }
]