[
    {
        "code": "A101358400013",
        "type": 16011,
        "name": "とうやこ幼稚園",
        "address": "虻田郡洞爺湖町高砂町127-9",
        "lat": 42.551478,
        "lng": 140.775957
    },
    {
        "code": "B101258400013",
        "type": 16001,
        "name": "虻田小学校",
        "address": "虻田郡洞爺湖町栄町59",
        "lat": 42.551403,
        "lng": 140.766695
    },
    {
        "code": "B101258400022",
        "type": 16001,
        "name": "洞爺湖温泉小学校",
        "address": "虻田郡洞爺湖町月浦44-40",
        "lat": 42.598747,
        "lng": 140.787987
    },
    {
        "code": "B101258400031",
        "type": 16001,
        "name": "とうや小学校",
        "address": "虻田郡洞爺湖町洞爺町59-7",
        "lat": 42.64903,
        "lng": 140.830906
    },
    {
        "code": "C101258400011",
        "type": 16002,
        "name": "虻田中学校",
        "address": "虻田郡洞爺湖町入江190",
        "lat": 42.543633,
        "lng": 140.777638
    },
    {
        "code": "C101258400020",
        "type": 16002,
        "name": "洞爺中学校",
        "address": "虻田郡洞爺湖町洞爺町401-14",
        "lat": 42.647474,
        "lng": 140.826656
    },
    {
        "code": "D101258400019",
        "type": 16004,
        "name": "虻田高等学校",
        "address": "虻田郡洞爺湖町高砂町127-5",
        "lat": 42.548959,
        "lng": 140.777666
    }
]