[
    {
        "code": "B101260200011",
        "type": 16001,
        "name": "平取小学校",
        "address": "沙流郡平取町本町105-6",
        "lat": 42.586483,
        "lng": 142.126374
    },
    {
        "code": "B101260200020",
        "type": 16001,
        "name": "紫雲古津小学校",
        "address": "沙流郡平取町字紫雲古津38-5",
        "lat": 42.556082,
        "lng": 142.075362
    },
    {
        "code": "B101260200039",
        "type": 16001,
        "name": "振内小学校",
        "address": "沙流郡平取町振内町30-2",
        "lat": 42.725154,
        "lng": 142.303748
    },
    {
        "code": "B101260200048",
        "type": 16001,
        "name": "貫気別小学校",
        "address": "沙流郡平取町字貫気別91-6",
        "lat": 42.675992,
        "lng": 142.264504
    },
    {
        "code": "B101260200057",
        "type": 16001,
        "name": "二風谷小学校",
        "address": "沙流郡平取町字二風谷28-1",
        "lat": 42.631187,
        "lng": 142.155046
    },
    {
        "code": "C101260200019",
        "type": 16002,
        "name": "平取中学校",
        "address": "沙流郡平取町本町116-3",
        "lat": 42.589274,
        "lng": 142.121412
    },
    {
        "code": "C101260200028",
        "type": 16002,
        "name": "振内中学校",
        "address": "沙流郡平取町振内町101-1",
        "lat": 42.722405,
        "lng": 142.300915
    },
    {
        "code": "D101260200017",
        "type": 16004,
        "name": "平取高等学校",
        "address": "沙流郡平取町本町109-2",
        "lat": 42.590358,
        "lng": 142.1278
    },
    {
        "code": "E101260200014",
        "type": 16012,
        "name": "平取養護学校",
        "address": "沙流郡平取町本町112-7",
        "lat": 42.590858,
        "lng": 142.131189
    }
]