[
    {
        "code": "A101360700016",
        "type": 16011,
        "name": "浦河フレンドようちえん",
        "address": "浦河郡浦河町旭町42-1",
        "lat": 42.161003,
        "lng": 142.782386
    },
    {
        "code": "A201360700015",
        "type": 16013,
        "name": "夢の国幼稚園・保育園",
        "address": "浦河郡浦河町堺町西1-11-21",
        "lat": 42.177648,
        "lng": 142.759684
    },
    {
        "code": "B101260700016",
        "type": 16001,
        "name": "浦河小学校",
        "address": "浦河郡浦河町常盤町14",
        "lat": 42.162578,
        "lng": 142.779023
    },
    {
        "code": "B101260700025",
        "type": 16001,
        "name": "堺町小学校",
        "address": "浦河郡浦河町堺町西3-4-1",
        "lat": 42.180672,
        "lng": 142.75947
    },
    {
        "code": "B101260700034",
        "type": 16001,
        "name": "荻伏小学校",
        "address": "浦河郡浦河町荻伏町356",
        "lat": 42.200056,
        "lng": 142.684224
    },
    {
        "code": "B101260700043",
        "type": 16001,
        "name": "浦河東部小学校",
        "address": "浦河郡浦河町字西幌別33",
        "lat": 42.146651,
        "lng": 142.833188
    },
    {
        "code": "C101260700014",
        "type": 16002,
        "name": "浦河第一中学校",
        "address": "浦河郡浦河町堺町東6-485-6",
        "lat": 42.185379,
        "lng": 142.766496
    },
    {
        "code": "C101260700023",
        "type": 16002,
        "name": "浦河第二中学校",
        "address": "浦河郡浦河町字西幌別18",
        "lat": 42.145568,
        "lng": 142.832383
    },
    {
        "code": "C101260700032",
        "type": 16002,
        "name": "荻伏中学校",
        "address": "浦河郡浦河町荻伏町527",
        "lat": 42.210444,
        "lng": 142.691278
    },
    {
        "code": "D101260700012",
        "type": 16004,
        "name": "浦河高等学校",
        "address": "浦河郡浦河町東町かしわ1-5-1",
        "lat": 42.159148,
        "lng": 142.790469
    },
    {
        "code": "H101360700011",
        "type": 16016,
        "name": "浦河赤十字看護専門学校",
        "address": "浦河郡浦河町東町ちのみ1-3-39",
        "lat": 42.160226,
        "lng": 142.789219
    }
]