[
    {
        "code": "A101361000011",
        "type": 16011,
        "name": "静内幼稚園",
        "address": "日高郡新ひだか町静内山手町2-7-1",
        "lat": 42.344647,
        "lng": 142.361246
    },
    {
        "code": "A201361000010",
        "type": 16013,
        "name": "マーガレット幼稚園",
        "address": "日高郡新ひだか町静内御幸町6-2-26",
        "lat": 42.343567,
        "lng": 142.37149
    },
    {
        "code": "B101261000011",
        "type": 16001,
        "name": "高静小学校",
        "address": "日高郡新ひだか町静内こうせい町2-9-1",
        "lat": 42.34639,
        "lng": 142.371451
    },
    {
        "code": "B101261000020",
        "type": 16001,
        "name": "静内小学校",
        "address": "日高郡新ひだか町静内緑町3-5-1",
        "lat": 42.339235,
        "lng": 142.372434
    },
    {
        "code": "B101261000039",
        "type": 16001,
        "name": "東静内小学校",
        "address": "日高郡新ひだか町東静内328",
        "lat": 42.301732,
        "lng": 142.457065
    },
    {
        "code": "B101261000048",
        "type": 16001,
        "name": "山手小学校",
        "address": "日高郡新ひだか町静内山手町5-16-1",
        "lat": 42.345527,
        "lng": 142.352953
    },
    {
        "code": "B101261000057",
        "type": 16001,
        "name": "三石小学校",
        "address": "日高郡新ひだか町三石本町222-1",
        "lat": 42.249579,
        "lng": 142.560564
    },
    {
        "code": "B101261000066",
        "type": 16001,
        "name": "桜丘小学校",
        "address": "日高郡新ひだか町静内田原562-2",
        "lat": 42.386888,
        "lng": 142.446792
    },
    {
        "code": "C101261000019",
        "type": 16002,
        "name": "静内中学校",
        "address": "日高郡新ひだか町静内山手町1-9-1",
        "lat": 42.343618,
        "lng": 142.363304
    },
    {
        "code": "C101261000028",
        "type": 16002,
        "name": "静内第三中学校",
        "address": "日高郡新ひだか町静内神森60",
        "lat": 42.356594,
        "lng": 142.382784
    },
    {
        "code": "C101261000037",
        "type": 16002,
        "name": "三石中学校",
        "address": "日高郡新ひだか町三石旭町96-1",
        "lat": 42.251407,
        "lng": 142.567006
    },
    {
        "code": "D101261000017",
        "type": 16004,
        "name": "静内高等学校",
        "address": "日高郡新ひだか町静内ときわ町1-1-1",
        "lat": 42.343921,
        "lng": 142.365452
    },
    {
        "code": "D101261000026",
        "type": 16004,
        "name": "静内農業高等学校",
        "address": "日高郡新ひだか町静内田原797",
        "lat": 42.395047,
        "lng": 142.442348
    },
    {
        "code": "E101261000014",
        "type": 16012,
        "name": "平取養護学校静内ペテカリの園分校",
        "address": "日高郡新ひだか町静内ときわ町1-1-35",
        "lat": 42.344696,
        "lng": 142.364284
    }
]