[
    {
        "code": "A116220760012",
        "type": 16011,
        "name": "生地こども園",
        "address": "黒部市生地中区242",
        "lat": 36.889508,
        "lng": 137.418719
    },
    {
        "code": "A116220760021",
        "type": 16011,
        "name": "石田こども園",
        "address": "黒部市石田6510",
        "lat": 36.867097,
        "lng": 137.419173
    },
    {
        "code": "A116220760030",
        "type": 16011,
        "name": "さくら幼稚園",
        "address": "黒部市植木68",
        "lat": 36.881617,
        "lng": 137.446218
    },
    {
        "code": "B116220700013",
        "type": 16001,
        "name": "生地小学校",
        "address": "黒部市生地経新1004",
        "lat": 36.893785,
        "lng": 137.416094
    },
    {
        "code": "B116220700022",
        "type": 16001,
        "name": "たかせ小学校",
        "address": "黒部市田家新810",
        "lat": 36.852818,
        "lng": 137.440731
    },
    {
        "code": "B116220700031",
        "type": 16001,
        "name": "石田小学校",
        "address": "黒部市石田6536",
        "lat": 36.867372,
        "lng": 137.42251
    },
    {
        "code": "B116220700040",
        "type": 16001,
        "name": "村椿小学校",
        "address": "黒部市吉田225",
        "lat": 36.899173,
        "lng": 137.425898
    },
    {
        "code": "B116220700059",
        "type": 16001,
        "name": "中央小学校",
        "address": "黒部市植木118",
        "lat": 36.88262,
        "lng": 137.445896
    },
    {
        "code": "B116220700068",
        "type": 16001,
        "name": "桜井小学校",
        "address": "黒部市新牧野11-2",
        "lat": 36.866875,
        "lng": 137.448946
    },
    {
        "code": "B116220700077",
        "type": 16001,
        "name": "荻生小学校",
        "address": "黒部市荻生2754",
        "lat": 36.879843,
        "lng": 137.472199
    },
    {
        "code": "B116220700086",
        "type": 16001,
        "name": "若栗小学校",
        "address": "黒部市若栗1337",
        "lat": 36.873039,
        "lng": 137.495196
    },
    {
        "code": "B116220700095",
        "type": 16001,
        "name": "宇奈月小学校",
        "address": "黒部市宇奈月町浦山205-1",
        "lat": 36.867103,
        "lng": 137.521405
    },
    {
        "code": "C116220730015",
        "type": 16002,
        "name": "清明中学校",
        "address": "黒部市中新30",
        "lat": 36.886175,
        "lng": 137.427982
    },
    {
        "code": "C116220730024",
        "type": 16002,
        "name": "明峰中学校",
        "address": "黒部市山田新2062",
        "lat": 36.872786,
        "lng": 137.461875
    },
    {
        "code": "D116220750018",
        "type": 16004,
        "name": "桜井高等学校",
        "address": "黒部市三日市1334",
        "lat": 36.870372,
        "lng": 137.449146
    },
    {
        "code": "E116220790017",
        "type": 16012,
        "name": "にいかわ総合支援学校",
        "address": "黒部市石田6682",
        "lat": 36.8704,
        "lng": 137.420622
    },
    {
        "code": "H216320785015",
        "type": 16015,
        "name": "黒部自動車学校",
        "address": "黒部市犬山54",
        "lat": 36.861773,
        "lng": 137.423949
    }
]