[
    {
        "code": "A101263500014",
        "type": 16011,
        "name": "新得幼稚園",
        "address": "上川郡新得町元町98",
        "lat": 43.084751,
        "lng": 142.836374
    },
    {
        "code": "B101263500012",
        "type": 16001,
        "name": "新得小学校",
        "address": "上川郡新得町西2条北1-1",
        "lat": 43.081548,
        "lng": 142.82707
    },
    {
        "code": "B101263500021",
        "type": 16001,
        "name": "屈足南小学校",
        "address": "上川郡新得町屈足柏町2-63",
        "lat": 43.103826,
        "lng": 142.905147
    },
    {
        "code": "B101263500030",
        "type": 16001,
        "name": "富村牛小学校",
        "address": "上川郡新得町字屈足ﾄﾑﾗｳｼ257",
        "lat": 43.334079,
        "lng": 142.946747
    },
    {
        "code": "C101263500010",
        "type": 16002,
        "name": "新得中学校",
        "address": "上川郡新得町西4条南1町目1",
        "lat": 43.079548,
        "lng": 142.822182
    },
    {
        "code": "C101263500029",
        "type": 16002,
        "name": "屈足中学校",
        "address": "上川郡新得町屈足緑町西4-5",
        "lat": 43.105096,
        "lng": 142.8972
    },
    {
        "code": "C101263500038",
        "type": 16002,
        "name": "富村牛中学校",
        "address": "上川郡新得町字屈足ﾄﾑﾗｳｼ",
        "lat": 43.333942,
        "lng": 142.946741
    },
    {
        "code": "E101263500015",
        "type": 16012,
        "name": "新得高等支援学校",
        "address": "上川郡新得町西2条南7-2",
        "lat": 43.072711,
        "lng": 142.833776
    }
]