[
    {
        "code": "A101263900010",
        "type": 16011,
        "name": "更別幼稚園",
        "address": "河西郡更別村字更別南1線97-1",
        "lat": 42.653077,
        "lng": 143.191513
    },
    {
        "code": "A101263900029",
        "type": 16011,
        "name": "上更別幼稚園",
        "address": "河西郡更別村字上更別南13線105-1",
        "lat": 42.609857,
        "lng": 143.250157
    },
    {
        "code": "B101263900018",
        "type": 16001,
        "name": "更別小学校",
        "address": "河西郡更別村緑町",
        "lat": 42.655592,
        "lng": 143.194227
    },
    {
        "code": "B101263900027",
        "type": 16001,
        "name": "上更別小学校",
        "address": "河西郡更別村字上更別南13線103",
        "lat": 42.608333,
        "lng": 143.251544
    },
    {
        "code": "C101263900016",
        "type": 16002,
        "name": "更別中央中学校",
        "address": "河西郡更別村字更別南3線90",
        "lat": 42.64336,
        "lng": 143.189815
    },
    {
        "code": "D101263900014",
        "type": 16004,
        "name": "更別農業高等学校",
        "address": "河西郡更別村字更別基線95",
        "lat": 42.655608,
        "lng": 143.184037
    }
]