[
    {
        "code": "A201364600018",
        "type": 16013,
        "name": "幼保連携型認定こども園ほんべつ",
        "address": "中川郡本別町南3-16-4",
        "lat": 43.119097,
        "lng": 143.606439
    },
    {
        "code": "B101264600019",
        "type": 16001,
        "name": "本別中央小学校",
        "address": "中川郡本別町弥生町22-1",
        "lat": 43.124514,
        "lng": 143.598668
    },
    {
        "code": "B101264600028",
        "type": 16001,
        "name": "勇足小学校",
        "address": "中川郡本別町勇足150-1",
        "lat": 43.08654,
        "lng": 143.519586
    },
    {
        "code": "B101264600037",
        "type": 16001,
        "name": "仙美里小学校",
        "address": "中川郡本別町仙美里元町80",
        "lat": 43.178256,
        "lng": 143.589917
    },
    {
        "code": "C101264600017",
        "type": 16002,
        "name": "本別中学校",
        "address": "中川郡本別町弥生町30",
        "lat": 43.127597,
        "lng": 143.600279
    },
    {
        "code": "C101264600026",
        "type": 16002,
        "name": "勇足中学校",
        "address": "中川郡本別町勇足133-1",
        "lat": 43.092705,
        "lng": 143.520193
    },
    {
        "code": "D101264600015",
        "type": 16004,
        "name": "本別高等学校",
        "address": "中川郡本別町弥生町49-2",
        "lat": 43.127013,
        "lng": 143.597168
    },
    {
        "code": "H101264600016",
        "type": 16016,
        "name": "北海道立農業大学校",
        "address": "中川郡本別町西仙美里25-1",
        "lat": 43.168041,
        "lng": 143.570663
    }
]