[
    {
        "code": "A101366100019",
        "type": 16011,
        "name": "白梅幼稚園",
        "address": "釧路郡釧路町中央8-91",
        "lat": 43.011969,
        "lng": 144.435031
    },
    {
        "code": "A101366100028",
        "type": 16011,
        "name": "釧路めぐみ幼稚園",
        "address": "釧路郡釧路町雪里1-4",
        "lat": 43.022483,
        "lng": 144.419057
    },
    {
        "code": "B101266100019",
        "type": 16001,
        "name": "別保小学校",
        "address": "釧路郡釧路町別保10-24-1",
        "lat": 42.989282,
        "lng": 144.4764
    },
    {
        "code": "B101266100028",
        "type": 16001,
        "name": "遠矢小学校",
        "address": "釧路郡釧路町南陽台10-1",
        "lat": 43.042443,
        "lng": 144.467232
    },
    {
        "code": "B101266100037",
        "type": 16001,
        "name": "昆布森小学校",
        "address": "釧路郡釧路町昆布森3-106",
        "lat": 42.954563,
        "lng": 144.533683
    },
    {
        "code": "B101266100046",
        "type": 16001,
        "name": "知方学小学校",
        "address": "釧路郡釧路町大字仙鳳趾村字知方学41",
        "lat": 42.938728,
        "lng": 144.7344
    },
    {
        "code": "B101266100055",
        "type": 16001,
        "name": "富原小学校",
        "address": "釧路郡釧路町富原2",
        "lat": 43.015111,
        "lng": 144.4176
    },
    {
        "code": "C101266100017",
        "type": 16002,
        "name": "別保中学校",
        "address": "釧路郡釧路町別保南2-44-1",
        "lat": 42.981728,
        "lng": 144.480761
    },
    {
        "code": "C101266100026",
        "type": 16002,
        "name": "遠矢中学校",
        "address": "釧路郡釧路町鳥通西6-1",
        "lat": 43.053774,
        "lng": 144.462732
    },
    {
        "code": "C101266100035",
        "type": 16002,
        "name": "昆布森中学校",
        "address": "釧路郡釧路町昆布森3-110",
        "lat": 42.953044,
        "lng": 144.536661
    },
    {
        "code": "C101266100044",
        "type": 16002,
        "name": "富原中学校",
        "address": "釧路郡釧路町富原2",
        "lat": 43.014194,
        "lng": 144.418516
    },
    {
        "code": "D101266100015",
        "type": 16004,
        "name": "釧路東高等学校",
        "address": "釧路郡釧路町富原3-1",
        "lat": 43.012722,
        "lng": 144.41785
    }
]