[
    {
        "code": "A201269300012",
        "type": 16013,
        "name": "標津認定こども園",
        "address": "標津郡標津町南2条西4-1-3",
        "lat": 43.657325,
        "lng": 145.12487
    },
    {
        "code": "A201269300021",
        "type": 16013,
        "name": "川北認定こども園",
        "address": "標津郡標津町字川北93-21",
        "lat": 43.660346,
        "lng": 145.021756
    },
    {
        "code": "B101269300011",
        "type": 16001,
        "name": "標津小学校",
        "address": "標津郡標津町南1条西3-1-4-1",
        "lat": 43.658796,
        "lng": 145.129144
    },
    {
        "code": "B101269300020",
        "type": 16001,
        "name": "川北小学校",
        "address": "標津郡標津町字川北基線13-1",
        "lat": 43.660121,
        "lng": 145.023646
    },
    {
        "code": "C101269300019",
        "type": 16002,
        "name": "標津中学校",
        "address": "標津郡標津町南1条西3-1-5",
        "lat": 43.658661,
        "lng": 145.12769
    },
    {
        "code": "C101269300028",
        "type": 16002,
        "name": "川北中学校",
        "address": "標津郡標津町字川北93-3",
        "lat": 43.660716,
        "lng": 145.024573
    },
    {
        "code": "D101269300017",
        "type": 16004,
        "name": "標津高等学校",
        "address": "標津郡標津町南2条西5-2-2",
        "lat": 43.654538,
        "lng": 145.12481
    }
]