[
    {
        "code": "A117110000014",
        "type": 16011,
        "name": "金沢大学人間社会学域学校教育学類附属幼稚園",
        "address": "金沢市平和町1-1-15",
        "lat": 36.537044,
        "lng": 136.666532
    },
    {
        "code": "A117320100018",
        "type": 16011,
        "name": "藤蔭幼稚園",
        "address": "金沢市笠市町2-47",
        "lat": 36.577862,
        "lng": 136.65584
    },
    {
        "code": "A117320100027",
        "type": 16011,
        "name": "かわい幼稚園",
        "address": "金沢市泉本町3-111",
        "lat": 36.550623,
        "lng": 136.634418
    },
    {
        "code": "A117320100036",
        "type": 16011,
        "name": "金石幼稚園",
        "address": "金沢市金石本町ﾛ53",
        "lat": 36.596819,
        "lng": 136.597397
    },
    {
        "code": "A117320100045",
        "type": 16011,
        "name": "金沢学園幼稚園",
        "address": "金沢市寺町2-1-4",
        "lat": 36.550465,
        "lng": 136.654778
    },
    {
        "code": "A117320100054",
        "type": 16011,
        "name": "藤花幼稚園",
        "address": "金沢市上安原町169-1",
        "lat": 36.566517,
        "lng": 136.585037
    },
    {
        "code": "A117320100063",
        "type": 16011,
        "name": "玄門寺幼稚園",
        "address": "金沢市東山2-14-33",
        "lat": 36.575268,
        "lng": 136.667626
    },
    {
        "code": "A117320100072",
        "type": 16011,
        "name": "木の花幼稚園",
        "address": "金沢市長町3-1-15",
        "lat": 36.565774,
        "lng": 136.647422
    },
    {
        "code": "A117320100081",
        "type": 16011,
        "name": "若草幼稚園",
        "address": "金沢市若草町13-41",
        "lat": 36.544541,
        "lng": 136.659769
    },
    {
        "code": "A117320100090",
        "type": 16011,
        "name": "金城幼稚園",
        "address": "金沢市本多町2-1-5",
        "lat": 36.555913,
        "lng": 136.659916
    },
    {
        "code": "A117320100107",
        "type": 16011,
        "name": "済美幼稚園",
        "address": "金沢市朝霧台2-67",
        "lat": 36.534751,
        "lng": 136.697641
    },
    {
        "code": "A117320100116",
        "type": 16011,
        "name": "青竜幼稚園",
        "address": "金沢市額新町1-27",
        "lat": 36.518532,
        "lng": 136.620664
    },
    {
        "code": "A117320100125",
        "type": 16011,
        "name": "北陸学院第一幼稚園",
        "address": "金沢市三小牛町ﾊ1-1",
        "lat": 36.519574,
        "lng": 136.673169
    },
    {
        "code": "A117320100134",
        "type": 16011,
        "name": "天徳幼稚園",
        "address": "金沢市小立野4-4-4",
        "lat": 36.552223,
        "lng": 136.676943
    },
    {
        "code": "A117320100143",
        "type": 16011,
        "name": "馬場幼稚園",
        "address": "金沢市御所町酉1",
        "lat": 36.577654,
        "lng": 136.664217
    },
    {
        "code": "A117320100152",
        "type": 16011,
        "name": "白銀幼稚園",
        "address": "金沢市芳斉2-2-24",
        "lat": 36.571518,
        "lng": 136.649252
    },
    {
        "code": "A117320100161",
        "type": 16011,
        "name": "清泉幼稚園",
        "address": "金沢市橋場町13-17",
        "lat": 36.569223,
        "lng": 136.667748
    },
    {
        "code": "A117320100170",
        "type": 16011,
        "name": "川上幼稚園",
        "address": "金沢市幸町17-34",
        "lat": 36.553243,
        "lng": 136.659158
    },
    {
        "code": "A117320100189",
        "type": 16011,
        "name": "愛香南部幼稚園",
        "address": "金沢市泉が丘1-16-8",
        "lat": 36.544577,
        "lng": 136.646198
    },
    {
        "code": "A117320100198",
        "type": 16011,
        "name": "聖ヨゼフ幼稚園",
        "address": "金沢市広坂1-1-54",
        "lat": 36.561537,
        "lng": 136.6553
    },
    {
        "code": "A117320100205",
        "type": 16011,
        "name": "金沢めぐみ幼稚園",
        "address": "金沢市笠舞2-6-28",
        "lat": 36.551456,
        "lng": 136.66905
    },
    {
        "code": "A117320100214",
        "type": 16011,
        "name": "妙源寺幼稚園",
        "address": "金沢市光が丘2-119",
        "lat": 36.516731,
        "lng": 136.628551
    },
    {
        "code": "A117320100223",
        "type": 16011,
        "name": "メロン幼稚園",
        "address": "金沢市福久町ﾙの1-1",
        "lat": 36.616745,
        "lng": 136.676693
    },
    {
        "code": "A117320100232",
        "type": 16011,
        "name": "第二かわい幼稚園",
        "address": "金沢市入江1-203-1",
        "lat": 36.567265,
        "lng": 136.63222
    },
    {
        "code": "A117320100241",
        "type": 16011,
        "name": "伏見かわい幼稚園",
        "address": "金沢市米泉町5-26",
        "lat": 36.549723,
        "lng": 136.625719
    },
    {
        "code": "A117320100250",
        "type": 16011,
        "name": "みどりかわい幼稚園",
        "address": "金沢市上安原2-130-1",
        "lat": 36.567276,
        "lng": 136.588861
    },
    {
        "code": "A117320100269",
        "type": 16011,
        "name": "明成幼稚園",
        "address": "金沢市寺中町ﾎ29-1",
        "lat": 36.597327,
        "lng": 136.60351
    },
    {
        "code": "A117320100278",
        "type": 16011,
        "name": "金沢星稜大学附属星稜泉野幼稚園",
        "address": "金沢市泉野町6-17-30",
        "lat": 36.542013,
        "lng": 136.648815
    },
    {
        "code": "A117320100287",
        "type": 16011,
        "name": "慶応幼稚園",
        "address": "金沢市金市町ﾛ15",
        "lat": 36.610376,
        "lng": 136.680787
    },
    {
        "code": "A217220100019",
        "type": 16013,
        "name": "保育専門学園附属泉こども園",
        "address": "金沢市泉1-3-63",
        "lat": 36.552073,
        "lng": 136.642984
    },
    {
        "code": "A217320100017",
        "type": 16013,
        "name": "みやこのもりこども園",
        "address": "金沢市材木町13-40",
        "lat": 36.567224,
        "lng": 136.668968
    },
    {
        "code": "A217320100026",
        "type": 16013,
        "name": "さいび園",
        "address": "金沢市長土塀1-2-9",
        "lat": 36.568312,
        "lng": 136.648861
    },
    {
        "code": "A217320100035",
        "type": 16013,
        "name": "認定こども園むつみえんふれんどはうす",
        "address": "金沢市石引2-4-23",
        "lat": 36.554991,
        "lng": 136.66852
    },
    {
        "code": "A217320100044",
        "type": 16013,
        "name": "キッズアカデミー太陽丘こども園",
        "address": "金沢市太陽が丘3-247-1",
        "lat": 36.532132,
        "lng": 136.709715
    },
    {
        "code": "A217320100053",
        "type": 16013,
        "name": "泉の台幼稚舎",
        "address": "金沢市泉野町4-4-3",
        "lat": 36.544874,
        "lng": 136.652553
    },
    {
        "code": "A217320100062",
        "type": 16013,
        "name": "龍雲寺学園・バウデア学舎",
        "address": "金沢市寺町5-12-40",
        "lat": 36.553431,
        "lng": 136.649922
    },
    {
        "code": "A217320100071",
        "type": 16013,
        "name": "すずらん保育園",
        "address": "金沢市西金沢新町266-2",
        "lat": 36.555298,
        "lng": 136.614794
    },
    {
        "code": "A217320100080",
        "type": 16013,
        "name": "ふたつか認定こども園",
        "address": "金沢市北塚町西100-2",
        "lat": 36.573319,
        "lng": 136.597074
    },
    {
        "code": "A217320100099",
        "type": 16013,
        "name": "キッズスクールオオウラ",
        "address": "金沢市大浦町ﾇ75-1",
        "lat": 36.623466,
        "lng": 136.652225
    },
    {
        "code": "A217320100106",
        "type": 16013,
        "name": "東金沢こども園",
        "address": "金沢市三池町145",
        "lat": 36.592726,
        "lng": 136.67403
    },
    {
        "code": "A217320100115",
        "type": 16013,
        "name": "額小鳩こども園",
        "address": "金沢市三十苅町乙156",
        "lat": 36.508642,
        "lng": 136.617948
    },
    {
        "code": "A217320100124",
        "type": 16013,
        "name": "金沢泉丘こども園",
        "address": "金沢市富樫2-5-35",
        "lat": 36.536594,
        "lng": 136.646187
    },
    {
        "code": "A217320100133",
        "type": 16013,
        "name": "額小鳩第二こども園",
        "address": "金沢市三十苅町乙154",
        "lat": 36.508797,
        "lng": 136.618284
    },
    {
        "code": "A217320100142",
        "type": 16013,
        "name": "かもめこども園",
        "address": "金沢市粟崎町ﾀ1-1",
        "lat": 36.618711,
        "lng": 136.622074
    },
    {
        "code": "A217320100151",
        "type": 16013,
        "name": "広岡こども園",
        "address": "金沢市広岡2-8-26",
        "lat": 36.578358,
        "lng": 136.6438
    },
    {
        "code": "A217320100160",
        "type": 16013,
        "name": "大徳学園",
        "address": "金沢市畝田中1-97",
        "lat": 36.592578,
        "lng": 136.612395
    },
    {
        "code": "A217320100179",
        "type": 16013,
        "name": "千坂こども園",
        "address": "金沢市疋田町ﾊ302",
        "lat": 36.603452,
        "lng": 136.676565
    },
    {
        "code": "A217320100188",
        "type": 16013,
        "name": "見真こども園",
        "address": "金沢市弥勒町ｶ112",
        "lat": 36.61446,
        "lng": 136.68777
    },
    {
        "code": "A217320100197",
        "type": 16013,
        "name": "ひがしやまこども園",
        "address": "金沢市東山3-29-22",
        "lat": 36.57662,
        "lng": 136.663565
    },
    {
        "code": "A217320100204",
        "type": 16013,
        "name": "光こども園",
        "address": "金沢市神宮寺1-11-15",
        "lat": 36.582256,
        "lng": 136.668412
    },
    {
        "code": "A217320100213",
        "type": 16013,
        "name": "かみやちこども園",
        "address": "金沢市神谷内町ﾍ29",
        "lat": 36.59855,
        "lng": 136.683726
    },
    {
        "code": "A217320100222",
        "type": 16013,
        "name": "田上こども園",
        "address": "金沢市田上本町4-151",
        "lat": 36.539995,
        "lng": 136.693555
    },
    {
        "code": "A217320100231",
        "type": 16013,
        "name": "聖霊こども園",
        "address": "金沢市長町1-5-30",
        "lat": 36.565469,
        "lng": 136.651025
    },
    {
        "code": "A217320100240",
        "type": 16013,
        "name": "長土塀こども園",
        "address": "金沢市長町3-11-17",
        "lat": 36.567196,
        "lng": 136.646839
    },
    {
        "code": "A217320100259",
        "type": 16013,
        "name": "小立野善隣館こども園",
        "address": "金沢市小立野5-1-5",
        "lat": 36.553621,
        "lng": 136.675634
    },
    {
        "code": "A217320100268",
        "type": 16013,
        "name": "永井善隣館こども園",
        "address": "金沢市菊川2-8-13",
        "lat": 36.55168,
        "lng": 136.66141
    },
    {
        "code": "A217320100277",
        "type": 16013,
        "name": "ミドリ光と風こども園",
        "address": "金沢市南塚町233",
        "lat": 36.568084,
        "lng": 136.59316
    },
    {
        "code": "A217320100286",
        "type": 16013,
        "name": "ミドリの杜こども園",
        "address": "金沢市みどり3-23-2",
        "lat": 36.566865,
        "lng": 136.584164
    },
    {
        "code": "A217320100295",
        "type": 16013,
        "name": "小金こども園",
        "address": "金沢市小坂町ｹ120-4",
        "lat": 36.590985,
        "lng": 136.679507
    },
    {
        "code": "A217320100302",
        "type": 16013,
        "name": "わかばこども園",
        "address": "金沢市西大桑町7-5",
        "lat": 36.540583,
        "lng": 136.67036
    },
    {
        "code": "A217320100311",
        "type": 16013,
        "name": "金沢星稜大学附属星稜幼稚園",
        "address": "金沢市御所町寅27",
        "lat": 36.582114,
        "lng": 136.683205
    },
    {
        "code": "A217320100320",
        "type": 16013,
        "name": "カルメン幼稚園",
        "address": "金沢市三馬3-324",
        "lat": 36.52816,
        "lng": 136.630713
    },
    {
        "code": "A217320100339",
        "type": 16013,
        "name": "兼六こども園",
        "address": "金沢市桜町8-17",
        "lat": 36.56368,
        "lng": 136.674964
    },
    {
        "code": "A217320100348",
        "type": 16013,
        "name": "かさまいこども園",
        "address": "金沢市笠舞2-27-20",
        "lat": 36.550018,
        "lng": 136.67004
    },
    {
        "code": "A217320100357",
        "type": 16013,
        "name": "しらゆり保育園",
        "address": "金沢市西金沢3-508",
        "lat": 36.551731,
        "lng": 136.614481
    },
    {
        "code": "A217320100366",
        "type": 16013,
        "name": "末こども園",
        "address": "金沢市末町21-22",
        "lat": 36.514528,
        "lng": 136.692897
    },
    {
        "code": "A217320100375",
        "type": 16013,
        "name": "すえひろこども園",
        "address": "金沢市三口新町3-19-10",
        "lat": 36.543624,
        "lng": 136.680806
    },
    {
        "code": "A217320100384",
        "type": 16013,
        "name": "桜木幼稚園",
        "address": "金沢市寺町2-12-12",
        "lat": 36.54921,
        "lng": 136.654399
    },
    {
        "code": "A217320100393",
        "type": 16013,
        "name": "金沢幼稚園",
        "address": "金沢市安江町15-52",
        "lat": 36.575421,
        "lng": 136.655082
    },
    {
        "code": "A217320100400",
        "type": 16013,
        "name": "こども園アイリス",
        "address": "金沢市本町1-2-16",
        "lat": 36.574097,
        "lng": 136.651891
    },
    {
        "code": "A217320100419",
        "type": 16013,
        "name": "旭町保育園",
        "address": "金沢市旭町2-13-1",
        "lat": 36.553507,
        "lng": 136.683423
    },
    {
        "code": "A217320100428",
        "type": 16013,
        "name": "平和こども園",
        "address": "金沢市平和町2-6-6",
        "lat": 36.542052,
        "lng": 136.664511
    },
    {
        "code": "A217320100437",
        "type": 16013,
        "name": "めぐみこども園",
        "address": "金沢市平和町2-4-5",
        "lat": 36.542949,
        "lng": 136.665049
    },
    {
        "code": "A217320100446",
        "type": 16013,
        "name": "ひばりキッズガーデン",
        "address": "金沢市額新町2-124",
        "lat": 36.517682,
        "lng": 136.622403
    },
    {
        "code": "A217320100455",
        "type": 16013,
        "name": "めばえ保育園",
        "address": "金沢市八日市3-229",
        "lat": 36.547926,
        "lng": 136.603285
    },
    {
        "code": "A217320100464",
        "type": 16013,
        "name": "正美保育園",
        "address": "金沢市二口町ｲ30",
        "lat": 36.575039,
        "lng": 136.6361
    },
    {
        "code": "A217320100473",
        "type": 16013,
        "name": "あけぼのこども園",
        "address": "金沢市戸水1-12",
        "lat": 36.605532,
        "lng": 136.623763
    },
    {
        "code": "A217320100482",
        "type": 16013,
        "name": "さいねんこども園",
        "address": "金沢市西念3-7-21",
        "lat": 36.587779,
        "lng": 136.637238
    },
    {
        "code": "A217320100491",
        "type": 16013,
        "name": "ニコニコ保育園",
        "address": "金沢市松村2-20",
        "lat": 36.58484,
        "lng": 136.614662
    },
    {
        "code": "A217320100507",
        "type": 16013,
        "name": "犀川保育園",
        "address": "金沢市末町16-30",
        "lat": 36.519727,
        "lng": 136.685856
    },
    {
        "code": "A217320100516",
        "type": 16013,
        "name": "ひがしあさかわこども園",
        "address": "金沢市袋板屋町西29",
        "lat": 36.517309,
        "lng": 136.707907
    },
    {
        "code": "A217320100525",
        "type": 16013,
        "name": "長町幼稚園",
        "address": "金沢市片町2-10-23",
        "lat": 36.562588,
        "lng": 136.6509
    },
    {
        "code": "A217320100534",
        "type": 16013,
        "name": "第一善隣館保育所",
        "address": "金沢市野町3-1-15",
        "lat": 36.553089,
        "lng": 136.647367
    },
    {
        "code": "A217320100543",
        "type": 16013,
        "name": "伏見台保育園Ｎｅｏ",
        "address": "金沢市窪4-511",
        "lat": 36.526215,
        "lng": 136.640782
    },
    {
        "code": "A217320100552",
        "type": 16013,
        "name": "伏見幼稚園",
        "address": "金沢市円光寺3-11-30",
        "lat": 36.532395,
        "lng": 136.644004
    },
    {
        "code": "A217320100561",
        "type": 16013,
        "name": "みはる幼稚園",
        "address": "金沢市割出町435",
        "lat": 36.599722,
        "lng": 136.639638
    },
    {
        "code": "A217320100570",
        "type": 16013,
        "name": "馬場幼稚園",
        "address": "金沢市小橋町4-12",
        "lat": 36.57762,
        "lng": 136.664118
    },
    {
        "code": "A217320100589",
        "type": 16013,
        "name": "まどかこども園",
        "address": "金沢市南森本町ﾛ78-1",
        "lat": 36.62365,
        "lng": 136.688755
    },
    {
        "code": "B117110000012",
        "type": 16001,
        "name": "金沢大学人間社会学域学校教育学類附属小学校",
        "address": "金沢市平和町1-1-15",
        "lat": 36.536697,
        "lng": 136.665847
    },
    {
        "code": "B117220100018",
        "type": 16001,
        "name": "中村町小学校",
        "address": "金沢市中村町26-12",
        "lat": 36.560916,
        "lng": 136.641986
    },
    {
        "code": "B117220100027",
        "type": 16001,
        "name": "十一屋小学校",
        "address": "金沢市十一屋町3-45",
        "lat": 36.54503,
        "lng": 136.660625
    },
    {
        "code": "B117220100036",
        "type": 16001,
        "name": "泉野小学校",
        "address": "金沢市緑が丘4-64",
        "lat": 36.542391,
        "lng": 136.654431
    },
    {
        "code": "B117220100045",
        "type": 16001,
        "name": "小立野小学校",
        "address": "金沢市小立野4-7-7",
        "lat": 36.551585,
        "lng": 136.678373
    },
    {
        "code": "B117220100054",
        "type": 16001,
        "name": "南小立野小学校",
        "address": "金沢市涌波2-5-1",
        "lat": 36.537336,
        "lng": 136.681568
    },
    {
        "code": "B117220100063",
        "type": 16001,
        "name": "長田町小学校",
        "address": "金沢市長田1-5-40",
        "lat": 36.57547,
        "lng": 136.642291
    },
    {
        "code": "B117220100072",
        "type": 16001,
        "name": "諸江町小学校",
        "address": "金沢市北安江2-25-1",
        "lat": 36.589119,
        "lng": 136.647871
    },
    {
        "code": "B117220100081",
        "type": 16001,
        "name": "馬場小学校",
        "address": "金沢市東山3-9-30",
        "lat": 36.574693,
        "lng": 136.665429
    },
    {
        "code": "B117220100090",
        "type": 16001,
        "name": "森山町小学校",
        "address": "金沢市森山2-13-50",
        "lat": 36.578775,
        "lng": 136.667901
    },
    {
        "code": "B117220100107",
        "type": 16001,
        "name": "浅野町小学校",
        "address": "金沢市京町35-1",
        "lat": 36.58208,
        "lng": 136.658873
    },
    {
        "code": "B117220100116",
        "type": 16001,
        "name": "小坂小学校",
        "address": "金沢市小坂町中142",
        "lat": 36.589968,
        "lng": 136.677621
    },
    {
        "code": "B117220100125",
        "type": 16001,
        "name": "千坂小学校",
        "address": "金沢市千木1-125",
        "lat": 36.60566,
        "lng": 136.675677
    },
    {
        "code": "B117220100134",
        "type": 16001,
        "name": "夕日寺小学校",
        "address": "金沢市東長江町に17",
        "lat": 36.577794,
        "lng": 136.692155
    },
    {
        "code": "B117220100143",
        "type": 16001,
        "name": "大浦小学校",
        "address": "金沢市大浦町ﾇ87",
        "lat": 36.623324,
        "lng": 136.653178
    },
    {
        "code": "B117220100152",
        "type": 16001,
        "name": "浅野川小学校",
        "address": "金沢市須崎町ﾁﾉ42",
        "lat": 36.621536,
        "lng": 136.641668
    },
    {
        "code": "B117220100161",
        "type": 16001,
        "name": "鞍月小学校",
        "address": "金沢市南新保町ﾘ27-1",
        "lat": 36.601772,
        "lng": 136.632735
    },
    {
        "code": "B117220100170",
        "type": 16001,
        "name": "粟崎小学校",
        "address": "金沢市粟崎町へ78",
        "lat": 36.621269,
        "lng": 136.624818
    },
    {
        "code": "B117220100189",
        "type": 16001,
        "name": "大野町小学校",
        "address": "金沢市大野町1-15",
        "lat": 36.610353,
        "lng": 136.603321
    },
    {
        "code": "B117220100198",
        "type": 16001,
        "name": "金石町小学校",
        "address": "金沢市金石北4-1-1",
        "lat": 36.608937,
        "lng": 136.598654
    },
    {
        "code": "B117220100205",
        "type": 16001,
        "name": "大徳小学校",
        "address": "金沢市松村6-200",
        "lat": 36.591801,
        "lng": 136.610154
    },
    {
        "code": "B117220100214",
        "type": 16001,
        "name": "戸板小学校",
        "address": "金沢市戸板1-1",
        "lat": 36.579444,
        "lng": 136.62262
    },
    {
        "code": "B117220100223",
        "type": 16001,
        "name": "緑小学校",
        "address": "金沢市みどり1-166",
        "lat": 36.569748,
        "lng": 136.590824
    },
    {
        "code": "B117220100232",
        "type": 16001,
        "name": "押野小学校",
        "address": "金沢市八日市1-176",
        "lat": 36.545873,
        "lng": 136.60936
    },
    {
        "code": "B117220100241",
        "type": 16001,
        "name": "米丸小学校",
        "address": "金沢市東力町二155",
        "lat": 36.565388,
        "lng": 136.620016
    },
    {
        "code": "B117220100250",
        "type": 16001,
        "name": "三馬小学校",
        "address": "金沢市久安6-154",
        "lat": 36.543557,
        "lng": 136.633738
    },
    {
        "code": "B117220100269",
        "type": 16001,
        "name": "富樫小学校",
        "address": "金沢市山科3-6-60",
        "lat": 36.529503,
        "lng": 136.645737
    },
    {
        "code": "B117220100278",
        "type": 16001,
        "name": "額小学校",
        "address": "金沢市額乙丸町ｲ41",
        "lat": 36.510233,
        "lng": 136.621522
    },
    {
        "code": "B117220100287",
        "type": 16001,
        "name": "内川小学校",
        "address": "金沢市別所町ヰ18",
        "lat": 36.504408,
        "lng": 136.676044
    },
    {
        "code": "B117220100296",
        "type": 16001,
        "name": "湯涌小学校",
        "address": "金沢市湯涌荒屋町23",
        "lat": 36.491817,
        "lng": 136.753452
    },
    {
        "code": "B117220100303",
        "type": 16001,
        "name": "田上小学校",
        "address": "金沢市田上の里2-1",
        "lat": 36.546169,
        "lng": 136.692983
    },
    {
        "code": "B117220100312",
        "type": 16001,
        "name": "医王山小学校",
        "address": "金沢市二俣町さ21",
        "lat": 36.555467,
        "lng": 136.759864
    },
    {
        "code": "B117220100321",
        "type": 16001,
        "name": "森本小学校",
        "address": "金沢市南森本町ｲ111",
        "lat": 36.622804,
        "lng": 136.693049
    },
    {
        "code": "B117220100330",
        "type": 16001,
        "name": "不動寺小学校",
        "address": "金沢市不動寺町ｲ33",
        "lat": 36.608495,
        "lng": 136.708507
    },
    {
        "code": "B117220100349",
        "type": 16001,
        "name": "花園小学校",
        "address": "金沢市今町ﾇ34",
        "lat": 36.632602,
        "lng": 136.708173
    },
    {
        "code": "B117220100358",
        "type": 16001,
        "name": "伏見台小学校",
        "address": "金沢市窪5-335",
        "lat": 36.526643,
        "lng": 136.637932
    },
    {
        "code": "B117220100367",
        "type": 16001,
        "name": "扇台小学校",
        "address": "金沢市馬替1-34",
        "lat": 36.523004,
        "lng": 136.62535
    },
    {
        "code": "B117220100376",
        "type": 16001,
        "name": "三和小学校",
        "address": "金沢市矢木1-74",
        "lat": 36.557833,
        "lng": 136.596657
    },
    {
        "code": "B117220100385",
        "type": 16001,
        "name": "木曳野小学校",
        "address": "金沢市木曳野1-1",
        "lat": 36.597811,
        "lng": 136.603866
    },
    {
        "code": "B117220100394",
        "type": 16001,
        "name": "長坂台小学校",
        "address": "金沢市長坂3-14-1",
        "lat": 36.535031,
        "lng": 136.657514
    },
    {
        "code": "B117220100401",
        "type": 16001,
        "name": "新神田小学校",
        "address": "金沢市新神田1-10-58",
        "lat": 36.56511,
        "lng": 136.634653
    },
    {
        "code": "B117220100410",
        "type": 16001,
        "name": "西南部小学校",
        "address": "金沢市八日市出町304",
        "lat": 36.556007,
        "lng": 136.60852
    },
    {
        "code": "B117220100429",
        "type": 16001,
        "name": "米泉小学校",
        "address": "金沢市米泉町4-133-2",
        "lat": 36.545918,
        "lng": 136.628044
    },
    {
        "code": "B117220100438",
        "type": 16001,
        "name": "四十万小学校",
        "address": "金沢市四十万3-186",
        "lat": 36.502617,
        "lng": 136.617462
    },
    {
        "code": "B117220100447",
        "type": 16001,
        "name": "安原小学校",
        "address": "金沢市福増町北1087",
        "lat": 36.566951,
        "lng": 136.579401
    },
    {
        "code": "B117220100456",
        "type": 16001,
        "name": "西小学校",
        "address": "金沢市駅西新町3-15-1",
        "lat": 36.592374,
        "lng": 136.636299
    },
    {
        "code": "B117220100465",
        "type": 16001,
        "name": "中央小学校",
        "address": "金沢市長町1-10-35",
        "lat": 36.566999,
        "lng": 136.650624
    },
    {
        "code": "B117220100474",
        "type": 16001,
        "name": "中央小学校芳斎分校",
        "address": "金沢市芳斉2-3-8",
        "lat": 36.572368,
        "lng": 136.649385
    },
    {
        "code": "B117220100483",
        "type": 16001,
        "name": "三谷小学校",
        "address": "金沢市宮野町ﾆ277",
        "lat": 36.596499,
        "lng": 136.735948
    },
    {
        "code": "B117220100492",
        "type": 16001,
        "name": "明成小学校",
        "address": "金沢市瓢箪町5-48",
        "lat": 36.576968,
        "lng": 136.65705
    },
    {
        "code": "B117220100508",
        "type": 16001,
        "name": "杜の里小学校",
        "address": "金沢市若松町3-282",
        "lat": 36.557547,
        "lng": 136.686277
    },
    {
        "code": "B117220100517",
        "type": 16001,
        "name": "泉小学校",
        "address": "金沢市弥生1-26-1",
        "lat": 36.548486,
        "lng": 136.645492
    },
    {
        "code": "B117220100526",
        "type": 16001,
        "name": "兼六小学校",
        "address": "金沢市兼六元町7-15",
        "lat": 36.565527,
        "lng": 136.666179
    },
    {
        "code": "B117220100535",
        "type": 16001,
        "name": "犀桜小学校",
        "address": "金沢市菊川1-2-15",
        "lat": 36.549946,
        "lng": 136.661847
    },
    {
        "code": "B117220100544",
        "type": 16001,
        "name": "犀川小学校",
        "address": "金沢市末町2-148",
        "lat": 36.511645,
        "lng": 136.698066
    },
    {
        "code": "B117320100016",
        "type": 16001,
        "name": "北陸学院小学校",
        "address": "金沢市三小牛町ｲ11",
        "lat": 36.51795,
        "lng": 136.671874
    },
    {
        "code": "C117110000010",
        "type": 16002,
        "name": "金沢大学人間社会学域学校教育学類附属中学校",
        "address": "金沢市平和町1-1-15",
        "lat": 36.537697,
        "lng": 136.665569
    },
    {
        "code": "C117220100016",
        "type": 16002,
        "name": "泉中学校",
        "address": "金沢市弥生1-26-1",
        "lat": 36.548668,
        "lng": 136.645876
    },
    {
        "code": "C117220100025",
        "type": 16002,
        "name": "野田中学校",
        "address": "金沢市若草町1-23",
        "lat": 36.544224,
        "lng": 136.657486
    },
    {
        "code": "C117220100034",
        "type": 16002,
        "name": "城南中学校",
        "address": "金沢市城南1-24-1",
        "lat": 36.543669,
        "lng": 136.674374
    },
    {
        "code": "C117220100043",
        "type": 16002,
        "name": "紫錦台中学校",
        "address": "金沢市飛梅町3-30",
        "lat": 36.558308,
        "lng": 136.668329
    },
    {
        "code": "C117220100052",
        "type": 16002,
        "name": "兼六中学校",
        "address": "金沢市田井町12-12",
        "lat": 36.5595,
        "lng": 136.680178
    },
    {
        "code": "C117220100061",
        "type": 16002,
        "name": "小将町中学校",
        "address": "金沢市小将町1-15",
        "lat": 36.564361,
        "lng": 136.664874
    },
    {
        "code": "C117220100070",
        "type": 16002,
        "name": "小将町中学校特学分校",
        "address": "金沢市小将町1-15",
        "lat": 36.564333,
        "lng": 136.664874
    },
    {
        "code": "C117220100089",
        "type": 16002,
        "name": "鳴和中学校",
        "address": "金沢市鳴和2-10-60",
        "lat": 36.587385,
        "lng": 136.671011
    },
    {
        "code": "C117220100098",
        "type": 16002,
        "name": "長田中学校",
        "address": "金沢市二宮町1-1",
        "lat": 36.58543,
        "lng": 136.629366
    },
    {
        "code": "C117220100105",
        "type": 16002,
        "name": "浅野川中学校",
        "address": "金沢市諸江町下丁388",
        "lat": 36.602716,
        "lng": 136.649234
    },
    {
        "code": "C117220100114",
        "type": 16002,
        "name": "金石中学校",
        "address": "金沢市金石東1-13-1",
        "lat": 36.600827,
        "lng": 136.596877
    },
    {
        "code": "C117220100123",
        "type": 16002,
        "name": "芝原中学校",
        "address": "金沢市湯涌荒屋町23",
        "lat": 36.491789,
        "lng": 136.753448
    },
    {
        "code": "C117220100132",
        "type": 16002,
        "name": "西南部中学校",
        "address": "金沢市新保本1-149",
        "lat": 36.552667,
        "lng": 136.606129
    },
    {
        "code": "C117220100141",
        "type": 16002,
        "name": "内川中学校",
        "address": "金沢市別所町ヰ18",
        "lat": 36.50434,
        "lng": 136.675985
    },
    {
        "code": "C117220100150",
        "type": 16002,
        "name": "医王山中学校",
        "address": "金沢市金沢市二俣町さ21",
        "lat": 36.555448,
        "lng": 136.759864
    },
    {
        "code": "C117220100169",
        "type": 16002,
        "name": "森本中学校",
        "address": "金沢市弥勒町ﾖ22",
        "lat": 36.615331,
        "lng": 136.691567
    },
    {
        "code": "C117220100178",
        "type": 16002,
        "name": "額中学校",
        "address": "金沢市額乙丸町ｲ7",
        "lat": 36.510677,
        "lng": 136.623036
    },
    {
        "code": "C117220100187",
        "type": 16002,
        "name": "高岡中学校",
        "address": "金沢市新神田1-10-1",
        "lat": 36.565388,
        "lng": 136.635681
    },
    {
        "code": "C117220100196",
        "type": 16002,
        "name": "高尾台中学校",
        "address": "金沢市高尾台1-128",
        "lat": 36.522976,
        "lng": 136.634349
    },
    {
        "code": "C117220100203",
        "type": 16002,
        "name": "緑中学校",
        "address": "金沢市みどり2-3",
        "lat": 36.570581,
        "lng": 136.584464
    },
    {
        "code": "C117220100212",
        "type": 16002,
        "name": "港中学校",
        "address": "金沢市近岡町217",
        "lat": 36.609826,
        "lng": 136.628096
    },
    {
        "code": "C117220100221",
        "type": 16002,
        "name": "北鳴中学校",
        "address": "金沢市小坂町北95",
        "lat": 36.595301,
        "lng": 136.676371
    },
    {
        "code": "C117220100230",
        "type": 16002,
        "name": "大徳中学校",
        "address": "金沢市観音堂町ﾄ35",
        "lat": 36.590106,
        "lng": 136.607238
    },
    {
        "code": "C117220100249",
        "type": 16002,
        "name": "犀生中学校",
        "address": "金沢市末町10-4",
        "lat": 36.514617,
        "lng": 136.699816
    },
    {
        "code": "C117220100258",
        "type": 16002,
        "name": "清泉中学校",
        "address": "金沢市泉本町3-3",
        "lat": 36.548001,
        "lng": 136.635765
    },
    {
        "code": "C117220100267",
        "type": 16002,
        "name": "金沢錦丘中学校",
        "address": "金沢市窪6-218",
        "lat": 36.530142,
        "lng": 136.641037
    },
    {
        "code": "C117320100014",
        "type": 16002,
        "name": "北陸学院中学校",
        "address": "金沢市飛梅町1-10",
        "lat": 36.559504,
        "lng": 136.666865
    },
    {
        "code": "C117320100023",
        "type": 16002,
        "name": "星稜中学校",
        "address": "金沢市小坂町南206",
        "lat": 36.584078,
        "lng": 136.682899
    },
    {
        "code": "D117110000018",
        "type": 16004,
        "name": "金沢大学人間社会学域学校教育学類附属高等学校",
        "address": "金沢市平和町1-1-15",
        "lat": 36.538697,
        "lng": 136.664347
    },
    {
        "code": "D117220100014",
        "type": 16004,
        "name": "金沢錦丘高等学校",
        "address": "金沢市窪6-218",
        "lat": 36.530337,
        "lng": 136.641654
    },
    {
        "code": "D117220100023",
        "type": 16004,
        "name": "金沢泉丘高等学校",
        "address": "金沢市泉野出町3-10-10",
        "lat": 36.538141,
        "lng": 136.648931
    },
    {
        "code": "D117220100032",
        "type": 16004,
        "name": "金沢二水高等学校",
        "address": "金沢市緑が丘20-15",
        "lat": 36.54103,
        "lng": 136.658486
    },
    {
        "code": "D117220100041",
        "type": 16004,
        "name": "金沢伏見高等学校",
        "address": "金沢市米泉町5-85",
        "lat": 36.549195,
        "lng": 136.627877
    },
    {
        "code": "D117220100050",
        "type": 16004,
        "name": "金沢商業高等学校",
        "address": "金沢市小立野5-4-1",
        "lat": 36.553196,
        "lng": 136.679206
    },
    {
        "code": "D117220100069",
        "type": 16004,
        "name": "石川県立工業高等学校",
        "address": "金沢市本多町2-3-6",
        "lat": 36.556056,
        "lng": 136.662235
    },
    {
        "code": "D117220100078",
        "type": 16004,
        "name": "金沢桜丘高等学校",
        "address": "金沢市大樋町16-1",
        "lat": 36.583442,
        "lng": 136.679066
    },
    {
        "code": "D117220100087",
        "type": 16004,
        "name": "金沢北陵高等学校",
        "address": "金沢市吉原町ﾜ21",
        "lat": 36.606994,
        "lng": 136.692147
    },
    {
        "code": "D117220100096",
        "type": 16004,
        "name": "金沢中央高等学校",
        "address": "金沢市泉本町6-105",
        "lat": 36.554056,
        "lng": 136.638876
    },
    {
        "code": "D117220100103",
        "type": 16004,
        "name": "金沢向陽高等学校",
        "address": "金沢市大場町東590",
        "lat": 36.623964,
        "lng": 136.687564
    },
    {
        "code": "D117220100112",
        "type": 16004,
        "name": "金沢市立工業高等学校",
        "address": "金沢市畝田東1-1-1",
        "lat": 36.591856,
        "lng": 136.615709
    },
    {
        "code": "D117220100121",
        "type": 16004,
        "name": "金沢西高等学校",
        "address": "金沢市畝田東3-526",
        "lat": 36.596393,
        "lng": 136.617927
    },
    {
        "code": "D117220100130",
        "type": 16004,
        "name": "金沢辰巳丘高等学校",
        "address": "金沢市末町ﾆ18",
        "lat": 36.519684,
        "lng": 136.691619
    },
    {
        "code": "D117320100012",
        "type": 16004,
        "name": "金沢高等学校",
        "address": "金沢市泉本町3-111",
        "lat": 36.550612,
        "lng": 136.635682
    },
    {
        "code": "D117320100021",
        "type": 16004,
        "name": "金沢学院高等学校",
        "address": "金沢市末町10",
        "lat": 36.513721,
        "lng": 136.695898
    },
    {
        "code": "D117320100030",
        "type": 16004,
        "name": "遊学館高等学校",
        "address": "金沢市本多町2-2-3",
        "lat": 36.555445,
        "lng": 136.661096
    },
    {
        "code": "D117320100049",
        "type": 16004,
        "name": "金沢龍谷高等学校",
        "address": "金沢市上安原町169-1",
        "lat": 36.566026,
        "lng": 136.585991
    },
    {
        "code": "D117320100058",
        "type": 16004,
        "name": "北陸学院高等学校",
        "address": "金沢市飛梅町1-10",
        "lat": 36.559479,
        "lng": 136.666865
    },
    {
        "code": "D117320100067",
        "type": 16004,
        "name": "星稜高等学校",
        "address": "金沢市小坂町南206",
        "lat": 36.584053,
        "lng": 136.682899
    },
    {
        "code": "E117110000015",
        "type": 16012,
        "name": "金沢大学人間社会学域学校教育学類附属特別支援学校",
        "address": "金沢市東兼六町2-10",
        "lat": 36.562775,
        "lng": 136.666039
    },
    {
        "code": "E117220100011",
        "type": 16012,
        "name": "石川県立盲学校",
        "address": "金沢市小立野5-3-1",
        "lat": 36.553279,
        "lng": 136.677456
    },
    {
        "code": "E117220100020",
        "type": 16012,
        "name": "ろう学校",
        "address": "金沢市窪6-218",
        "lat": 36.529337,
        "lng": 136.642043
    },
    {
        "code": "E117220100039",
        "type": 16012,
        "name": "医王特別支援学校",
        "address": "金沢市岩出町ﾎ1",
        "lat": 36.611577,
        "lng": 136.70223
    },
    {
        "code": "E117220100048",
        "type": 16012,
        "name": "いしかわ特別支援学校",
        "address": "金沢市南森本町ﾘ1-1",
        "lat": 36.614299,
        "lng": 136.694808
    },
    {
        "code": "F117110105393",
        "type": 16007,
        "name": "金沢大学",
        "address": "金沢市角間町",
        "lat": 36.548761,
        "lng": 136.710953
    },
    {
        "code": "F117210105435",
        "type": 16007,
        "name": "金沢美術工芸大学",
        "address": "金沢市小立野5-11-1",
        "lat": 36.556279,
        "lng": 136.677179
    },
    {
        "code": "F117310105451",
        "type": 16007,
        "name": "金沢星稜大学",
        "address": "金沢市御所町丑10-1",
        "lat": 36.583664,
        "lng": 136.682177
    },
    {
        "code": "F117310105488",
        "type": 16007,
        "name": "北陸大学",
        "address": "金沢市太陽が丘1-1",
        "lat": 36.524936,
        "lng": 136.707585
    },
    {
        "code": "F117310105497",
        "type": 16007,
        "name": "金沢学院大学",
        "address": "金沢市末町10-5",
        "lat": 36.517306,
        "lng": 136.694705
    },
    {
        "code": "F117310105512",
        "type": 16007,
        "name": "北陸学院大学",
        "address": "金沢市三小牛町ｲ11",
        "lat": 36.517785,
        "lng": 136.670875
    },
    {
        "code": "F217310105539",
        "type": 16006,
        "name": "金沢学院短期大学",
        "address": "金沢市末町10",
        "lat": 36.517672,
        "lng": 136.694872
    },
    {
        "code": "F217310105548",
        "type": 16006,
        "name": "北陸学院大学短期大学部",
        "address": "金沢市三小牛町ｲ11",
        "lat": 36.517811,
        "lng": 136.670624
    },
    {
        "code": "F217310105566",
        "type": 16006,
        "name": "金沢星稜大学女子短期大学部",
        "address": "金沢市御所町丑10-1",
        "lat": 36.583219,
        "lng": 136.682665
    },
    {
        "code": "G117310105583",
        "type": 16005,
        "name": "国際高等専門学校",
        "address": "金沢市久安2-270",
        "lat": 36.532702,
        "lng": 136.629319
    },
    {
        "code": "H117220100015",
        "type": 16016,
        "name": "石川県立保育専門学園",
        "address": "金沢市泉1-3-63",
        "lat": 36.551884,
        "lng": 136.642767
    },
    {
        "code": "H117220100024",
        "type": 16016,
        "name": "石川県立総合看護専門学校",
        "address": "金沢市鞍月東2-1",
        "lat": 36.595053,
        "lng": 136.630949
    },
    {
        "code": "H117320100013",
        "type": 16016,
        "name": "金沢文化服装学院",
        "address": "金沢市清川町1-5",
        "lat": 36.556267,
        "lng": 136.650979
    },
    {
        "code": "H117320100022",
        "type": 16016,
        "name": "金沢美専",
        "address": "金沢市南町6-12",
        "lat": 36.565701,
        "lng": 136.654018
    },
    {
        "code": "H117320100031",
        "type": 16016,
        "name": "北信越柔整専門学校",
        "address": "金沢市山の上町5-5-2",
        "lat": 36.578255,
        "lng": 136.669968
    },
    {
        "code": "H117320100040",
        "type": 16016,
        "name": "金沢調理師専門学校",
        "address": "金沢市三社町11-21",
        "lat": 36.570668,
        "lng": 136.643089
    },
    {
        "code": "H117320100059",
        "type": 16016,
        "name": "石川県調理師専門学校",
        "address": "金沢市油車9",
        "lat": 36.558036,
        "lng": 136.656716
    },
    {
        "code": "H117320100068",
        "type": 16016,
        "name": "石川県理容美容専門学校",
        "address": "金沢市三社町11-23",
        "lat": 36.570112,
        "lng": 136.643239
    },
    {
        "code": "H117320100077",
        "type": 16016,
        "name": "石川県歯科医師会立歯科医療専門学校",
        "address": "金沢市神宮寺3-20-5",
        "lat": 36.584547,
        "lng": 136.66539
    },
    {
        "code": "H117320100086",
        "type": 16016,
        "name": "ファースト学園金沢校",
        "address": "金沢市北安江1-6-27",
        "lat": 36.582297,
        "lng": 136.649588
    },
    {
        "code": "H117320100095",
        "type": 16016,
        "name": "大原簿記法律観光専門学校金沢校",
        "address": "金沢市広岡1-1-15",
        "lat": 36.578421,
        "lng": 136.64537
    },
    {
        "code": "H117320100102",
        "type": 16016,
        "name": "北陸デザイナー専門学校",
        "address": "金沢市尾山町5-15",
        "lat": 36.569361,
        "lng": 136.655381
    },
    {
        "code": "H117320100111",
        "type": 16016,
        "name": "金沢科学技術大学校",
        "address": "金沢市三社町11-16",
        "lat": 36.57102,
        "lng": 136.643418
    },
    {
        "code": "H117320100120",
        "type": 16016,
        "name": "金沢製菓調理専門学校",
        "address": "金沢市長町2-5-30",
        "lat": 36.564702,
        "lng": 136.648147
    },
    {
        "code": "H117320100139",
        "type": 16016,
        "name": "金沢医療技術専門学校",
        "address": "金沢市堀川新町7-1",
        "lat": 36.581486,
        "lng": 136.651786
    },
    {
        "code": "H117320100148",
        "type": 16016,
        "name": "金沢福祉専門学校",
        "address": "金沢市久安3-430",
        "lat": 36.536941,
        "lng": 136.630658
    },
    {
        "code": "H117320100157",
        "type": 16016,
        "name": "金沢看護専門学校",
        "address": "金沢市小坂町北62-1",
        "lat": 36.594307,
        "lng": 136.675441
    },
    {
        "code": "H117320100166",
        "type": 16016,
        "name": "金沢国際専門学校",
        "address": "金沢市駅西本町1-1518",
        "lat": 36.579637,
        "lng": 136.640124
    },
    {
        "code": "H117320100175",
        "type": 16016,
        "name": "アリス学園",
        "address": "金沢市円光寺本町8-50",
        "lat": 36.531878,
        "lng": 136.641551
    },
    {
        "code": "H117320100184",
        "type": 16016,
        "name": "大原情報デザインアート専門学校金沢校",
        "address": "金沢市広岡1-1-15",
        "lat": 36.578267,
        "lng": 136.645277
    },
    {
        "code": "H117320100193",
        "type": 16016,
        "name": "金沢リハビリテーションアカデミー",
        "address": "金沢市清川町2-10",
        "lat": 36.555548,
        "lng": 136.651642
    },
    {
        "code": "H117320100200",
        "type": 16016,
        "name": "金沢ウエディング・ビューティー専門学校",
        "address": "金沢市広岡1-1-15",
        "lat": 36.578206,
        "lng": 136.645235
    },
    {
        "code": "H117320100219",
        "type": 16016,
        "name": "スーパースイーツ製菓専門学校",
        "address": "金沢市南町6-12",
        "lat": 36.565685,
        "lng": 136.654164
    },
    {
        "code": "H117320100228",
        "type": 16016,
        "name": "大原医療福祉・製菓＆スポーツ専門学校",
        "address": "金沢市広岡1-1-15",
        "lat": 36.578328,
        "lng": 136.645324
    },
    {
        "code": "H117320100237",
        "type": 16016,
        "name": "国際ホテル＆ブライダル専門学校",
        "address": "金沢市南町6-12",
        "lat": 36.565619,
        "lng": 136.654088
    },
    {
        "code": "H117320100246",
        "type": 16016,
        "name": "金沢医療センター附属金沢看護学校",
        "address": "金沢市下石引町1-1",
        "lat": 36.560356,
        "lng": 136.666718
    },
    {
        "code": "H217320100012",
        "type": 16015,
        "name": "泉丘文化服装学院",
        "address": "金沢市寺町2-7-10",
        "lat": 36.548748,
        "lng": 136.656114
    },
    {
        "code": "H217320100021",
        "type": 16015,
        "name": "石川高等編物学校",
        "address": "金沢市尾山町5-7",
        "lat": 36.569357,
        "lng": 136.655374
    },
    {
        "code": "H217320100030",
        "type": 16015,
        "name": "青木クッキングスクール",
        "address": "金沢市長町1-1-17",
        "lat": 36.562993,
        "lng": 136.650762
    },
    {
        "code": "H217320100049",
        "type": 16015,
        "name": "大徳自動車学校",
        "address": "金沢市松村5-96",
        "lat": 36.590826,
        "lng": 136.611893
    },
    {
        "code": "H217320100058",
        "type": 16015,
        "name": "東部自動車学校",
        "address": "金沢市横枕町ﾛ8",
        "lat": 36.606133,
        "lng": 136.680329
    },
    {
        "code": "H217320100067",
        "type": 16015,
        "name": "ドライビングスクールエクシール城東",
        "address": "金沢市松寺町申100",
        "lat": 36.605071,
        "lng": 136.658684
    },
    {
        "code": "H217320100076",
        "type": 16015,
        "name": "金沢中央予備校",
        "address": "金沢市笠市町7-8",
        "lat": 36.578323,
        "lng": 136.653957
    },
    {
        "code": "H217320100085",
        "type": 16015,
        "name": "金沢駅西予備校",
        "address": "金沢市駅西本町1-1-31",
        "lat": 36.578597,
        "lng": 136.64043
    },
    {
        "code": "H217320100094",
        "type": 16015,
        "name": "かなざわ和裁学院",
        "address": "金沢市松島3-70",
        "lat": 36.565972,
        "lng": 136.603177
    }
]