[
    {
        "code": "A217320900019",
        "type": 16013,
        "name": "木津幼稚園",
        "address": "かほく市木津ﾆ132-甲地",
        "lat": 36.747907,
        "lng": 136.705886
    },
    {
        "code": "A217320900028",
        "type": 16013,
        "name": "台こども園",
        "address": "かほく市学園台5-18",
        "lat": 36.780567,
        "lng": 136.729856
    },
    {
        "code": "A217320900037",
        "type": 16013,
        "name": "うのけ幼稚園",
        "address": "かほく市宇野気ﾆ15",
        "lat": 36.718118,
        "lng": 136.704974
    },
    {
        "code": "B117220900010",
        "type": 16001,
        "name": "高松小学校",
        "address": "かほく市高松ﾔ10",
        "lat": 36.769141,
        "lng": 136.719307
    },
    {
        "code": "B117220900029",
        "type": 16001,
        "name": "大海小学校",
        "address": "かほく市夏栗ﾛ-10",
        "lat": 36.778612,
        "lng": 136.747554
    },
    {
        "code": "B117220900038",
        "type": 16001,
        "name": "七塚小学校",
        "address": "かほく市木津ﾎ61-1",
        "lat": 36.747635,
        "lng": 136.701559
    },
    {
        "code": "B117220900047",
        "type": 16001,
        "name": "外日角小学校",
        "address": "かほく市外日角ﾆ52",
        "lat": 36.723777,
        "lng": 136.691569
    },
    {
        "code": "B117220900056",
        "type": 16001,
        "name": "宇ノ気小学校",
        "address": "かほく市宇野気ﾘ147",
        "lat": 36.71966,
        "lng": 136.704015
    },
    {
        "code": "B117220900065",
        "type": 16001,
        "name": "金津小学校",
        "address": "かほく市谷ｶ-30",
        "lat": 36.741451,
        "lng": 136.725279
    },
    {
        "code": "C117220900018",
        "type": 16002,
        "name": "高松中学校",
        "address": "かほく市高松ﾔ42",
        "lat": 36.767336,
        "lng": 136.721251
    },
    {
        "code": "C117220900027",
        "type": 16002,
        "name": "河北台中学校",
        "address": "かほく市遠塚ﾛ47-1",
        "lat": 36.734783,
        "lng": 136.703188
    },
    {
        "code": "C117220900036",
        "type": 16002,
        "name": "宇ノ気中学校",
        "address": "かほく市森ﾚ1",
        "lat": 36.723731,
        "lng": 136.705921
    },
    {
        "code": "F117210105444",
        "type": 16007,
        "name": "石川県立看護大学",
        "address": "かほく市学園台1-1",
        "lat": 36.780823,
        "lng": 136.733828
    },
    {
        "code": "H217320900014",
        "type": 16015,
        "name": "太陽自動車学校",
        "address": "かほく市七窪ｦ-3",
        "lat": 36.732502,
        "lng": 136.706005
    }
]