[
    {
        "code": "A117336500010",
        "type": 16011,
        "name": "誠美幼稚園",
        "address": "河北郡内灘町鶴ヶ丘1-52",
        "lat": 36.638817,
        "lng": 136.639873
    },
    {
        "code": "A217336500019",
        "type": 16013,
        "name": "千鳥台幼稚舎",
        "address": "河北郡内灘町字千鳥台4-143",
        "lat": 36.639272,
        "lng": 136.626135
    },
    {
        "code": "A217336500028",
        "type": 16013,
        "name": "向陽台保育園",
        "address": "河北郡内灘町字向陽台1-145-1",
        "lat": 36.637931,
        "lng": 136.634051
    },
    {
        "code": "A217336500037",
        "type": 16013,
        "name": "白帆台保育園",
        "address": "河北郡内灘町白帆台2-130",
        "lat": 36.672771,
        "lng": 136.657646
    },
    {
        "code": "A217336500046",
        "type": 16013,
        "name": "誠美幼稚園",
        "address": "河北郡内灘町鶴ｹ丘1-52",
        "lat": 36.638878,
        "lng": 136.639795
    },
    {
        "code": "B117236500010",
        "type": 16001,
        "name": "向粟崎小学校",
        "address": "河北郡内灘町向粟崎2-382",
        "lat": 36.636725,
        "lng": 136.637665
    },
    {
        "code": "B117236500029",
        "type": 16001,
        "name": "鶴ケ丘小学校",
        "address": "河北郡内灘町鶴ヶ丘2-162",
        "lat": 36.643461,
        "lng": 136.642372
    },
    {
        "code": "B117236500038",
        "type": 16001,
        "name": "西荒屋小学校",
        "address": "河北郡内灘町西荒屋ﾊ6-7",
        "lat": 36.678429,
        "lng": 136.667121
    },
    {
        "code": "B117236500047",
        "type": 16001,
        "name": "大根布小学校",
        "address": "河北郡内灘町大根布6-2",
        "lat": 36.649654,
        "lng": 136.645928
    },
    {
        "code": "B117236500056",
        "type": 16001,
        "name": "鶴ヶ丘小学校ハマナス分校",
        "address": "河北郡内灘町大根布と543",
        "lat": 36.650013,
        "lng": 136.638595
    },
    {
        "code": "B117236500065",
        "type": 16001,
        "name": "清湖小学校",
        "address": "河北郡内灘町向陽台2-294",
        "lat": 36.641044,
        "lng": 136.634179
    },
    {
        "code": "B117236500074",
        "type": 16001,
        "name": "白帆台小学校",
        "address": "河北郡内灘町白帆台2-168",
        "lat": 36.674034,
        "lng": 136.657109
    },
    {
        "code": "C117236500018",
        "type": 16002,
        "name": "内灘中学校",
        "address": "河北郡内灘町鶴ヶ丘2-308",
        "lat": 36.645516,
        "lng": 136.644011
    },
    {
        "code": "C117236500027",
        "type": 16002,
        "name": "内灘中学校ハマナス分校",
        "address": "河北郡内灘町大根布と543",
        "lat": 36.649988,
        "lng": 136.638595
    },
    {
        "code": "D117236500016",
        "type": 16004,
        "name": "内灘高等学校",
        "address": "河北郡内灘町字千鳥台3-1",
        "lat": 36.641738,
        "lng": 136.629762
    },
    {
        "code": "F117310105479",
        "type": 16007,
        "name": "金沢医科大学",
        "address": "河北郡内灘町字大学1-1",
        "lat": 36.655431,
        "lng": 136.646483
    }
]