[
    {
        "code": "B117238600015",
        "type": 16001,
        "name": "志雄小学校",
        "address": "羽咋郡宝達志水町子浦ﾂ18",
        "lat": 36.862659,
        "lng": 136.793435
    },
    {
        "code": "B117238600024",
        "type": 16001,
        "name": "樋川小学校",
        "address": "羽咋郡宝達志水町荻島に30",
        "lat": 36.856548,
        "lng": 136.777465
    },
    {
        "code": "B117238600033",
        "type": 16001,
        "name": "押水第一小学校",
        "address": "羽咋郡宝達志水町冬野ｦ2",
        "lat": 36.798055,
        "lng": 136.749776
    },
    {
        "code": "B117238600042",
        "type": 16001,
        "name": "宝達小学校",
        "address": "羽咋郡宝達志水町上田ｷ50",
        "lat": 36.813026,
        "lng": 136.773939
    },
    {
        "code": "B117238600051",
        "type": 16001,
        "name": "相見小学校",
        "address": "羽咋郡宝達志水町麦生ﾄ133",
        "lat": 36.829968,
        "lng": 136.754802
    },
    {
        "code": "C117238600013",
        "type": 16002,
        "name": "宝達中学校",
        "address": "羽咋郡宝達志水町小川ｶ150",
        "lat": 36.818621,
        "lng": 136.756141
    },
    {
        "code": "D117238600011",
        "type": 16004,
        "name": "宝達高等学校",
        "address": "羽咋郡宝達志水町今浜ﾄ80",
        "lat": 36.824497,
        "lng": 136.760412
    }
]