[
    {
        "code": "A117340700010",
        "type": 16011,
        "name": "ひかり幼稚園",
        "address": "鹿島郡中能登町福田ｸ部9",
        "lat": 36.945782,
        "lng": 136.868684
    },
    {
        "code": "A217340700019",
        "type": 16013,
        "name": "とりやのの子ども園",
        "address": "鹿島郡中能登町春木11部38",
        "lat": 36.994887,
        "lng": 136.901594
    },
    {
        "code": "B117240700010",
        "type": 16001,
        "name": "鳥屋小学校",
        "address": "鹿島郡中能登町末坂ﾅ部7",
        "lat": 36.990375,
        "lng": 136.898515
    },
    {
        "code": "B117240700029",
        "type": 16001,
        "name": "鹿島小学校",
        "address": "鹿島郡中能登町芹川ﾁ部95",
        "lat": 36.963765,
        "lng": 136.918789
    },
    {
        "code": "B117240700038",
        "type": 16001,
        "name": "鹿西小学校",
        "address": "鹿島郡中能登町能登部下110-20",
        "lat": 36.962896,
        "lng": 136.865645
    },
    {
        "code": "C117240700018",
        "type": 16002,
        "name": "中能登中学校",
        "address": "鹿島郡中能登町良川け部1-1",
        "lat": 36.972815,
        "lng": 136.889049
    },
    {
        "code": "D117240700016",
        "type": 16004,
        "name": "鹿西高等学校",
        "address": "鹿島郡中能登町能登部上ｦ1",
        "lat": 36.963396,
        "lng": 136.871006
    }
]