[
    {
        "code": "B118210001928",
        "type": 16001,
        "name": "美浜西小学校",
        "address": "三方郡美浜町金山14-1",
        "lat": 35.602718,
        "lng": 135.922983
    },
    {
        "code": "B118210001937",
        "type": 16001,
        "name": "美浜中央小学校",
        "address": "三方郡美浜町河原市8-2",
        "lat": 35.603162,
        "lng": 135.946614
    },
    {
        "code": "B118210001946",
        "type": 16001,
        "name": "美浜東小学校",
        "address": "三方郡美浜町佐田69-4",
        "lat": 35.628965,
        "lng": 135.985332
    },
    {
        "code": "C118210000696",
        "type": 16002,
        "name": "美浜中学校",
        "address": "三方郡美浜町麻生38-10",
        "lat": 35.603896,
        "lng": 135.949275
    },
    {
        "code": "E118210000085",
        "type": 16012,
        "name": "嶺南東特別支援学校",
        "address": "三方郡美浜町気山106",
        "lat": 35.58622,
        "lng": 135.913589
    },
    {
        "code": "H118310000158",
        "type": 16016,
        "name": "若狭医療福祉専門学校",
        "address": "三方郡美浜町大藪7-24-2",
        "lat": 35.592811,
        "lng": 135.912475
    }
]