[
    {
        "code": "B118210001544",
        "type": 16001,
        "name": "三方小学校",
        "address": "三方上中郡若狭町三方50-9",
        "lat": 35.552779,
        "lng": 135.912228
    },
    {
        "code": "B118210001553",
        "type": 16001,
        "name": "明倫小学校",
        "address": "三方上中郡若狭町藤井2-43",
        "lat": 35.535475,
        "lng": 135.907673
    },
    {
        "code": "B118210001562",
        "type": 16001,
        "name": "気山小学校",
        "address": "三方上中郡若狭町気山310-9-1",
        "lat": 35.579221,
        "lng": 135.912589
    },
    {
        "code": "B118210001571",
        "type": 16001,
        "name": "梅の里小学校",
        "address": "三方上中郡若狭町田井23-10-1",
        "lat": 35.559198,
        "lng": 135.868443
    },
    {
        "code": "B118210001580",
        "type": 16001,
        "name": "みそみ小学校",
        "address": "三方上中郡若狭町上野5-6-1",
        "lat": 35.5097,
        "lng": 135.90048
    },
    {
        "code": "B118210001599",
        "type": 16001,
        "name": "鳥羽小学校",
        "address": "三方上中郡若狭町三田26-3-1",
        "lat": 35.5062,
        "lng": 135.870232
    },
    {
        "code": "B118210001606",
        "type": 16001,
        "name": "瓜生小学校",
        "address": "三方上中郡若狭町脇袋7-17",
        "lat": 35.47262,
        "lng": 135.871926
    },
    {
        "code": "B118210001615",
        "type": 16001,
        "name": "熊川小学校",
        "address": "三方上中郡若狭町熊川43-25-1",
        "lat": 35.446207,
        "lng": 135.901035
    },
    {
        "code": "B118210001624",
        "type": 16001,
        "name": "三宅小学校",
        "address": "三方上中郡若狭町井ﾉ口49-11",
        "lat": 35.462594,
        "lng": 135.84912
    },
    {
        "code": "B118210001633",
        "type": 16001,
        "name": "野木小学校",
        "address": "三方上中郡若狭町武生15-7-1",
        "lat": 35.476125,
        "lng": 135.829642
    },
    {
        "code": "C118210000598",
        "type": 16002,
        "name": "三方中学校",
        "address": "三方上中郡若狭町北前川48-10",
        "lat": 35.549946,
        "lng": 135.912561
    },
    {
        "code": "C118210000605",
        "type": 16002,
        "name": "上中中学校",
        "address": "三方上中郡若狭町井ﾉ口55-5-1",
        "lat": 35.460381,
        "lng": 135.854718
    },
    {
        "code": "D118210000195",
        "type": 16004,
        "name": "美方高等学校",
        "address": "三方上中郡若狭町気山114-1-1",
        "lat": 35.586807,
        "lng": 135.911791
    }
]