[
    {
        "code": "B119210000535",
        "type": 16001,
        "name": "高根西小学校",
        "address": "北杜市高根町村山西割1696",
        "lat": 35.822808,
        "lng": 138.405189
    },
    {
        "code": "B119210000544",
        "type": 16001,
        "name": "白州小学校",
        "address": "北杜市白州町白須225",
        "lat": 35.81083,
        "lng": 138.335031
    },
    {
        "code": "B119210000553",
        "type": 16001,
        "name": "武川小学校",
        "address": "北杜市武川町牧原944",
        "lat": 35.782882,
        "lng": 138.381267
    },
    {
        "code": "B119210001295",
        "type": 16001,
        "name": "明野小学校",
        "address": "北杜市明野町上手8418",
        "lat": 35.770776,
        "lng": 138.444788
    },
    {
        "code": "B119210001302",
        "type": 16001,
        "name": "泉小学校",
        "address": "北杜市大泉町谷戸2870",
        "lat": 35.859565,
        "lng": 138.388735
    },
    {
        "code": "B119210001311",
        "type": 16001,
        "name": "小淵沢小学校",
        "address": "北杜市小淵沢町7741",
        "lat": 35.857214,
        "lng": 138.317201
    },
    {
        "code": "B119210001482",
        "type": 16001,
        "name": "須玉小学校",
        "address": "北杜市須玉町若神子200-2",
        "lat": 35.793863,
        "lng": 138.424964
    },
    {
        "code": "B119210001650",
        "type": 16001,
        "name": "長坂小学校",
        "address": "北杜市長坂町長坂上条1603-1",
        "lat": 35.82437,
        "lng": 138.373698
    },
    {
        "code": "B119210001712",
        "type": 16001,
        "name": "高根東小学校",
        "address": "北杜市高根町村山北割1035",
        "lat": 35.835003,
        "lng": 138.421692
    },
    {
        "code": "C119210000230",
        "type": 16002,
        "name": "明野中学校",
        "address": "北杜市明野町上手8342",
        "lat": 35.770732,
        "lng": 138.44264
    },
    {
        "code": "C119210000249",
        "type": 16002,
        "name": "須玉中学校",
        "address": "北杜市須玉町小倉200",
        "lat": 35.796944,
        "lng": 138.432337
    },
    {
        "code": "C119210000258",
        "type": 16002,
        "name": "高根中学校",
        "address": "北杜市高根町村山東割98",
        "lat": 35.83331,
        "lng": 138.41139
    },
    {
        "code": "C119210000267",
        "type": 16002,
        "name": "長坂中学校",
        "address": "北杜市長坂町長坂上条1608",
        "lat": 35.823892,
        "lng": 138.375456
    },
    {
        "code": "C119210000276",
        "type": 16002,
        "name": "泉中学校",
        "address": "北杜市大泉町谷戸2087",
        "lat": 35.859435,
        "lng": 138.381118
    },
    {
        "code": "C119210000285",
        "type": 16002,
        "name": "小淵沢中学校",
        "address": "北杜市小淵沢町732",
        "lat": 35.866851,
        "lng": 138.321644
    },
    {
        "code": "C119210000294",
        "type": 16002,
        "name": "白州中学校",
        "address": "北杜市白州町白須1920",
        "lat": 35.806577,
        "lng": 138.323557
    },
    {
        "code": "C119210000301",
        "type": 16002,
        "name": "武川中学校",
        "address": "北杜市武川町山高1457",
        "lat": 35.784618,
        "lng": 138.373504
    },
    {
        "code": "C119210000819",
        "type": 16002,
        "name": "甲陵中学校",
        "address": "北杜市長坂町長坂上条2003",
        "lat": 35.825107,
        "lng": 138.378483
    },
    {
        "code": "D119210000194",
        "type": 16004,
        "name": "甲陵高等学校",
        "address": "北杜市長坂町長坂上条2003",
        "lat": 35.825383,
        "lng": 138.378002
    },
    {
        "code": "D119210000274",
        "type": 16004,
        "name": "北杜高等学校",
        "address": "北杜市長坂町渋沢1007-19",
        "lat": 35.800024,
        "lng": 138.386247
    },
    {
        "code": "D119310000076",
        "type": 16004,
        "name": "帝京第三高等学校",
        "address": "北杜市小淵沢町2148",
        "lat": 35.863296,
        "lng": 138.310229
    },
    {
        "code": "D119310000110",
        "type": 16004,
        "name": "自然学園高等学校",
        "address": "北杜市須玉町小尾6900",
        "lat": 35.885378,
        "lng": 138.524099
    },
    {
        "code": "H119210000042",
        "type": 16016,
        "name": "専門学校山梨県立農業大学校",
        "address": "北杜市長坂町長坂上条3251",
        "lat": 35.822715,
        "lng": 138.364373
    },
    {
        "code": "H119310000166",
        "type": 16016,
        "name": "ＡＯＢビューティクリエイト専門学校",
        "address": "北杜市小淵沢町2950",
        "lat": 35.877261,
        "lng": 138.318147
    }
]