[
    {
        "code": "A119310000250",
        "type": 16011,
        "name": "塩山カトリック幼稚園",
        "address": "甲州市塩山上於曽1351",
        "lat": 35.707822,
        "lng": 138.732203
    },
    {
        "code": "A219310000302",
        "type": 16013,
        "name": "たんぽぽこども園",
        "address": "甲州市塩山上於曽445-1",
        "lat": 35.705804,
        "lng": 138.725447
    },
    {
        "code": "A219310000311",
        "type": 16013,
        "name": "岩崎保育園",
        "address": "甲州市勝沼町下岩崎1731-3",
        "lat": 35.659877,
        "lng": 138.723953
    },
    {
        "code": "A219310000446",
        "type": 16013,
        "name": "赤尾保育園",
        "address": "甲州市塩山赤尾713-1",
        "lat": 35.70105,
        "lng": 138.736399
    },
    {
        "code": "A219310000455",
        "type": 16013,
        "name": "泉保育園",
        "address": "甲州市塩山上塩後10",
        "lat": 35.70869,
        "lng": 138.721335
    },
    {
        "code": "B119210000036",
        "type": 16001,
        "name": "勝沼小学校",
        "address": "甲州市勝沼町勝沼3099",
        "lat": 35.663256,
        "lng": 138.728686
    },
    {
        "code": "B119210000045",
        "type": 16001,
        "name": "菱山小学校",
        "address": "甲州市勝沼町菱山1066",
        "lat": 35.677089,
        "lng": 138.745742
    },
    {
        "code": "B119210000054",
        "type": 16001,
        "name": "東雲小学校",
        "address": "甲州市勝沼町休息1560-1",
        "lat": 35.676002,
        "lng": 138.717912
    },
    {
        "code": "B119210000063",
        "type": 16001,
        "name": "祝小学校",
        "address": "甲州市勝沼町下岩崎960",
        "lat": 35.656908,
        "lng": 138.722551
    },
    {
        "code": "B119210000072",
        "type": 16001,
        "name": "大和小学校",
        "address": "甲州市大和町初鹿野1679-5",
        "lat": 35.639984,
        "lng": 138.777966
    },
    {
        "code": "B119210000946",
        "type": 16001,
        "name": "塩山南小学校",
        "address": "甲州市塩山上於曽1017",
        "lat": 35.70343,
        "lng": 138.72836
    },
    {
        "code": "B119210000955",
        "type": 16001,
        "name": "塩山北小学校",
        "address": "甲州市塩山千野3421",
        "lat": 35.710808,
        "lng": 138.731387
    },
    {
        "code": "B119210000964",
        "type": 16001,
        "name": "奥野田小学校",
        "address": "甲州市塩山熊野906",
        "lat": 35.690368,
        "lng": 138.730801
    },
    {
        "code": "B119210000973",
        "type": 16001,
        "name": "大藤小学校",
        "address": "甲州市塩山上粟生野492-1",
        "lat": 35.719357,
        "lng": 138.753651
    },
    {
        "code": "B119210000982",
        "type": 16001,
        "name": "神金小学校",
        "address": "甲州市塩山上萩原1518-4",
        "lat": 35.726431,
        "lng": 138.772887
    },
    {
        "code": "B119210001008",
        "type": 16001,
        "name": "玉宮小学校",
        "address": "甲州市塩山竹森3015",
        "lat": 35.732853,
        "lng": 138.745155
    },
    {
        "code": "B119210001017",
        "type": 16001,
        "name": "松里小学校",
        "address": "甲州市塩山小屋敷1378",
        "lat": 35.725519,
        "lng": 138.716544
    },
    {
        "code": "B119210001026",
        "type": 16001,
        "name": "井尻小学校",
        "address": "甲州市塩山上井尻675",
        "lat": 35.713932,
        "lng": 138.71254
    },
    {
        "code": "C119210000025",
        "type": 16002,
        "name": "勝沼中学校",
        "address": "甲州市勝沼町勝沼761-1",
        "lat": 35.665197,
        "lng": 138.724504
    },
    {
        "code": "C119210000034",
        "type": 16002,
        "name": "大和中学校",
        "address": "甲州市大和町初鹿野1643",
        "lat": 35.640245,
        "lng": 138.779919
    },
    {
        "code": "C119210000506",
        "type": 16002,
        "name": "塩山中学校",
        "address": "甲州市塩山下於曽1039-1",
        "lat": 35.701824,
        "lng": 138.728262
    },
    {
        "code": "C119210000515",
        "type": 16002,
        "name": "塩山北中学校",
        "address": "甲州市塩山上粟生野133",
        "lat": 35.722395,
        "lng": 138.751307
    },
    {
        "code": "C119210000533",
        "type": 16002,
        "name": "松里中学校",
        "address": "甲州市塩山小屋敷1",
        "lat": 35.729511,
        "lng": 138.718351
    },
    {
        "code": "D119210000158",
        "type": 16004,
        "name": "塩山高等学校",
        "address": "甲州市塩山三日市場440-1",
        "lat": 35.718749,
        "lng": 138.72792
    }
]