[
    {
        "code": "A119310000045",
        "type": 16011,
        "name": "峡南幼稚園",
        "address": "南巨摩郡富士川町青柳町160",
        "lat": 35.56215,
        "lng": 138.464033
    },
    {
        "code": "A119310000394",
        "type": 16011,
        "name": "鰍沢立正幼稚園",
        "address": "南巨摩郡富士川町1163",
        "lat": 35.546839,
        "lng": 138.461285
    },
    {
        "code": "B119210000296",
        "type": 16001,
        "name": "増穂小学校",
        "address": "南巨摩郡富士川町最勝寺320",
        "lat": 35.563225,
        "lng": 138.457725
    },
    {
        "code": "B119210000303",
        "type": 16001,
        "name": "増穂南小学校",
        "address": "南巨摩郡富士川町小室2618",
        "lat": 35.543087,
        "lng": 138.430895
    },
    {
        "code": "B119210000312",
        "type": 16001,
        "name": "鰍沢小学校",
        "address": "南巨摩郡富士川町鰍沢1172",
        "lat": 35.546782,
        "lng": 138.460642
    },
    {
        "code": "C119210000123",
        "type": 16002,
        "name": "鰍沢中学校",
        "address": "南巨摩郡富士川町鰍沢1187-2",
        "lat": 35.545446,
        "lng": 138.460402
    },
    {
        "code": "C119210000631",
        "type": 16002,
        "name": "増穂中学校",
        "address": "南巨摩郡富士川町天神中條991-1",
        "lat": 35.564363,
        "lng": 138.461919
    },
    {
        "code": "D119210000096",
        "type": 16004,
        "name": "増穂商業高等学校",
        "address": "南巨摩郡富士川町最勝寺1372",
        "lat": 35.556838,
        "lng": 138.456684
    },
    {
        "code": "E119210000100",
        "type": 16012,
        "name": "わかば支援学校ふじかわ分校",
        "address": "南巨摩郡富士川町鰍沢5673-12",
        "lat": 35.514368,
        "lng": 138.45176
    }
]