[
    {
        "code": "A120220300013",
        "type": 16011,
        "name": "ちぐさ幼稚園",
        "address": "上田市塩川2620",
        "lat": 36.36302,
        "lng": 138.300805
    },
    {
        "code": "A120320300011",
        "type": 16011,
        "name": "聖マリア幼稚園",
        "address": "上田市常田2-2-1",
        "lat": 36.395898,
        "lng": 138.254212
    },
    {
        "code": "A120320300020",
        "type": 16011,
        "name": "上田幼稚園",
        "address": "上田市中央西2-8-3",
        "lat": 36.409522,
        "lng": 138.246888
    },
    {
        "code": "A120320300039",
        "type": 16011,
        "name": "大屋幼稚園",
        "address": "上田市大屋40-1",
        "lat": 36.375326,
        "lng": 138.290508
    },
    {
        "code": "A120320300048",
        "type": 16011,
        "name": "上田南幼稚園",
        "address": "上田市上田原1183",
        "lat": 36.387662,
        "lng": 138.223866
    },
    {
        "code": "A120320300057",
        "type": 16011,
        "name": "上田女子短期大学附属幼稚園",
        "address": "上田市下之郷602",
        "lat": 36.369823,
        "lng": 138.21987
    },
    {
        "code": "A120320300066",
        "type": 16011,
        "name": "日向幼稚園",
        "address": "上田市小泉八幡平1335-ｲ",
        "lat": 36.395353,
        "lng": 138.196876
    },
    {
        "code": "A120320300075",
        "type": 16011,
        "name": "上田北幼稚園",
        "address": "上田市大字上野字上野原1616-65",
        "lat": 36.412911,
        "lng": 138.296848
    },
    {
        "code": "A120320300084",
        "type": 16011,
        "name": "おひさまクラブ幼稚園",
        "address": "上田市舞田738-1",
        "lat": 36.368256,
        "lng": 138.176555
    },
    {
        "code": "A120320300093",
        "type": 16011,
        "name": "西望幼稚園",
        "address": "上田市上丸子303",
        "lat": 36.32978,
        "lng": 138.270481
    },
    {
        "code": "A120320300100",
        "type": 16011,
        "name": "いずみ幼稚園",
        "address": "上田市真田町長7042",
        "lat": 36.443789,
        "lng": 138.303347
    },
    {
        "code": "A120320300119",
        "type": 16011,
        "name": "梅花幼稚園",
        "address": "上田市大手2-2-8",
        "lat": 36.402819,
        "lng": 138.251127
    },
    {
        "code": "A120320300128",
        "type": 16011,
        "name": "たちばな幼稚園",
        "address": "上田市中央6-3-3",
        "lat": 36.403262,
        "lng": 138.257901
    },
    {
        "code": "A220320300010",
        "type": 16013,
        "name": "キッズ・うえだみなみ",
        "address": "上田市常田1-4-12",
        "lat": 36.392652,
        "lng": 138.252464
    },
    {
        "code": "A220320300029",
        "type": 16013,
        "name": "芙蓉園",
        "address": "上田市中央北2-7-51",
        "lat": 36.40993,
        "lng": 138.254834
    },
    {
        "code": "A220320300038",
        "type": 16013,
        "name": "幼保連携型認定こども園あそびの森あきわ",
        "address": "上田市秋和864-3",
        "lat": 36.414233,
        "lng": 138.23354
    },
    {
        "code": "A220320300047",
        "type": 16013,
        "name": "幼保連携型認定こども園かんぎおん",
        "address": "上田市常磐城3-7-48",
        "lat": 36.407314,
        "lng": 138.237912
    },
    {
        "code": "A220320300056",
        "type": 16013,
        "name": "幼保連携型認定こども園にしおか",
        "address": "上田市芳田1411-1",
        "lat": 36.38817,
        "lng": 138.296892
    },
    {
        "code": "B120220300011",
        "type": 16001,
        "name": "東小学校",
        "address": "上田市材木町1-10-13",
        "lat": 36.398756,
        "lng": 138.262879
    },
    {
        "code": "B120220300020",
        "type": 16001,
        "name": "西小学校",
        "address": "上田市常磐城5-1-53",
        "lat": 36.410255,
        "lng": 138.243546
    },
    {
        "code": "B120220300039",
        "type": 16001,
        "name": "清明小学校",
        "address": "上田市大手2-4-41",
        "lat": 36.403533,
        "lng": 138.249102
    },
    {
        "code": "B120220300048",
        "type": 16001,
        "name": "北小学校",
        "address": "上田市中央北3-1-52",
        "lat": 36.412616,
        "lng": 138.253879
    },
    {
        "code": "B120220300057",
        "type": 16001,
        "name": "城下小学校",
        "address": "上田市諏訪形928-2",
        "lat": 36.38977,
        "lng": 138.240287
    },
    {
        "code": "B120220300066",
        "type": 16001,
        "name": "塩尻小学校",
        "address": "上田市上塩尻219",
        "lat": 36.41717,
        "lng": 138.218965
    },
    {
        "code": "B120220300075",
        "type": 16001,
        "name": "神科小学校",
        "address": "上田市住吉386-1",
        "lat": 36.408753,
        "lng": 138.285191
    },
    {
        "code": "B120220300084",
        "type": 16001,
        "name": "豊殿小学校",
        "address": "上田市芳田968-1",
        "lat": 36.403423,
        "lng": 138.308097
    },
    {
        "code": "B120220300093",
        "type": 16001,
        "name": "川辺小学校",
        "address": "上田市大字上田原367",
        "lat": 36.394534,
        "lng": 138.213689
    },
    {
        "code": "B120220300100",
        "type": 16001,
        "name": "神川小学校",
        "address": "上田市国分1386",
        "lat": 36.376259,
        "lng": 138.275213
    },
    {
        "code": "B120220300119",
        "type": 16001,
        "name": "南小学校",
        "address": "上田市中之条485",
        "lat": 36.395673,
        "lng": 138.222716
    },
    {
        "code": "B120220300128",
        "type": 16001,
        "name": "川西小学校",
        "address": "上田市大字仁古田508",
        "lat": 36.383395,
        "lng": 138.18147
    },
    {
        "code": "B120220300137",
        "type": 16001,
        "name": "塩田西小学校",
        "address": "上田市山田476-1",
        "lat": 36.351343,
        "lng": 138.175666
    },
    {
        "code": "B120220300146",
        "type": 16001,
        "name": "丸子中央小学校",
        "address": "上田市上丸子824",
        "lat": 36.323904,
        "lng": 138.273187
    },
    {
        "code": "B120220300155",
        "type": 16001,
        "name": "西内小学校",
        "address": "上田市平井1704",
        "lat": 36.30321,
        "lng": 138.161392
    },
    {
        "code": "B120220300164",
        "type": 16001,
        "name": "丸子北小学校",
        "address": "上田市生田3556",
        "lat": 36.349734,
        "lng": 138.277602
    },
    {
        "code": "B120220300173",
        "type": 16001,
        "name": "塩川小学校",
        "address": "上田市塩川1400",
        "lat": 36.355734,
        "lng": 138.305766
    },
    {
        "code": "B120220300182",
        "type": 16001,
        "name": "中塩田小学校",
        "address": "上田市中野93",
        "lat": 36.364148,
        "lng": 138.19958
    },
    {
        "code": "B120220300191",
        "type": 16001,
        "name": "東塩田小学校",
        "address": "上田市古安曽1113",
        "lat": 36.348427,
        "lng": 138.221247
    },
    {
        "code": "B120220300208",
        "type": 16001,
        "name": "長小学校",
        "address": "上田市真田町長4200-3",
        "lat": 36.447448,
        "lng": 138.323328
    },
    {
        "code": "B120220300217",
        "type": 16001,
        "name": "傍陽小学校",
        "address": "上田市真田町傍陽6035-1",
        "lat": 36.45751,
        "lng": 138.291886
    },
    {
        "code": "B120220300226",
        "type": 16001,
        "name": "本原小学校",
        "address": "上田市真田町本原2175-1",
        "lat": 36.428936,
        "lng": 138.308008
    },
    {
        "code": "B120220300235",
        "type": 16001,
        "name": "菅平小学校",
        "address": "上田市菅平高原1223-1419",
        "lat": 36.533009,
        "lng": 138.324456
    },
    {
        "code": "B120220300244",
        "type": 16001,
        "name": "武石小学校",
        "address": "上田市上武石20",
        "lat": 36.281436,
        "lng": 138.230415
    },
    {
        "code": "B120220300253",
        "type": 16001,
        "name": "浦里小学校",
        "address": "上田市浦野237",
        "lat": 36.377507,
        "lng": 138.161278
    },
    {
        "code": "C120220300019",
        "type": 16002,
        "name": "第一中学校",
        "address": "上田市国分200",
        "lat": 36.385952,
        "lng": 138.272768
    },
    {
        "code": "C120220300028",
        "type": 16002,
        "name": "第二中学校",
        "address": "上田市大手1-1-45",
        "lat": 36.402422,
        "lng": 138.247574
    },
    {
        "code": "C120220300037",
        "type": 16002,
        "name": "第三中学校",
        "address": "上田市中央北3-3-62",
        "lat": 36.415143,
        "lng": 138.252684
    },
    {
        "code": "C120220300046",
        "type": 16002,
        "name": "第四中学校",
        "address": "上田市諏訪形1200",
        "lat": 36.392256,
        "lng": 138.23802
    },
    {
        "code": "C120220300055",
        "type": 16002,
        "name": "第五中学校",
        "address": "上田市上野441",
        "lat": 36.406866,
        "lng": 138.291654
    },
    {
        "code": "C120220300064",
        "type": 16002,
        "name": "丸子中学校",
        "address": "上田市上丸子1878",
        "lat": 36.327098,
        "lng": 138.268882
    },
    {
        "code": "C120220300073",
        "type": 16002,
        "name": "丸子北中学校",
        "address": "上田市生田3298",
        "lat": 36.352762,
        "lng": 138.278519
    },
    {
        "code": "C120220300082",
        "type": 16002,
        "name": "塩田中学校",
        "address": "上田市中野377",
        "lat": 36.362009,
        "lng": 138.197525
    },
    {
        "code": "C120220300091",
        "type": 16002,
        "name": "真田中学校",
        "address": "上田市真田町長6326-1",
        "lat": 36.439649,
        "lng": 138.302688
    },
    {
        "code": "C120220300108",
        "type": 16002,
        "name": "菅平中学校",
        "address": "上田市菅平高原1223-1419",
        "lat": 36.533028,
        "lng": 138.324231
    },
    {
        "code": "C120220300117",
        "type": 16002,
        "name": "依田窪南部中学校",
        "address": "上田市下武石111",
        "lat": 36.286769,
        "lng": 138.249274
    },
    {
        "code": "C120220300126",
        "type": 16002,
        "name": "第六中学校",
        "address": "上田市小泉21-1",
        "lat": 36.388673,
        "lng": 138.197302
    },
    {
        "code": "D120220300017",
        "type": 16004,
        "name": "上田高等学校",
        "address": "上田市大手1-4-32",
        "lat": 36.400728,
        "lng": 138.248685
    },
    {
        "code": "D120220300026",
        "type": 16004,
        "name": "上田染谷丘高等学校",
        "address": "上田市上田1710",
        "lat": 36.409122,
        "lng": 138.261208
    },
    {
        "code": "D120220300035",
        "type": 16004,
        "name": "上田東高等学校",
        "address": "上田市常田3-5-68",
        "lat": 36.394979,
        "lng": 138.262796
    },
    {
        "code": "D120220300044",
        "type": 16004,
        "name": "上田千曲高等学校",
        "address": "上田市中之条626",
        "lat": 36.400978,
        "lng": 138.229076
    },
    {
        "code": "D120220300053",
        "type": 16004,
        "name": "丸子修学館高等学校",
        "address": "上田市中丸子810-2",
        "lat": 36.330348,
        "lng": 138.276242
    },
    {
        "code": "D120320300015",
        "type": 16004,
        "name": "上田西高等学校",
        "address": "上田市下塩尻868",
        "lat": 36.41302,
        "lng": 138.206757
    },
    {
        "code": "D120320300024",
        "type": 16004,
        "name": "さくら国際高等学校",
        "address": "上田市手塚1065",
        "lat": 36.345483,
        "lng": 138.17975
    },
    {
        "code": "D120320300033",
        "type": 16004,
        "name": "コードアカデミー高等学校",
        "address": "上田市中央1-2-21",
        "lat": 36.399137,
        "lng": 138.250645
    },
    {
        "code": "E120220300014",
        "type": 16012,
        "name": "上田養護学校",
        "address": "上田市大字岩下462-1",
        "lat": 36.369232,
        "lng": 138.286628
    },
    {
        "code": "F120210105813",
        "type": 16007,
        "name": "長野大学",
        "address": "上田市下之郷658-1",
        "lat": 36.369703,
        "lng": 138.22319
    },
    {
        "code": "F220310105909",
        "type": 16006,
        "name": "上田女子短期大学",
        "address": "上田市大字下之郷乙620",
        "lat": 36.369619,
        "lng": 138.221107
    },
    {
        "code": "H120320300016",
        "type": 16016,
        "name": "信州上田医療センター附属看護学校",
        "address": "上田市緑ｹ丘1-27-21",
        "lat": 36.413997,
        "lng": 138.251973
    },
    {
        "code": "H120320300025",
        "type": 16016,
        "name": "上田情報ビジネス専門学校",
        "address": "上田市中央3-7-5",
        "lat": 36.4033,
        "lng": 138.25369
    },
    {
        "code": "H120320300034",
        "type": 16016,
        "name": "上田総合文化専門学校",
        "address": "上田市中央3-6-2",
        "lat": 36.404164,
        "lng": 138.253859
    },
    {
        "code": "H120320300043",
        "type": 16016,
        "name": "長野医療衛生専門学校",
        "address": "上田市中央2-13-27",
        "lat": 36.398692,
        "lng": 138.253523
    },
    {
        "code": "H120320300052",
        "type": 16016,
        "name": "長野ビジネス外語カレッジ",
        "address": "上田市中央3-5-18",
        "lat": 36.404554,
        "lng": 138.253451
    },
    {
        "code": "H120320300061",
        "type": 16016,
        "name": "上田福祉敬愛学院",
        "address": "上田市2256-1",
        "lat": 36.407834,
        "lng": 138.232311
    },
    {
        "code": "H120320300070",
        "type": 16016,
        "name": "上田看護専門学校",
        "address": "上田市中央2-22-10",
        "lat": 36.399922,
        "lng": 138.259032
    },
    {
        "code": "H220320300015",
        "type": 16015,
        "name": "上田予備学校",
        "address": "上田市中央1-2-21",
        "lat": 36.399098,
        "lng": 138.250702
    }
]