[
    {
        "code": "A120321200010",
        "type": 16011,
        "name": "こまくさ幼稚園",
        "address": "大町市丈町4170-2",
        "lat": 36.507728,
        "lng": 137.854586
    },
    {
        "code": "A220321200019",
        "type": 16013,
        "name": "大町幼稚園",
        "address": "大町市大町2663-1",
        "lat": 36.50519,
        "lng": 137.863586
    },
    {
        "code": "A220321200028",
        "type": 16013,
        "name": "りんどう幼稚園",
        "address": "大町市平5424-1",
        "lat": 36.524308,
        "lng": 137.847013
    },
    {
        "code": "B120221200010",
        "type": 16001,
        "name": "大町西小学校",
        "address": "大町市大町4773-3",
        "lat": 36.506091,
        "lng": 137.850777
    },
    {
        "code": "B120221200029",
        "type": 16001,
        "name": "大町南小学校",
        "address": "大町市常盤3543-1",
        "lat": 36.468596,
        "lng": 137.843834
    },
    {
        "code": "B120221200038",
        "type": 16001,
        "name": "大町東小学校",
        "address": "大町市社6700",
        "lat": 36.495954,
        "lng": 137.868304
    },
    {
        "code": "B120221200047",
        "type": 16001,
        "name": "大町北小学校",
        "address": "大町市大町5806-8",
        "lat": 36.520506,
        "lng": 137.844389
    },
    {
        "code": "B120221200056",
        "type": 16001,
        "name": "八坂小学校",
        "address": "大町市八坂1090",
        "lat": 36.490508,
        "lng": 137.909411
    },
    {
        "code": "C120221200018",
        "type": 16002,
        "name": "第一中学校",
        "address": "大町市大町4528",
        "lat": 36.512285,
        "lng": 137.850305
    },
    {
        "code": "C120221200027",
        "type": 16002,
        "name": "仁科台中学校",
        "address": "大町市大町3759",
        "lat": 36.50087,
        "lng": 137.851472
    },
    {
        "code": "C120221200036",
        "type": 16002,
        "name": "八坂中学校",
        "address": "大町市八坂11648",
        "lat": 36.502581,
        "lng": 137.920651
    },
    {
        "code": "C220221200017",
        "type": 16014,
        "name": "美麻小中学校",
        "address": "大町市美麻27503",
        "lat": 36.579301,
        "lng": 137.893303
    },
    {
        "code": "D120221200016",
        "type": 16004,
        "name": "大町岳陽高等学校",
        "address": "大町市大町3691-2",
        "lat": 36.502898,
        "lng": 137.853694
    }
]