[
    {
        "code": "A120321300019",
        "type": 16011,
        "name": "飯山中央幼稚園",
        "address": "飯山市南町22-17",
        "lat": 36.848904,
        "lng": 138.362067
    },
    {
        "code": "B120221300019",
        "type": 16001,
        "name": "秋津小学校",
        "address": "飯山市大字静間2608",
        "lat": 36.82585,
        "lng": 138.350414
    },
    {
        "code": "B120221300028",
        "type": 16001,
        "name": "飯山小学校",
        "address": "飯山市大字飯山2400",
        "lat": 36.854652,
        "lng": 138.366022
    },
    {
        "code": "B120221300037",
        "type": 16001,
        "name": "常盤小学校",
        "address": "飯山市常盤5228",
        "lat": 36.88987,
        "lng": 138.384853
    },
    {
        "code": "B120221300046",
        "type": 16001,
        "name": "東小学校",
        "address": "飯山市瑞穂413",
        "lat": 36.885816,
        "lng": 138.408601
    },
    {
        "code": "B120221300055",
        "type": 16001,
        "name": "木島小学校",
        "address": "飯山市野坂田484-3",
        "lat": 36.853807,
        "lng": 138.381912
    },
    {
        "code": "B120221300064",
        "type": 16001,
        "name": "戸狩小学校",
        "address": "飯山市豊田4975",
        "lat": 36.921005,
        "lng": 138.386407
    },
    {
        "code": "B120221300073",
        "type": 16001,
        "name": "泉台小学校",
        "address": "飯山市大字旭5339",
        "lat": 36.880037,
        "lng": 138.355523
    },
    {
        "code": "C120221300017",
        "type": 16002,
        "name": "城北中学校",
        "address": "飯山市照里808-1",
        "lat": 36.910053,
        "lng": 138.386452
    },
    {
        "code": "C120221300026",
        "type": 16002,
        "name": "城南中学校",
        "address": "飯山市大字静間1088",
        "lat": 36.835762,
        "lng": 138.348237
    },
    {
        "code": "D120221300015",
        "type": 16004,
        "name": "飯山高等学校",
        "address": "飯山市大字飯山2610",
        "lat": 36.859729,
        "lng": 138.36555
    },
    {
        "code": "E120221300012",
        "type": 16012,
        "name": "飯山養護学校",
        "address": "飯山市大字野坂田字替田220-1",
        "lat": 36.852347,
        "lng": 138.383242
    }
]