[
    {
        "code": "A120321800014",
        "type": 16011,
        "name": "さゆり幼稚園",
        "address": "千曲市磯部931",
        "lat": 36.479428,
        "lng": 138.154125
    },
    {
        "code": "A220321800013",
        "type": 16013,
        "name": "稲荷山くるみこども園",
        "address": "千曲市稲荷山198",
        "lat": 36.531812,
        "lng": 138.102543
    },
    {
        "code": "B120221800014",
        "type": 16001,
        "name": "屋代小学校",
        "address": "千曲市屋代2111",
        "lat": 36.535765,
        "lng": 138.124446
    },
    {
        "code": "B120221800023",
        "type": 16001,
        "name": "東小学校",
        "address": "千曲市森100",
        "lat": 36.53721,
        "lng": 138.149888
    },
    {
        "code": "B120221800032",
        "type": 16001,
        "name": "埴生小学校",
        "address": "千曲市鋳物師屋72",
        "lat": 36.521822,
        "lng": 138.129501
    },
    {
        "code": "B120221800041",
        "type": 16001,
        "name": "治田小学校",
        "address": "千曲市稲荷山1360",
        "lat": 36.528432,
        "lng": 138.09381
    },
    {
        "code": "B120221800050",
        "type": 16001,
        "name": "八幡小学校",
        "address": "千曲市八幡3111",
        "lat": 36.518766,
        "lng": 138.09781
    },
    {
        "code": "B120221800069",
        "type": 16001,
        "name": "上山田小学校",
        "address": "千曲市新山695",
        "lat": 36.46619,
        "lng": 138.148025
    },
    {
        "code": "B120221800078",
        "type": 16001,
        "name": "戸倉小学校",
        "address": "千曲市大字戸倉1756",
        "lat": 36.488355,
        "lng": 138.150831
    },
    {
        "code": "B120221800087",
        "type": 16001,
        "name": "更級小学校",
        "address": "千曲市羽尾1864",
        "lat": 36.495436,
        "lng": 138.118252
    },
    {
        "code": "B120221800096",
        "type": 16001,
        "name": "五加小学校",
        "address": "千曲市大字千本柳351",
        "lat": 36.50613,
        "lng": 138.131973
    },
    {
        "code": "C120221800012",
        "type": 16002,
        "name": "屋代中学校",
        "address": "千曲市屋代810",
        "lat": 36.541404,
        "lng": 138.132501
    },
    {
        "code": "C120221800021",
        "type": 16002,
        "name": "埴生中学校",
        "address": "千曲市桜堂100",
        "lat": 36.523155,
        "lng": 138.122863
    },
    {
        "code": "C120221800030",
        "type": 16002,
        "name": "更埴西中学校",
        "address": "千曲市稲荷山134",
        "lat": 36.528571,
        "lng": 138.099865
    },
    {
        "code": "C120221800049",
        "type": 16002,
        "name": "戸倉上山田中学校",
        "address": "千曲市戸倉2500",
        "lat": 36.491632,
        "lng": 138.146943
    },
    {
        "code": "C120221800058",
        "type": 16002,
        "name": "屋代高等学校附属中学校",
        "address": "千曲市1000",
        "lat": 36.544983,
        "lng": 138.133803
    },
    {
        "code": "D120221800010",
        "type": 16004,
        "name": "屋代高等学校",
        "address": "千曲市屋代1000",
        "lat": 36.544987,
        "lng": 138.133806
    },
    {
        "code": "D120221800029",
        "type": 16004,
        "name": "屋代南高等学校",
        "address": "千曲市大字屋代2104",
        "lat": 36.534737,
        "lng": 138.12503
    },
    {
        "code": "E120221800017",
        "type": 16012,
        "name": "稲荷山養護学校",
        "address": "千曲市野高場1795",
        "lat": 36.538953,
        "lng": 138.107333
    }
]