[
    {
        "code": "A120321700015",
        "type": 16011,
        "name": "カトリック幼稚園",
        "address": "佐久市取出185-1",
        "lat": 36.22076,
        "lng": 138.46664
    },
    {
        "code": "A120321700024",
        "type": 16011,
        "name": "あさま幼稚園",
        "address": "佐久市長土呂1383",
        "lat": 36.281653,
        "lng": 138.466364
    },
    {
        "code": "A120321700033",
        "type": 16011,
        "name": "佐久幼稚園",
        "address": "佐久市猿久保232",
        "lat": 36.257698,
        "lng": 138.484146
    },
    {
        "code": "A120321700042",
        "type": 16011,
        "name": "佐久南幼稚園",
        "address": "佐久市湯原11-1",
        "lat": 36.182325,
        "lng": 138.467186
    },
    {
        "code": "A120321700051",
        "type": 16011,
        "name": "白鳩幼稚園",
        "address": "佐久市協和2322-1",
        "lat": 36.262205,
        "lng": 138.359683
    },
    {
        "code": "A220321700014",
        "type": 16013,
        "name": "浅科幼稚園",
        "address": "佐久市甲1181-8",
        "lat": 36.2681,
        "lng": 138.405298
    },
    {
        "code": "B120221700015",
        "type": 16001,
        "name": "岩村田小学校",
        "address": "佐久市岩村田2641-2",
        "lat": 36.267472,
        "lng": 138.482782
    },
    {
        "code": "B120221700024",
        "type": 16001,
        "name": "平根小学校",
        "address": "佐久市上平尾936",
        "lat": 36.284026,
        "lng": 138.499169
    },
    {
        "code": "B120221700033",
        "type": 16001,
        "name": "中佐都小学校",
        "address": "佐久市塚原808",
        "lat": 36.269721,
        "lng": 138.447841
    },
    {
        "code": "B120221700042",
        "type": 16001,
        "name": "高瀬小学校",
        "address": "佐久市鳴瀬1350-1",
        "lat": 36.254744,
        "lng": 138.438503
    },
    {
        "code": "B120221700051",
        "type": 16001,
        "name": "野沢小学校",
        "address": "佐久市取出町472-3",
        "lat": 36.220948,
        "lng": 138.46934
    },
    {
        "code": "B120221700060",
        "type": 16001,
        "name": "岸野小学校",
        "address": "佐久市伴野1725",
        "lat": 36.24489,
        "lng": 138.42701
    },
    {
        "code": "B120221700079",
        "type": 16001,
        "name": "中込小学校",
        "address": "佐久市中込491",
        "lat": 36.235669,
        "lng": 138.470506
    },
    {
        "code": "B120221700088",
        "type": 16001,
        "name": "佐久城山小学校",
        "address": "佐久市平賀5325-1",
        "lat": 36.227448,
        "lng": 138.493393
    },
    {
        "code": "B120221700097",
        "type": 16001,
        "name": "泉小学校",
        "address": "佐久市三塚273-1",
        "lat": 36.229021,
        "lng": 138.44988
    },
    {
        "code": "B120221700104",
        "type": 16001,
        "name": "東小学校",
        "address": "佐久市志賀6128-1",
        "lat": 36.253509,
        "lng": 138.511098
    },
    {
        "code": "B120221700113",
        "type": 16001,
        "name": "佐久平浅間小学校",
        "address": "佐久市長土呂1717",
        "lat": 36.28102,
        "lng": 138.459042
    },
    {
        "code": "B120221700122",
        "type": 16001,
        "name": "臼田小学校",
        "address": "佐久市臼田264-3",
        "lat": 36.200318,
        "lng": 138.479798
    },
    {
        "code": "B120221700131",
        "type": 16001,
        "name": "青沼小学校",
        "address": "佐久市入澤152-1",
        "lat": 36.179859,
        "lng": 138.491563
    },
    {
        "code": "B120221700140",
        "type": 16001,
        "name": "切原小学校",
        "address": "佐久市中小田切100-1",
        "lat": 36.180332,
        "lng": 138.463766
    },
    {
        "code": "B120221700159",
        "type": 16001,
        "name": "田口小学校",
        "address": "佐久市田口3000-1",
        "lat": 36.195499,
        "lng": 138.501255
    },
    {
        "code": "B120221700168",
        "type": 16001,
        "name": "望月小学校",
        "address": "佐久市協和5229",
        "lat": 36.249859,
        "lng": 138.351545
    },
    {
        "code": "B120221700177",
        "type": 16001,
        "name": "浅科小学校",
        "address": "佐久市甲2003-1",
        "lat": 36.268137,
        "lng": 138.40665
    },
    {
        "code": "C120221700013",
        "type": 16002,
        "name": "浅間中学校",
        "address": "佐久市岩村田1361",
        "lat": 36.272888,
        "lng": 138.466561
    },
    {
        "code": "C120221700022",
        "type": 16002,
        "name": "野沢中学校",
        "address": "佐久市野沢335-1",
        "lat": 36.224793,
        "lng": 138.461111
    },
    {
        "code": "C120221700031",
        "type": 16002,
        "name": "中込中学校",
        "address": "佐久市大字平賀2313",
        "lat": 36.23219,
        "lng": 138.484518
    },
    {
        "code": "C120221700040",
        "type": 16002,
        "name": "東中学校",
        "address": "佐久市新子田1396-1",
        "lat": 36.262978,
        "lng": 138.497399
    },
    {
        "code": "C120221700059",
        "type": 16002,
        "name": "臼田中学校",
        "address": "佐久市下越286-1",
        "lat": 36.199284,
        "lng": 138.484228
    },
    {
        "code": "C120221700068",
        "type": 16002,
        "name": "望月中学校",
        "address": "佐久市協和6925",
        "lat": 36.249415,
        "lng": 138.358683
    },
    {
        "code": "C120221700077",
        "type": 16002,
        "name": "浅科中学校",
        "address": "佐久市八幡150",
        "lat": 36.270442,
        "lng": 138.399373
    },
    {
        "code": "C120321700011",
        "type": 16002,
        "name": "佐久長聖中学校",
        "address": "佐久市岩村田3638",
        "lat": 36.283649,
        "lng": 138.484414
    },
    {
        "code": "D120221700011",
        "type": 16004,
        "name": "野沢北高等学校",
        "address": "佐久市野沢449-2",
        "lat": 36.225781,
        "lng": 138.459785
    },
    {
        "code": "D120221700020",
        "type": 16004,
        "name": "岩村田高等学校",
        "address": "佐久市1248-1",
        "lat": 36.271999,
        "lng": 138.471255
    },
    {
        "code": "D120221700039",
        "type": 16004,
        "name": "野沢南高等学校",
        "address": "佐久市原86-1",
        "lat": 36.219504,
        "lng": 138.472701
    },
    {
        "code": "D120221700048",
        "type": 16004,
        "name": "佐久平総合技術高等学校",
        "address": "佐久市岩村田991",
        "lat": 36.279692,
        "lng": 138.474782
    },
    {
        "code": "D120321700019",
        "type": 16004,
        "name": "佐久長聖高等学校",
        "address": "佐久市岩村田951",
        "lat": 36.276609,
        "lng": 138.472644
    },
    {
        "code": "D120321700028",
        "type": 16004,
        "name": "地球環境高等学校",
        "address": "佐久市中込2923-1",
        "lat": 36.252283,
        "lng": 138.480418
    },
    {
        "code": "F120310105857",
        "type": 16007,
        "name": "佐久大学",
        "address": "佐久市岩村田2384",
        "lat": 36.266129,
        "lng": 138.463546
    },
    {
        "code": "F220310105954",
        "type": 16006,
        "name": "佐久大学信州短期大学部",
        "address": "佐久市岩村田2384",
        "lat": 36.265944,
        "lng": 138.463756
    },
    {
        "code": "H120321700010",
        "type": 16016,
        "name": "佐久総合病院看護専門学校",
        "address": "佐久市臼田2238",
        "lat": 36.197282,
        "lng": 138.477284
    },
    {
        "code": "H120321700029",
        "type": 16016,
        "name": "臼田経理専門学校",
        "address": "佐久市野沢原67-1",
        "lat": 36.22265,
        "lng": 138.471007
    },
    {
        "code": "H120321700038",
        "type": 16016,
        "name": "アースビジネスカレッジ",
        "address": "佐久市中込2921",
        "lat": 36.252401,
        "lng": 138.480052
    },
    {
        "code": "H220321700019",
        "type": 16015,
        "name": "臼田経理学校",
        "address": "佐久市臼田1994-2",
        "lat": 36.199171,
        "lng": 138.474583
    },
    {
        "code": "H220321700028",
        "type": 16015,
        "name": "佐久料理服装学院",
        "address": "佐久市臼田60",
        "lat": 36.195079,
        "lng": 138.48156
    }
]