[
    {
        "code": "A120221000014",
        "type": 16011,
        "name": "赤穂南幼稚園",
        "address": "駒ヶ根市赤穂8863",
        "lat": 35.717534,
        "lng": 137.931677
    },
    {
        "code": "A120221000023",
        "type": 16011,
        "name": "下平幼稚園",
        "address": "駒ヶ根市下平3844",
        "lat": 35.733618,
        "lng": 137.960563
    },
    {
        "code": "A120321000012",
        "type": 16011,
        "name": "聖マルチン幼稚園",
        "address": "駒ヶ根市北町9-11",
        "lat": 35.738954,
        "lng": 137.937059
    },
    {
        "code": "B120221000012",
        "type": 16001,
        "name": "赤穂小学校",
        "address": "駒ヶ根市赤穂4605",
        "lat": 35.727497,
        "lng": 137.930405
    },
    {
        "code": "B120221000021",
        "type": 16001,
        "name": "中沢小学校",
        "address": "駒ヶ根市中沢4036",
        "lat": 35.725832,
        "lng": 137.985067
    },
    {
        "code": "B120221000030",
        "type": 16001,
        "name": "東伊那小学校",
        "address": "駒ヶ根市東伊那2413",
        "lat": 35.75244,
        "lng": 137.976844
    },
    {
        "code": "B120221000049",
        "type": 16001,
        "name": "赤穂東小学校",
        "address": "駒ヶ根市飯坂1-19-1",
        "lat": 35.736655,
        "lng": 137.944196
    },
    {
        "code": "B120221000058",
        "type": 16001,
        "name": "赤穂南小学校",
        "address": "駒ヶ根市赤穂8915-1",
        "lat": 35.716804,
        "lng": 137.932321
    },
    {
        "code": "C120221000010",
        "type": 16002,
        "name": "赤穂中学校",
        "address": "駒ヶ根市赤穂4704",
        "lat": 35.726247,
        "lng": 137.930321
    },
    {
        "code": "C120221000029",
        "type": 16002,
        "name": "東中学校",
        "address": "駒ヶ根市東伊那966-1",
        "lat": 35.738275,
        "lng": 137.979872
    },
    {
        "code": "D120221000018",
        "type": 16004,
        "name": "赤穂高等学校",
        "address": "駒ヶ根市赤穂11041-4",
        "lat": 35.722054,
        "lng": 137.942265
    },
    {
        "code": "D120221000027",
        "type": 16004,
        "name": "駒ケ根工業高等学校",
        "address": "駒ヶ根市赤穂14-2",
        "lat": 35.710999,
        "lng": 137.923433
    },
    {
        "code": "F120210105804",
        "type": 16007,
        "name": "長野県看護大学",
        "address": "駒ｹ根市赤穂1694",
        "lat": 35.745939,
        "lng": 137.933515
    },
    {
        "code": "H120321000017",
        "type": 16016,
        "name": "やまと文化専修学校",
        "address": "駒ヶ根市北町9-12",
        "lat": 35.739354,
        "lng": 137.937142
    }
]