[
    {
        "code": "B120236100019",
        "type": 16001,
        "name": "下諏訪南小学校",
        "address": "諏訪郡下諏訪町南四王5188",
        "lat": 36.068931,
        "lng": 138.088435
    },
    {
        "code": "B120236100028",
        "type": 16001,
        "name": "下諏訪北小学校",
        "address": "諏訪郡下諏訪町社7267",
        "lat": 36.084318,
        "lng": 138.078408
    },
    {
        "code": "C120236100017",
        "type": 16002,
        "name": "下諏訪中学校",
        "address": "諏訪郡下諏訪町5480",
        "lat": 36.073347,
        "lng": 138.088713
    },
    {
        "code": "C120236100026",
        "type": 16002,
        "name": "下諏訪社中学校",
        "address": "諏訪郡下諏訪町社7173",
        "lat": 36.08804,
        "lng": 138.078491
    },
    {
        "code": "D120236100015",
        "type": 16004,
        "name": "下諏訪向陽高等学校",
        "address": "諏訪郡下諏訪町7401",
        "lat": 36.077208,
        "lng": 138.102823
    },
    {
        "code": "E120236100012",
        "type": 16012,
        "name": "花田養護学校",
        "address": "諏訪郡下諏訪町社花田6525-1",
        "lat": 36.080359,
        "lng": 138.073778
    },
    {
        "code": "H220336100013",
        "type": 16015,
        "name": "日進学園",
        "address": "諏訪郡下諏訪町3310",
        "lat": 36.07569,
        "lng": 138.088022
    }
]