[
    {
        "code": "B120240400018",
        "type": 16001,
        "name": "大下条小学校",
        "address": "下伊那郡阿南町東条1422-3",
        "lat": 35.324007,
        "lng": 137.81795
    },
    {
        "code": "B120240400027",
        "type": 16001,
        "name": "和合小学校",
        "address": "下伊那郡阿南町和合335",
        "lat": 35.322988,
        "lng": 137.750408
    },
    {
        "code": "B120240400036",
        "type": 16001,
        "name": "新野小学校",
        "address": "下伊那郡阿南町新野1310",
        "lat": 35.261023,
        "lng": 137.748605
    },
    {
        "code": "B120240400045",
        "type": 16001,
        "name": "富草小学校",
        "address": "下伊那郡阿南町富草3915-1",
        "lat": 35.3546,
        "lng": 137.801718
    },
    {
        "code": "C120240400016",
        "type": 16002,
        "name": "阿南第一中学校",
        "address": "下伊那郡阿南町東條406-1",
        "lat": 35.328367,
        "lng": 137.823232
    },
    {
        "code": "C120240400025",
        "type": 16002,
        "name": "阿南第二中学校",
        "address": "下伊那郡阿南町新野1294",
        "lat": 35.260412,
        "lng": 137.748522
    },
    {
        "code": "D120240400014",
        "type": 16004,
        "name": "阿南高等学校",
        "address": "下伊那郡阿南町北條2237",
        "lat": 35.331684,
        "lng": 137.833484
    }
]