[
    {
        "code": "A120243200016",
        "type": 16011,
        "name": "木曽幼稚園",
        "address": "木曽郡木曽町福島1800-1",
        "lat": 35.847265,
        "lng": 137.697802
    },
    {
        "code": "B120243200014",
        "type": 16001,
        "name": "福島小学校",
        "address": "木曽郡木曽町福島5807",
        "lat": 35.852086,
        "lng": 137.699146
    },
    {
        "code": "B120243200023",
        "type": 16001,
        "name": "日義小学校",
        "address": "木曽郡木曽町日義1795",
        "lat": 35.881236,
        "lng": 137.758903
    },
    {
        "code": "B120243200032",
        "type": 16001,
        "name": "開田小学校",
        "address": "木曽郡木曽町開田高原末川2776",
        "lat": 35.936971,
        "lng": 137.636502
    },
    {
        "code": "B120243200041",
        "type": 16001,
        "name": "三岳小学校",
        "address": "木曽郡木曽町三岳6608-1",
        "lat": 35.842147,
        "lng": 137.627424
    },
    {
        "code": "C120243200012",
        "type": 16002,
        "name": "木曽町中学校",
        "address": "木曽郡木曽町新開4110",
        "lat": 35.854815,
        "lng": 137.708122
    },
    {
        "code": "C120243200021",
        "type": 16002,
        "name": "日義中学校",
        "address": "木曽郡木曽町日義1795",
        "lat": 35.881206,
        "lng": 137.758905
    },
    {
        "code": "C120243200030",
        "type": 16002,
        "name": "開田中学校",
        "address": "木曽郡木曽町開田高原西野841",
        "lat": 35.933541,
        "lng": 137.602521
    },
    {
        "code": "D120243200010",
        "type": 16004,
        "name": "木曽青峰高等学校",
        "address": "木曽郡木曽町福島1827-2",
        "lat": 35.845567,
        "lng": 137.697228
    },
    {
        "code": "E120243200017",
        "type": 16012,
        "name": "木曽養護学校",
        "address": "木曽郡木曽町福島1134-1",
        "lat": 35.847269,
        "lng": 137.709204
    },
    {
        "code": "H120243200011",
        "type": 16016,
        "name": "長野県林業大学校",
        "address": "木曽郡木曽町新開4385-1",
        "lat": 35.860029,
        "lng": 137.69997
    },
    {
        "code": "H120343200019",
        "type": 16016,
        "name": "信州木曽看護専門学校",
        "address": "木曽郡木曽町新開4236",
        "lat": 35.857878,
        "lng": 137.704685
    }
]