[
    {
        "code": "B120248100014",
        "type": 16001,
        "name": "池田小学校",
        "address": "北安曇郡池田町池田3177-1",
        "lat": 36.420188,
        "lng": 137.87586
    },
    {
        "code": "B120248100023",
        "type": 16001,
        "name": "会染小学校",
        "address": "北安雲郡池田町大字会染5663-1",
        "lat": 36.404079,
        "lng": 137.883915
    },
    {
        "code": "C120248100012",
        "type": 16002,
        "name": "高瀬中学校",
        "address": "北安曇郡池田町池田3210-1",
        "lat": 36.419549,
        "lng": 137.874749
    },
    {
        "code": "D120248100010",
        "type": 16004,
        "name": "池田工業高等学校",
        "address": "北安曇郡池田町大字池田2524",
        "lat": 36.413605,
        "lng": 137.878943
    },
    {
        "code": "E120248100017",
        "type": 16012,
        "name": "安曇養護学校",
        "address": "北安曇郡池田町会染6113-2",
        "lat": 36.391441,
        "lng": 137.876721
    },
    {
        "code": "H120348100019",
        "type": 16016,
        "name": "日本アルプス国際学院",
        "address": "北安曇郡池田町池田2421-1",
        "lat": 36.416227,
        "lng": 137.881665
    }
]