[
    {
        "code": "A120352100016",
        "type": 16011,
        "name": "坂城幼稚園",
        "address": "埴科郡坂城町坂城9522-1",
        "lat": 36.45574,
        "lng": 138.187803
    },
    {
        "code": "B120252100016",
        "type": 16001,
        "name": "坂城小学校",
        "address": "植科郡坂城町大字坂城6227",
        "lat": 36.466192,
        "lng": 138.184105
    },
    {
        "code": "B120252100025",
        "type": 16001,
        "name": "南条小学校",
        "address": "植科郡坂城町南条2036",
        "lat": 36.434862,
        "lng": 138.194467
    },
    {
        "code": "B120252100034",
        "type": 16001,
        "name": "村上小学校",
        "address": "植科郡坂城町大字上平1428-1",
        "lat": 36.448804,
        "lng": 138.167135
    },
    {
        "code": "C120252100014",
        "type": 16002,
        "name": "坂城中学校",
        "address": "埴科郡坂城町大字中之条926",
        "lat": 36.45036,
        "lng": 138.19155
    },
    {
        "code": "D120252100012",
        "type": 16004,
        "name": "坂城高等学校",
        "address": "埴科郡坂城町坂城6727",
        "lat": 36.462026,
        "lng": 138.189661
    }
]