[
    {
        "code": "A221320700015",
        "type": 16013,
        "name": "美濃保育園",
        "address": "美濃市1765-4",
        "lat": 35.546275,
        "lng": 136.917431
    },
    {
        "code": "A221320700024",
        "type": 16013,
        "name": "下牧こども園",
        "address": "美濃市長瀬545",
        "lat": 35.572599,
        "lng": 136.900381
    },
    {
        "code": "A221320700033",
        "type": 16013,
        "name": "牧谷保育園",
        "address": "美濃市上野2-2",
        "lat": 35.585769,
        "lng": 136.8611
    },
    {
        "code": "A221320700042",
        "type": 16013,
        "name": "美濃ふたばこども園",
        "address": "美濃市東市場町2625-1",
        "lat": 35.544147,
        "lng": 136.913371
    },
    {
        "code": "B121220700016",
        "type": 16001,
        "name": "美濃小学校",
        "address": "美濃市泉町1594-1",
        "lat": 35.550058,
        "lng": 136.914953
    },
    {
        "code": "B121220700025",
        "type": 16001,
        "name": "牧谷小学校",
        "address": "美濃市蕨生2095-3",
        "lat": 35.588813,
        "lng": 136.890443
    },
    {
        "code": "B121220700034",
        "type": 16001,
        "name": "大矢田小学校",
        "address": "美濃市大矢田1382-2",
        "lat": 35.540294,
        "lng": 136.870759
    },
    {
        "code": "B121220700043",
        "type": 16001,
        "name": "藍見小学校",
        "address": "美濃市極楽寺794-1",
        "lat": 35.534378,
        "lng": 136.886063
    },
    {
        "code": "B121220700052",
        "type": 16001,
        "name": "中有知小学校",
        "address": "美濃市生櫛1614-1",
        "lat": 35.52713,
        "lng": 136.899618
    },
    {
        "code": "C121220700014",
        "type": 16002,
        "name": "美濃中学校",
        "address": "美濃市千畝町2881-1",
        "lat": 35.538691,
        "lng": 136.912559
    },
    {
        "code": "C121220700023",
        "type": 16002,
        "name": "昭和中学校",
        "address": "美濃市大矢田765",
        "lat": 35.535656,
        "lng": 136.876231
    },
    {
        "code": "D121220700012",
        "type": 16004,
        "name": "武義高等学校",
        "address": "美濃市泉町2-3",
        "lat": 35.549877,
        "lng": 136.916839
    },
    {
        "code": "H121220700013",
        "type": 16016,
        "name": "森林文化アカデミー",
        "address": "美濃市曽代88",
        "lat": 35.554514,
        "lng": 136.918934
    }
]