[
    {
        "code": "A121220800017",
        "type": 16011,
        "name": "瑞浪幼児園",
        "address": "瑞浪市北小田町1-54",
        "lat": 35.361237,
        "lng": 137.244887
    },
    {
        "code": "A121220800026",
        "type": 16011,
        "name": "稲津幼児園",
        "address": "瑞浪市稲津町小里697-1",
        "lat": 35.350257,
        "lng": 137.273641
    },
    {
        "code": "A121220800035",
        "type": 16011,
        "name": "桔梗幼児園",
        "address": "瑞浪市土岐町1770-2",
        "lat": 35.377136,
        "lng": 137.264307
    },
    {
        "code": "A121220800044",
        "type": 16011,
        "name": "陶幼児園",
        "address": "瑞浪市陶町猿爪1082-46",
        "lat": 35.31985,
        "lng": 137.321354
    },
    {
        "code": "A121220800053",
        "type": 16011,
        "name": "竜吟幼児園",
        "address": "瑞浪市釜戸町2821-2",
        "lat": 35.408092,
        "lng": 137.302518
    },
    {
        "code": "A121220800062",
        "type": 16011,
        "name": "日吉幼児園",
        "address": "瑞浪市日吉町4115-2",
        "lat": 35.405888,
        "lng": 137.244863
    },
    {
        "code": "A121220800071",
        "type": 16011,
        "name": "みどり幼児園",
        "address": "瑞浪市下沖町2-10",
        "lat": 35.364011,
        "lng": 137.239274
    },
    {
        "code": "A121220800080",
        "type": 16011,
        "name": "一色幼児園",
        "address": "瑞浪市寺河戸町190-1",
        "lat": 35.357849,
        "lng": 137.249195
    },
    {
        "code": "A121320800015",
        "type": 16011,
        "name": "中京幼稚園",
        "address": "瑞浪市土岐町2197-1",
        "lat": 35.385046,
        "lng": 137.263606
    },
    {
        "code": "B121220800015",
        "type": 16001,
        "name": "瑞浪小学校",
        "address": "瑞浪市北小田町1-66",
        "lat": 35.361724,
        "lng": 137.244273
    },
    {
        "code": "B121220800024",
        "type": 16001,
        "name": "土岐小学校",
        "address": "瑞浪市土岐町6451-4",
        "lat": 35.375189,
        "lng": 137.263393
    },
    {
        "code": "B121220800033",
        "type": 16001,
        "name": "陶小学校",
        "address": "瑞浪市陶町水上665-1",
        "lat": 35.319697,
        "lng": 137.316165
    },
    {
        "code": "B121220800042",
        "type": 16001,
        "name": "稲津小学校",
        "address": "瑞浪市稲津町小里371-1",
        "lat": 35.343443,
        "lng": 137.278558
    },
    {
        "code": "B121220800051",
        "type": 16001,
        "name": "明世小学校",
        "address": "瑞浪市明世町山野内1-40",
        "lat": 35.370994,
        "lng": 137.23348
    },
    {
        "code": "B121220800060",
        "type": 16001,
        "name": "日吉小学校",
        "address": "瑞浪市日吉町2370-1",
        "lat": 35.41535,
        "lng": 137.236672
    },
    {
        "code": "B121220800079",
        "type": 16001,
        "name": "釜戸小学校",
        "address": "瑞浪市釜戸町3007-3",
        "lat": 35.410602,
        "lng": 137.302137
    },
    {
        "code": "C121220800013",
        "type": 16002,
        "name": "瑞浪中学校",
        "address": "瑞浪市土岐町7790-1",
        "lat": 35.356163,
        "lng": 137.2547
    },
    {
        "code": "C121220800022",
        "type": 16002,
        "name": "瑞浪南中学校",
        "address": "瑞浪市稲津町小里456",
        "lat": 35.346841,
        "lng": 137.280401
    },
    {
        "code": "C121220800031",
        "type": 16002,
        "name": "瑞浪北中学校",
        "address": "瑞浪市土岐町973",
        "lat": 35.375783,
        "lng": 137.252547
    },
    {
        "code": "C121320800011",
        "type": 16002,
        "name": "麗澤瑞浪中学校",
        "address": "瑞浪市稲津町萩原1661",
        "lat": 35.363802,
        "lng": 137.298001
    },
    {
        "code": "D121220800011",
        "type": 16004,
        "name": "瑞浪高等学校",
        "address": "瑞浪市土岐町7942",
        "lat": 35.359219,
        "lng": 137.26381
    },
    {
        "code": "D121320800019",
        "type": 16004,
        "name": "麗澤瑞浪高等学校",
        "address": "瑞浪市稲津町萩原1661",
        "lat": 35.3642,
        "lng": 137.297929
    },
    {
        "code": "D121320800028",
        "type": 16004,
        "name": "中京高等学校",
        "address": "瑞浪市土岐町7074-1",
        "lat": 35.363996,
        "lng": 137.262283
    },
    {
        "code": "F221310106140",
        "type": 16006,
        "name": "中京学院大学短期大学部",
        "address": "瑞浪市土岐町2216",
        "lat": 35.384577,
        "lng": 137.264226
    },
    {
        "code": "H121320800010",
        "type": 16016,
        "name": "日本プロスポーツ専門学校",
        "address": "瑞浪市釜戸町上桑原4605-85",
        "lat": 35.41433,
        "lng": 137.331182
    }
]