[
    {
        "code": "A121221200011",
        "type": 16011,
        "name": "土岐津小学校附属幼稚園",
        "address": "土岐市土岐津町土岐口2005-1",
        "lat": 35.353091,
        "lng": 137.18116
    },
    {
        "code": "A121221200020",
        "type": 16011,
        "name": "妻木小学校附属幼稚園",
        "address": "土岐市妻木町1284-1",
        "lat": 35.309899,
        "lng": 137.192684
    },
    {
        "code": "A121221200039",
        "type": 16011,
        "name": "駄知小学校附属幼稚園",
        "address": "土岐市駄知町1858-1",
        "lat": 35.330495,
        "lng": 137.22202
    },
    {
        "code": "A121221200048",
        "type": 16011,
        "name": "肥田小学校附属幼稚園",
        "address": "土岐市肥田町肥田2269-1",
        "lat": 35.351448,
        "lng": 137.207166
    },
    {
        "code": "A121221200057",
        "type": 16011,
        "name": "泉小学校附属幼稚園",
        "address": "土岐市泉中窯町1-5",
        "lat": 35.368801,
        "lng": 137.188814
    },
    {
        "code": "A121221200066",
        "type": 16011,
        "name": "泉西小学校附属幼稚園",
        "address": "土岐市泉町久尻1413-2",
        "lat": 35.369041,
        "lng": 137.174694
    },
    {
        "code": "A221221200010",
        "type": 16013,
        "name": "西部こども園",
        "address": "土岐市下石町1015-1",
        "lat": 35.320804,
        "lng": 137.189803
    },
    {
        "code": "A221221200029",
        "type": 16013,
        "name": "濃南こども園",
        "address": "土岐市鶴里町柿野1184-1",
        "lat": 35.270883,
        "lng": 137.218421
    },
    {
        "code": "A221321200018",
        "type": 16013,
        "name": "ときつこども園",
        "address": "土岐市土岐津町高山427-3",
        "lat": 35.354263,
        "lng": 137.191457
    },
    {
        "code": "B121221200019",
        "type": 16001,
        "name": "土岐津小学校",
        "address": "土岐市土岐津町土岐口2000-1",
        "lat": 35.352549,
        "lng": 137.18043
    },
    {
        "code": "B121221200028",
        "type": 16001,
        "name": "下石小学校",
        "address": "土岐市下石町1100-1",
        "lat": 35.320972,
        "lng": 137.195108
    },
    {
        "code": "B121221200037",
        "type": 16001,
        "name": "妻木小学校",
        "address": "土岐市妻木町1291-1",
        "lat": 35.310305,
        "lng": 137.192901
    },
    {
        "code": "B121221200046",
        "type": 16001,
        "name": "濃南小学校",
        "address": "土岐市鶴里町細野138",
        "lat": 35.278279,
        "lng": 137.237758
    },
    {
        "code": "B121221200055",
        "type": 16001,
        "name": "駄知小学校",
        "address": "土岐市駄知町1858-1",
        "lat": 35.330331,
        "lng": 137.222788
    },
    {
        "code": "B121221200064",
        "type": 16001,
        "name": "肥田小学校",
        "address": "土岐市肥田町肥田2269-1",
        "lat": 35.351495,
        "lng": 137.207011
    },
    {
        "code": "B121221200073",
        "type": 16001,
        "name": "泉小学校",
        "address": "土岐市泉中窯町1-5",
        "lat": 35.368048,
        "lng": 137.189067
    },
    {
        "code": "B121221200082",
        "type": 16001,
        "name": "泉西小学校",
        "address": "土岐市泉町久尻1413-2",
        "lat": 35.368908,
        "lng": 137.175763
    },
    {
        "code": "C121221200017",
        "type": 16002,
        "name": "土岐津中学校",
        "address": "土岐市土岐津町土岐口2046-1",
        "lat": 35.349022,
        "lng": 137.181291
    },
    {
        "code": "C121221200026",
        "type": 16002,
        "name": "西陵中学校",
        "address": "土岐市妻木町1513-1",
        "lat": 35.318165,
        "lng": 137.185262
    },
    {
        "code": "C121221200035",
        "type": 16002,
        "name": "濃南中学校",
        "address": "土岐市鶴里町細野139-2",
        "lat": 35.278421,
        "lng": 137.237203
    },
    {
        "code": "C121221200044",
        "type": 16002,
        "name": "駄知中学校",
        "address": "土岐市駄知町1145-6",
        "lat": 35.336081,
        "lng": 137.231481
    },
    {
        "code": "C121221200053",
        "type": 16002,
        "name": "肥田中学校",
        "address": "土岐市肥田町肥田2285-1",
        "lat": 35.352479,
        "lng": 137.207802
    },
    {
        "code": "C121221200062",
        "type": 16002,
        "name": "泉中学校",
        "address": "土岐市泉町大富1635-1",
        "lat": 35.367214,
        "lng": 137.184096
    },
    {
        "code": "D121221200015",
        "type": 16004,
        "name": "土岐紅陵高等学校",
        "address": "土岐市下石町1795-12",
        "lat": 35.320359,
        "lng": 137.197873
    },
    {
        "code": "D121221200024",
        "type": 16004,
        "name": "土岐商業高等学校",
        "address": "土岐市土岐津町土岐口1259-1",
        "lat": 35.345751,
        "lng": 137.170501
    },
    {
        "code": "D121221200033",
        "type": 16004,
        "name": "東濃フロンティア高等学校",
        "address": "土岐市泉町河合1127-8",
        "lat": 35.376739,
        "lng": 137.208826
    },
    {
        "code": "E121221200012",
        "type": 16012,
        "name": "東濃特別支援学校",
        "address": "土岐市泉町河合根ﾉ上1127-10",
        "lat": 35.375437,
        "lng": 137.208343
    },
    {
        "code": "H121221200016",
        "type": 16016,
        "name": "東濃看護専門学校",
        "address": "土岐市土岐津町土岐口703-24",
        "lat": 35.333579,
        "lng": 137.189215
    },
    {
        "code": "H121321200014",
        "type": 16016,
        "name": "中部国際自動車大学校",
        "address": "土岐市肥田浅野朝日町2-7",
        "lat": 35.360682,
        "lng": 137.197486
    },
    {
        "code": "H221321200013",
        "type": 16015,
        "name": "土岐医師会准看護学校",
        "address": "土岐市土岐津町高山4",
        "lat": 35.357971,
        "lng": 137.188104
    },
    {
        "code": "H221321200022",
        "type": 16015,
        "name": "中部速算学校",
        "address": "土岐市泉寺田町2-19",
        "lat": 35.36699,
        "lng": 137.192739
    }
]