[
    {
        "code": "A121221800015",
        "type": 16011,
        "name": "根尾幼児園",
        "address": "本巣市根尾高尾775-1",
        "lat": 35.598081,
        "lng": 136.62658
    },
    {
        "code": "A121221800024",
        "type": 16011,
        "name": "神海幼児園",
        "address": "本巣市神海459",
        "lat": 35.537726,
        "lng": 136.649216
    },
    {
        "code": "A121221800033",
        "type": 16011,
        "name": "本巣幼児園",
        "address": "本巣市曽井中島1429-2",
        "lat": 35.484507,
        "lng": 136.676296
    },
    {
        "code": "A121221800042",
        "type": 16011,
        "name": "糸貫東幼児園",
        "address": "本巣市石原39-1",
        "lat": 35.456297,
        "lng": 136.683752
    },
    {
        "code": "A121221800051",
        "type": 16011,
        "name": "糸貫西幼児園",
        "address": "本巣市見延698",
        "lat": 35.455889,
        "lng": 136.670493
    },
    {
        "code": "A121221800060",
        "type": 16011,
        "name": "真正幼児園",
        "address": "本巣市下真桑443-2",
        "lat": 35.44274,
        "lng": 136.663071
    },
    {
        "code": "A121221800079",
        "type": 16011,
        "name": "真桑幼児園",
        "address": "本巣市宗慶357-1",
        "lat": 35.432577,
        "lng": 136.666766
    },
    {
        "code": "A121221800088",
        "type": 16011,
        "name": "弾正幼児園",
        "address": "本巣市政田2206",
        "lat": 35.436855,
        "lng": 136.642682
    },
    {
        "code": "A121321800013",
        "type": 16011,
        "name": "いづみ北幼稚園",
        "address": "本巣市文殊57-253",
        "lat": 35.495056,
        "lng": 136.690499
    },
    {
        "code": "B121221800013",
        "type": 16001,
        "name": "根尾小学校",
        "address": "本巣市根尾市場461",
        "lat": 35.63611,
        "lng": 136.609672
    },
    {
        "code": "B121221800022",
        "type": 16001,
        "name": "外山小学校",
        "address": "本巣市神海1328-3",
        "lat": 35.544511,
        "lng": 136.641783
    },
    {
        "code": "B121221800031",
        "type": 16001,
        "name": "本巣小学校",
        "address": "本巣市文殊179",
        "lat": 35.488167,
        "lng": 136.674453
    },
    {
        "code": "B121221800040",
        "type": 16001,
        "name": "一色小学校",
        "address": "本巣市見延16",
        "lat": 35.469409,
        "lng": 136.666284
    },
    {
        "code": "B121221800059",
        "type": 16001,
        "name": "土貴野小学校",
        "address": "本巣市七五三658",
        "lat": 35.4513,
        "lng": 136.654341
    },
    {
        "code": "B121221800068",
        "type": 16001,
        "name": "席田小学校",
        "address": "本巣市郡府37",
        "lat": 35.457661,
        "lng": 136.683838
    },
    {
        "code": "B121221800077",
        "type": 16001,
        "name": "弾正小学校",
        "address": "本巣市政田2100",
        "lat": 35.434663,
        "lng": 136.643288
    },
    {
        "code": "B121221800086",
        "type": 16001,
        "name": "真桑小学校",
        "address": "本巣市下真桑223-1",
        "lat": 35.43322,
        "lng": 136.665369
    },
    {
        "code": "C121221800011",
        "type": 16002,
        "name": "根尾中学校",
        "address": "本巣市根尾神所555",
        "lat": 35.639884,
        "lng": 136.603605
    },
    {
        "code": "C121221800020",
        "type": 16002,
        "name": "本巣中学校",
        "address": "本巣市文殊120",
        "lat": 35.489599,
        "lng": 136.674453
    },
    {
        "code": "C121221800039",
        "type": 16002,
        "name": "糸貫中学校",
        "address": "本巣市三橋1101-8",
        "lat": 35.449523,
        "lng": 136.672701
    },
    {
        "code": "C121221800048",
        "type": 16002,
        "name": "真正中学校",
        "address": "本巣市下真桑1010",
        "lat": 35.434136,
        "lng": 136.655009
    },
    {
        "code": "D121221800019",
        "type": 16004,
        "name": "本巣松陽高等学校",
        "address": "本巣市仏生寺859-1",
        "lat": 35.445079,
        "lng": 136.678228
    },
    {
        "code": "D121321800017",
        "type": 16004,
        "name": "岐阜第一高等学校",
        "address": "本巣市仏生寺884-7",
        "lat": 35.443413,
        "lng": 136.675506
    },
    {
        "code": "G121110106214",
        "type": 16005,
        "name": "岐阜工業高等専門学校",
        "address": "本巣市上真桑2236-2",
        "lat": 35.447051,
        "lng": 136.672728
    },
    {
        "code": "H221321800017",
        "type": 16015,
        "name": "スバル学院本巣校",
        "address": "本巣市上真桑1963",
        "lat": 35.434698,
        "lng": 136.676187
    }
]