[
    {
        "code": "A121321000011",
        "type": 16011,
        "name": "すずめっこ杉の子幼稚園",
        "address": "恵那市大井町鏡山2018",
        "lat": 35.456828,
        "lng": 137.429674
    },
    {
        "code": "A221221000012",
        "type": 16013,
        "name": "大井こども園",
        "address": "恵那市大井町1248-3",
        "lat": 35.456102,
        "lng": 137.416994
    },
    {
        "code": "A221221000021",
        "type": 16013,
        "name": "やまびここども園",
        "address": "恵那市長島町久須見182",
        "lat": 35.47407,
        "lng": 137.361496
    },
    {
        "code": "A221221000030",
        "type": 16013,
        "name": "東野こども園",
        "address": "恵那市東野1346",
        "lat": 35.44115,
        "lng": 137.428824
    },
    {
        "code": "A221221000049",
        "type": 16013,
        "name": "みさとこども園",
        "address": "恵那市三郷町野井1969-1",
        "lat": 35.423557,
        "lng": 137.383142
    },
    {
        "code": "A221221000058",
        "type": 16013,
        "name": "武並こども園",
        "address": "恵那市武並町竹折1648-259",
        "lat": 35.437987,
        "lng": 137.342712
    },
    {
        "code": "A221221000067",
        "type": 16013,
        "name": "中野方こども園",
        "address": "恵那市中野方町1811-2",
        "lat": 35.521473,
        "lng": 137.304883
    },
    {
        "code": "A221221000076",
        "type": 16013,
        "name": "飯地こども園",
        "address": "恵那市飯地町26-5",
        "lat": 35.485846,
        "lng": 137.291331
    },
    {
        "code": "A221221000085",
        "type": 16013,
        "name": "山岡こども園",
        "address": "恵那市山岡町上手向1155",
        "lat": 35.355589,
        "lng": 137.377762
    },
    {
        "code": "A221221000094",
        "type": 16013,
        "name": "明智こども園",
        "address": "恵那市明智町332-3",
        "lat": 35.309594,
        "lng": 137.388939
    },
    {
        "code": "A221221000101",
        "type": 16013,
        "name": "串原こども園",
        "address": "恵那市串原3228-2",
        "lat": 35.25969,
        "lng": 137.404941
    },
    {
        "code": "A221221000110",
        "type": 16013,
        "name": "上矢作こども園",
        "address": "恵那市上矢作町下720-1",
        "lat": 35.275224,
        "lng": 137.475126
    },
    {
        "code": "B121221000011",
        "type": 16001,
        "name": "大井小学校",
        "address": "恵那市大井町851-1",
        "lat": 35.455213,
        "lng": 137.415989
    },
    {
        "code": "B121221000020",
        "type": 16001,
        "name": "大井第二小学校",
        "address": "恵那市大井町1982-1",
        "lat": 35.463962,
        "lng": 137.420266
    },
    {
        "code": "B121221000039",
        "type": 16001,
        "name": "長島小学校",
        "address": "恵那市長島町永田461-1",
        "lat": 35.449741,
        "lng": 137.402879
    },
    {
        "code": "B121221000048",
        "type": 16001,
        "name": "恵那北小学校",
        "address": "恵那市長島町久須見177-1",
        "lat": 35.473876,
        "lng": 137.360771
    },
    {
        "code": "B121221000057",
        "type": 16001,
        "name": "東野小学校",
        "address": "恵那市東野1346",
        "lat": 35.441465,
        "lng": 137.428043
    },
    {
        "code": "B121221000066",
        "type": 16001,
        "name": "三郷小学校",
        "address": "恵那市三郷町佐々良木1822",
        "lat": 35.410771,
        "lng": 137.364577
    },
    {
        "code": "B121221000075",
        "type": 16001,
        "name": "武並小学校",
        "address": "恵那市武並町竹折1059-91",
        "lat": 35.439518,
        "lng": 137.346495
    },
    {
        "code": "B121221000084",
        "type": 16001,
        "name": "中野方小学校",
        "address": "恵那市中野方町2353-1",
        "lat": 35.523469,
        "lng": 137.309201
    },
    {
        "code": "B121221000093",
        "type": 16001,
        "name": "飯地小学校",
        "address": "恵那市飯地町26-4",
        "lat": 35.48626,
        "lng": 137.291886
    },
    {
        "code": "B121221000100",
        "type": 16001,
        "name": "岩邑小学校",
        "address": "恵那市岩村町1524-1",
        "lat": 35.369021,
        "lng": 137.439614
    },
    {
        "code": "B121221000119",
        "type": 16001,
        "name": "山岡小学校",
        "address": "恵那市山岡町下手向1831",
        "lat": 35.349794,
        "lng": 137.382441
    },
    {
        "code": "B121221000128",
        "type": 16001,
        "name": "明智小学校",
        "address": "恵那市明智町122-2",
        "lat": 35.310433,
        "lng": 137.391817
    },
    {
        "code": "B121221000137",
        "type": 16001,
        "name": "串原小学校",
        "address": "恵那市串原4083-2",
        "lat": 35.260558,
        "lng": 137.407979
    },
    {
        "code": "B121221000146",
        "type": 16001,
        "name": "上矢作小学校",
        "address": "恵那市上矢作町1798-1",
        "lat": 35.300672,
        "lng": 137.502306
    },
    {
        "code": "C121221000019",
        "type": 16002,
        "name": "恵那東中学校",
        "address": "恵那市大井町1073-1",
        "lat": 35.451964,
        "lng": 137.420488
    },
    {
        "code": "C121221000028",
        "type": 16002,
        "name": "恵那西中学校",
        "address": "恵那市長島町中野1269-261",
        "lat": 35.43988,
        "lng": 137.382269
    },
    {
        "code": "C121221000037",
        "type": 16002,
        "name": "恵那北中学校",
        "address": "恵那市笠置町河合980",
        "lat": 35.480507,
        "lng": 137.330931
    },
    {
        "code": "C121221000046",
        "type": 16002,
        "name": "岩邑中学校",
        "address": "恵那市岩村町1273-1",
        "lat": 35.375271,
        "lng": 137.439272
    },
    {
        "code": "C121221000055",
        "type": 16002,
        "name": "山岡中学校",
        "address": "恵那市山岡町下手向182-4",
        "lat": 35.355436,
        "lng": 137.374727
    },
    {
        "code": "C121221000064",
        "type": 16002,
        "name": "明智中学校",
        "address": "恵那市明智町60-1",
        "lat": 35.309305,
        "lng": 137.392793
    },
    {
        "code": "C121221000073",
        "type": 16002,
        "name": "串原中学校",
        "address": "恵那市串原4083-2",
        "lat": 35.260526,
        "lng": 137.407979
    },
    {
        "code": "C121221000082",
        "type": 16002,
        "name": "上矢作中学校",
        "address": "恵那市上矢作町漆原67",
        "lat": 35.292078,
        "lng": 137.487122
    },
    {
        "code": "D121221000017",
        "type": 16004,
        "name": "恵那高等学校",
        "address": "恵那市大井町1023-1",
        "lat": 35.453436,
        "lng": 137.419016
    },
    {
        "code": "D121221000026",
        "type": 16004,
        "name": "恵那南高等学校",
        "address": "恵那市明智町41-2",
        "lat": 35.311011,
        "lng": 137.393452
    },
    {
        "code": "D121221000035",
        "type": 16004,
        "name": "恵那農業高等学校",
        "address": "恵那市大井町2625-17",
        "lat": 35.46549,
        "lng": 137.414711
    },
    {
        "code": "E121221000014",
        "type": 16012,
        "name": "恵那特別支援学校",
        "address": "恵那市岩村町133-3",
        "lat": 35.366084,
        "lng": 137.445064
    }
]