[
    {
        "code": "A121330300019",
        "type": 16011,
        "name": "笠松幼稚園",
        "address": "羽島郡笠松町長池377",
        "lat": 35.358831,
        "lng": 136.750315
    },
    {
        "code": "A121330300028",
        "type": 16011,
        "name": "笠松双葉幼稚園",
        "address": "羽島郡笠松町北及66",
        "lat": 35.350744,
        "lng": 136.742716
    },
    {
        "code": "B121230300019",
        "type": 16001,
        "name": "笠松小学校",
        "address": "羽島郡笠松町下新町87",
        "lat": 35.370034,
        "lng": 136.759775
    },
    {
        "code": "B121230300028",
        "type": 16001,
        "name": "松枝小学校",
        "address": "羽島郡笠松町長池642",
        "lat": 35.355593,
        "lng": 136.749138
    },
    {
        "code": "B121230300037",
        "type": 16001,
        "name": "下羽栗小学校",
        "address": "羽島郡笠松町中野227",
        "lat": 35.37473,
        "lng": 136.795271
    },
    {
        "code": "C121230300017",
        "type": 16002,
        "name": "笠松中学校",
        "address": "羽島郡笠松町弥生町1",
        "lat": 35.372173,
        "lng": 136.759136
    },
    {
        "code": "D121230300015",
        "type": 16004,
        "name": "岐阜工業高等学校",
        "address": "羽島郡笠松町常盤町1700",
        "lat": 35.3737,
        "lng": 136.759803
    },
    {
        "code": "H221330300013",
        "type": 16015,
        "name": "関谷そろばん学校",
        "address": "羽島郡笠松町弥生町32",
        "lat": 35.370912,
        "lng": 136.758659
    }
]