[
    {
        "code": "A221238200014",
        "type": 16013,
        "name": "仁木こども園",
        "address": "安八郡輪之内町下大榑新田261-2",
        "lat": 35.273089,
        "lng": 136.632558
    },
    {
        "code": "A221238200023",
        "type": 16013,
        "name": "福束こども園",
        "address": "安八郡輪之内町里983-1",
        "lat": 35.303897,
        "lng": 136.63271
    },
    {
        "code": "A221238200032",
        "type": 16013,
        "name": "大藪こども園",
        "address": "安八郡輪之内町大藪1117",
        "lat": 35.294718,
        "lng": 136.65523
    },
    {
        "code": "B121238200013",
        "type": 16001,
        "name": "福束小学校",
        "address": "安八郡輪之内町南波76",
        "lat": 35.30368,
        "lng": 136.631207
    },
    {
        "code": "B121238200022",
        "type": 16001,
        "name": "仁木小学校",
        "address": "安八郡輪之内町海松新田827",
        "lat": 35.272628,
        "lng": 136.629487
    },
    {
        "code": "B121238200031",
        "type": 16001,
        "name": "大藪小学校",
        "address": "安八郡輪之内町大藪1117",
        "lat": 35.294487,
        "lng": 136.656066
    },
    {
        "code": "C121238200011",
        "type": 16002,
        "name": "輪之内中学校",
        "address": "安八郡輪之内町四郷2457",
        "lat": 35.284016,
        "lng": 136.636679
    }
]