[
    {
        "code": "A121238100016",
        "type": 16011,
        "name": "神戸幼児園",
        "address": "安八郡神戸町大字神戸1397",
        "lat": 35.420134,
        "lng": 136.610819
    },
    {
        "code": "A121238100025",
        "type": 16011,
        "name": "下宮幼児園",
        "address": "安八郡神戸町大字瀬古1520",
        "lat": 35.403033,
        "lng": 136.626324
    },
    {
        "code": "A121238100034",
        "type": 16011,
        "name": "南平野幼児園",
        "address": "安八郡神戸町大字和泉46-1",
        "lat": 35.401944,
        "lng": 136.595843
    },
    {
        "code": "A121238100043",
        "type": 16011,
        "name": "北幼児園",
        "address": "安八郡神戸町大字安次279",
        "lat": 35.430299,
        "lng": 136.598345
    },
    {
        "code": "B121238100014",
        "type": 16001,
        "name": "神戸小学校",
        "address": "安八郡神戸町神戸775",
        "lat": 35.423387,
        "lng": 136.607597
    },
    {
        "code": "B121238100023",
        "type": 16001,
        "name": "下宮小学校",
        "address": "安八郡神戸町瀬古2110",
        "lat": 35.403723,
        "lng": 136.626762
    },
    {
        "code": "B121238100032",
        "type": 16001,
        "name": "南平野小学校",
        "address": "安八郡神戸町和泉1066-1",
        "lat": 35.401667,
        "lng": 136.597432
    },
    {
        "code": "B121238100041",
        "type": 16001,
        "name": "北小学校",
        "address": "安八郡神戸町安次300",
        "lat": 35.430135,
        "lng": 136.596987
    },
    {
        "code": "C121238100012",
        "type": 16002,
        "name": "神戸中学校",
        "address": "安八郡神戸町末守311",
        "lat": 35.417831,
        "lng": 136.601153
    }
]