[
    {
        "code": "B121238300012",
        "type": 16001,
        "name": "名森小学校",
        "address": "安八郡安八町大明神40",
        "lat": 35.333176,
        "lng": 136.660815
    },
    {
        "code": "B121238300021",
        "type": 16001,
        "name": "結小学校",
        "address": "安八郡安八町西結1065",
        "lat": 35.362478,
        "lng": 136.663314
    },
    {
        "code": "B121238300030",
        "type": 16001,
        "name": "牧小学校",
        "address": "安八郡安八町牧2927",
        "lat": 35.326399,
        "lng": 136.647455
    },
    {
        "code": "C121238300010",
        "type": 16002,
        "name": "登龍中学校",
        "address": "安八郡安八町大野333",
        "lat": 35.326788,
        "lng": 136.666286
    },
    {
        "code": "C121238300029",
        "type": 16002,
        "name": "東安中学校",
        "address": "安八郡安八町東結952-43",
        "lat": 35.360145,
        "lng": 136.673091
    }
]