[
    {
        "code": "A102310000561",
        "type": 16011,
        "name": "十和田カトリック幼稚園",
        "address": "十和田市東二番町1-51",
        "lat": 40.617586,
        "lng": 141.212501
    },
    {
        "code": "A102310000570",
        "type": 16011,
        "name": "十和田みなみ幼稚園",
        "address": "十和田市穂並町4-55",
        "lat": 40.607473,
        "lng": 141.219978
    },
    {
        "code": "A102310000589",
        "type": 16011,
        "name": "北園幼稚園",
        "address": "十和田市西二十一番町68-53",
        "lat": 40.612455,
        "lng": 141.188679
    },
    {
        "code": "A202310001051",
        "type": 16013,
        "name": "まるくこども園",
        "address": "十和田市深持字佐々木平234-1",
        "lat": 40.620295,
        "lng": 141.16446
    },
    {
        "code": "A202310001060",
        "type": 16013,
        "name": "小さな森こども園",
        "address": "十和田市西二十一番町6-14",
        "lat": 40.616074,
        "lng": 141.195378
    },
    {
        "code": "A202310001079",
        "type": 16013,
        "name": "緑と太陽の保育園",
        "address": "十和田市東一番町10-18",
        "lat": 40.623537,
        "lng": 141.217673
    },
    {
        "code": "A202310001088",
        "type": 16013,
        "name": "まきばのこども園",
        "address": "十和田市東二十三番町10-8",
        "lat": 40.6212,
        "lng": 141.230288
    },
    {
        "code": "A202310001097",
        "type": 16013,
        "name": "みきの保育園",
        "address": "十和田市西三番町22-35",
        "lat": 40.610197,
        "lng": 141.210063
    },
    {
        "code": "A202310001104",
        "type": 16013,
        "name": "十和田めぐみ保育園",
        "address": "十和田市西一番町5-51",
        "lat": 40.619702,
        "lng": 141.205563
    },
    {
        "code": "A202310002005",
        "type": 16013,
        "name": "さつき幼稚園",
        "address": "十和田市西十四番町19-13",
        "lat": 40.603953,
        "lng": 141.210596
    },
    {
        "code": "A202310002229",
        "type": 16013,
        "name": "チビッコハウス保育園",
        "address": "十和田市東二十一番町2-5",
        "lat": 40.626252,
        "lng": 141.224002
    },
    {
        "code": "B102210001221",
        "type": 16001,
        "name": "三本木小学校",
        "address": "十和田市東三番町36-1",
        "lat": 40.614372,
        "lng": 141.221722
    },
    {
        "code": "B102210001230",
        "type": 16001,
        "name": "北園小学校",
        "address": "十和田市西十一番町50-18",
        "lat": 40.614649,
        "lng": 141.200336
    },
    {
        "code": "B102210001249",
        "type": 16001,
        "name": "南小学校",
        "address": "十和田市西十五番町3-1",
        "lat": 40.602706,
        "lng": 141.21339
    },
    {
        "code": "B102210001258",
        "type": 16001,
        "name": "東小学校",
        "address": "十和田市一本木沢1-1-1",
        "lat": 40.628182,
        "lng": 141.228133
    },
    {
        "code": "B102210001267",
        "type": 16001,
        "name": "西小学校",
        "address": "十和田市三本木字西金崎6-2",
        "lat": 40.608816,
        "lng": 141.178115
    },
    {
        "code": "B102210001276",
        "type": 16001,
        "name": "下切田小学校",
        "address": "十和田市切田字下切田10-1",
        "lat": 40.579766,
        "lng": 141.205136
    },
    {
        "code": "B102210001285",
        "type": 16001,
        "name": "藤坂小学校",
        "address": "十和田市相坂字小林355-1",
        "lat": 40.594097,
        "lng": 141.23811
    },
    {
        "code": "B102210001294",
        "type": 16001,
        "name": "高清水小学校",
        "address": "十和田市相坂字高清水900",
        "lat": 40.637982,
        "lng": 141.258385
    },
    {
        "code": "B102210001301",
        "type": 16001,
        "name": "洞内小学校",
        "address": "十和田市洞内字長根32",
        "lat": 40.659645,
        "lng": 141.192557
    },
    {
        "code": "B102210001310",
        "type": 16001,
        "name": "深持小学校",
        "address": "十和田市深持字林12-3",
        "lat": 40.619093,
        "lng": 141.145618
    },
    {
        "code": "B102210001329",
        "type": 16001,
        "name": "松陽小学校",
        "address": "十和田市八斗沢字砂土路14-161",
        "lat": 40.6802,
        "lng": 141.246718
    },
    {
        "code": "B102210001338",
        "type": 16001,
        "name": "ちとせ小学校",
        "address": "十和田市元町西6-2-1",
        "lat": 40.626038,
        "lng": 141.198947
    },
    {
        "code": "B102210001347",
        "type": 16001,
        "name": "四和小学校",
        "address": "十和田市米田字高谷140",
        "lat": 40.547928,
        "lng": 141.235483
    },
    {
        "code": "B102210002122",
        "type": 16001,
        "name": "沢田小学校",
        "address": "十和田市沢田字田屋29",
        "lat": 40.584375,
        "lng": 141.152286
    },
    {
        "code": "B102210002131",
        "type": 16001,
        "name": "法奥小学校",
        "address": "十和田市奥瀬字下川目102-2",
        "lat": 40.586318,
        "lng": 141.097291
    },
    {
        "code": "B102210002140",
        "type": 16001,
        "name": "十和田湖小学校",
        "address": "十和田市奥瀬字十和田湖畔宇樽部420",
        "lat": 40.441468,
        "lng": 140.933664
    },
    {
        "code": "C102210000603",
        "type": 16002,
        "name": "三本木中学校",
        "address": "十和田市西十三番町5-24",
        "lat": 40.609094,
        "lng": 141.203391
    },
    {
        "code": "C102210000612",
        "type": 16002,
        "name": "切田中学校",
        "address": "十和田市切田字平林387",
        "lat": 40.580209,
        "lng": 141.186172
    },
    {
        "code": "C102210000621",
        "type": 16002,
        "name": "大深内中学校",
        "address": "十和田市洞内字千刈田24-6",
        "lat": 40.669089,
        "lng": 141.21561
    },
    {
        "code": "C102210000630",
        "type": 16002,
        "name": "甲東中学校",
        "address": "十和田市深持字南平330",
        "lat": 40.61576,
        "lng": 141.170893
    },
    {
        "code": "C102210000649",
        "type": 16002,
        "name": "十和田中学校",
        "address": "十和田市東十六番町27-1",
        "lat": 40.602985,
        "lng": 141.232832
    },
    {
        "code": "C102210000658",
        "type": 16002,
        "name": "四和中学校",
        "address": "十和田市米田字高谷140",
        "lat": 40.54827,
        "lng": 141.233945
    },
    {
        "code": "C102210000667",
        "type": 16002,
        "name": "東中学校",
        "address": "十和田市東二十二番町29-1",
        "lat": 40.626872,
        "lng": 141.238109
    },
    {
        "code": "C102210000676",
        "type": 16002,
        "name": "三本木高等学校附属中学校",
        "address": "十和田市西五番町7-1",
        "lat": 40.603303,
        "lng": 141.219266
    },
    {
        "code": "C102210001167",
        "type": 16002,
        "name": "十和田湖中学校",
        "address": "十和田市奥瀬字十和田湖畔宇樽部420",
        "lat": 40.442128,
        "lng": 140.932775
    },
    {
        "code": "C102210001176",
        "type": 16002,
        "name": "第一中学校",
        "address": "十和田市奥瀬字生内32-6",
        "lat": 40.578012,
        "lng": 141.105881
    },
    {
        "code": "D102210000200",
        "type": 16004,
        "name": "三本木高等学校",
        "address": "十和田市西五番町7-1",
        "lat": 40.60354,
        "lng": 141.219501
    },
    {
        "code": "D102210000282",
        "type": 16004,
        "name": "三本木農業高等学校",
        "address": "十和田市相坂字高清水78-92",
        "lat": 40.639927,
        "lng": 141.266439
    },
    {
        "code": "D102210000344",
        "type": 16004,
        "name": "十和田工業高等学校",
        "address": "十和田市三本木字下平215-1",
        "lat": 40.629093,
        "lng": 141.229499
    },
    {
        "code": "D102210000576",
        "type": 16004,
        "name": "十和田西高等学校",
        "address": "十和田市沢田字下洗53-3",
        "lat": 40.585486,
        "lng": 141.154508
    },
    {
        "code": "D102210000610",
        "type": 16004,
        "name": "三本木農業恵拓高等学校",
        "address": "十和田市相坂高清水78-92",
        "lat": 40.640338,
        "lng": 141.266618
    },
    {
        "code": "H202310000093",
        "type": 16015,
        "name": "済誠会附属十和田准看護学院",
        "address": "十和田市西二十三番町1-2",
        "lat": 40.609516,
        "lng": 141.20108
    }
]