[
    {
        "code": "A122210000060",
        "type": 16011,
        "name": "東幼稚園",
        "address": "三島市東町10-12",
        "lat": 35.117318,
        "lng": 138.924536
    },
    {
        "code": "A122210000088",
        "type": 16011,
        "name": "南幼稚園",
        "address": "三島市青木265",
        "lat": 35.107642,
        "lng": 138.91889
    },
    {
        "code": "A122210000097",
        "type": 16011,
        "name": "北幼稚園",
        "address": "三島市文教町1-4-1",
        "lat": 35.130937,
        "lng": 138.91329
    },
    {
        "code": "A122210000104",
        "type": 16011,
        "name": "錦田幼稚園",
        "address": "三島市谷田271-1",
        "lat": 35.113775,
        "lng": 138.934319
    },
    {
        "code": "A122210000113",
        "type": 16011,
        "name": "徳倉幼稚園",
        "address": "三島市徳倉4-1-8",
        "lat": 35.142025,
        "lng": 138.914223
    },
    {
        "code": "A122210000122",
        "type": 16011,
        "name": "松本幼稚園",
        "address": "三島市松本99-1",
        "lat": 35.088544,
        "lng": 138.919071
    },
    {
        "code": "A122210000131",
        "type": 16011,
        "name": "坂幼稚園",
        "address": "三島市市山新田153-1",
        "lat": 35.137116,
        "lng": 138.9608
    },
    {
        "code": "A122210000140",
        "type": 16011,
        "name": "大場幼稚園",
        "address": "三島市大場365",
        "lat": 35.097959,
        "lng": 138.943311
    },
    {
        "code": "A122210000159",
        "type": 16011,
        "name": "旭ケ丘幼稚園",
        "address": "三島市旭ヶ丘23-31",
        "lat": 35.130527,
        "lng": 138.933363
    },
    {
        "code": "A122210000168",
        "type": 16011,
        "name": "沢地幼稚園",
        "address": "三島市沢地257",
        "lat": 35.142647,
        "lng": 138.927177
    },
    {
        "code": "A122310000148",
        "type": 16011,
        "name": "よつば幼稚園",
        "address": "三島市大宮町3-2-8",
        "lat": 35.124791,
        "lng": 138.916539
    },
    {
        "code": "A122310000157",
        "type": 16011,
        "name": "星園幼稚園",
        "address": "三島市緑町6-14",
        "lat": 35.116347,
        "lng": 138.910165
    },
    {
        "code": "A122310000166",
        "type": 16011,
        "name": "桜ケ丘幼稚園",
        "address": "三島市谷田524-1",
        "lat": 35.110839,
        "lng": 138.934991
    },
    {
        "code": "A222310001048",
        "type": 16013,
        "name": "ピ?タ?パン幼稚園",
        "address": "三島市芙蓉台2-2-1",
        "lat": 35.153398,
        "lng": 138.915507
    },
    {
        "code": "A222310001057",
        "type": 16013,
        "name": "のびる幼稚園",
        "address": "三島市青木164",
        "lat": 35.10214,
        "lng": 138.923879
    },
    {
        "code": "A222310001066",
        "type": 16013,
        "name": "しらゆり幼稚園",
        "address": "三島市徳倉5-11-15",
        "lat": 35.149529,
        "lng": 138.915726
    },
    {
        "code": "B122210000291",
        "type": 16001,
        "name": "東小学校",
        "address": "三島市東町10-1",
        "lat": 35.117761,
        "lng": 138.925053
    },
    {
        "code": "B122210000308",
        "type": 16001,
        "name": "西小学校",
        "address": "三島市緑町7-7",
        "lat": 35.116372,
        "lng": 138.909277
    },
    {
        "code": "B122210000317",
        "type": 16001,
        "name": "南小学校",
        "address": "三島市富田町6-1",
        "lat": 35.1099,
        "lng": 138.917915
    },
    {
        "code": "B122210000326",
        "type": 16001,
        "name": "北小学校",
        "address": "三島市文教町1-4-8",
        "lat": 35.131232,
        "lng": 138.913331
    },
    {
        "code": "B122210000335",
        "type": 16001,
        "name": "錦田小学校",
        "address": "三島市谷田966",
        "lat": 35.112707,
        "lng": 138.936702
    },
    {
        "code": "B122210000344",
        "type": 16001,
        "name": "徳倉小学校",
        "address": "三島市徳倉4-1-45",
        "lat": 35.142286,
        "lng": 138.913359
    },
    {
        "code": "B122210000353",
        "type": 16001,
        "name": "坂小学校",
        "address": "三島市市山新田163-2",
        "lat": 35.136788,
        "lng": 138.961689
    },
    {
        "code": "B122210000362",
        "type": 16001,
        "name": "佐野小学校",
        "address": "三島市佐野238",
        "lat": 35.168754,
        "lng": 138.923942
    },
    {
        "code": "B122210000371",
        "type": 16001,
        "name": "中郷小学校",
        "address": "三島市梅名453",
        "lat": 35.095013,
        "lng": 138.927387
    },
    {
        "code": "B122210000380",
        "type": 16001,
        "name": "沢地小学校",
        "address": "三島市沢地127-1",
        "lat": 35.140564,
        "lng": 138.926664
    },
    {
        "code": "B122210000399",
        "type": 16001,
        "name": "向山小学校",
        "address": "三島市谷田1946",
        "lat": 35.104623,
        "lng": 138.938469
    },
    {
        "code": "B122210000406",
        "type": 16001,
        "name": "北上小学校",
        "address": "三島市徳倉844-1",
        "lat": 35.148979,
        "lng": 138.91336
    },
    {
        "code": "B122210000415",
        "type": 16001,
        "name": "山田小学校",
        "address": "三島市川原ヶ谷812",
        "lat": 35.133232,
        "lng": 138.934191
    },
    {
        "code": "B122210000424",
        "type": 16001,
        "name": "長伏小学校",
        "address": "三島市長伏226-5",
        "lat": 35.084986,
        "lng": 138.915277
    },
    {
        "code": "C122210000191",
        "type": 16002,
        "name": "南中学校",
        "address": "三島市富田町6-18",
        "lat": 35.109123,
        "lng": 138.918554
    },
    {
        "code": "C122210000208",
        "type": 16002,
        "name": "北中学校",
        "address": "三島市文教町2-32-60",
        "lat": 35.130593,
        "lng": 138.915165
    },
    {
        "code": "C122210000217",
        "type": 16002,
        "name": "中郷中学校",
        "address": "三島市大場250-1",
        "lat": 35.093846,
        "lng": 138.936108
    },
    {
        "code": "C122210000226",
        "type": 16002,
        "name": "錦田中学校",
        "address": "三島市谷田1505",
        "lat": 35.121872,
        "lng": 138.938413
    },
    {
        "code": "C122210000235",
        "type": 16002,
        "name": "北上中学校",
        "address": "三島市徳倉767-2",
        "lat": 35.152867,
        "lng": 138.91747
    },
    {
        "code": "C122210000244",
        "type": 16002,
        "name": "中郷西中学校",
        "address": "三島市梅名854-1",
        "lat": 35.089708,
        "lng": 138.923026
    },
    {
        "code": "C122210000253",
        "type": 16002,
        "name": "山田中学校",
        "address": "三島市川原ヶ谷842-4",
        "lat": 35.135065,
        "lng": 138.936135
    },
    {
        "code": "C122310000180",
        "type": 16002,
        "name": "日本大学三島中学校",
        "address": "三島市文教町2-31-145",
        "lat": 35.133452,
        "lng": 138.91473
    },
    {
        "code": "D122210000082",
        "type": 16004,
        "name": "三島南高等学校",
        "address": "三島市大場608",
        "lat": 35.095261,
        "lng": 138.945002
    },
    {
        "code": "D122210000091",
        "type": 16004,
        "name": "三島北高等学校",
        "address": "三島市文教町1-3-18",
        "lat": 35.129732,
        "lng": 138.913359
    },
    {
        "code": "D122210000288",
        "type": 16004,
        "name": "三島長陵高等学校",
        "address": "三島市文教町1-3-93",
        "lat": 35.128685,
        "lng": 138.911561
    },
    {
        "code": "D122310000035",
        "type": 16004,
        "name": "日本大学三島高等学校",
        "address": "三島市文教町2-31-145",
        "lat": 35.13337,
        "lng": 138.913609
    },
    {
        "code": "H122310000081",
        "type": 16016,
        "name": "中央歯科衛生士調理製菓専門学校",
        "address": "三島市一番町15-35",
        "lat": 35.125163,
        "lng": 138.910537
    },
    {
        "code": "H122310000090",
        "type": 16016,
        "name": "静岡県東部総合美容専門学校",
        "address": "三島市寿町3-42",
        "lat": 35.12496,
        "lng": 138.908307
    },
    {
        "code": "H222310000044",
        "type": 16015,
        "name": "渡辺ニッテイングスクール",
        "address": "三島市広小路町6-19",
        "lat": 35.119568,
        "lng": 138.91037
    }
]