[
    {
        "code": "A122310000772",
        "type": 16011,
        "name": "島田南幼稚園",
        "address": "島田市横井4-2-15",
        "lat": 34.829422,
        "lng": 138.177357
    },
    {
        "code": "A122310000781",
        "type": 16011,
        "name": "伊久身幼稚園",
        "address": "島田市身成332-1",
        "lat": 34.904481,
        "lng": 138.111955
    },
    {
        "code": "A122310000790",
        "type": 16011,
        "name": "島田北幼稚園",
        "address": "島田市野田1251-1",
        "lat": 34.843518,
        "lng": 138.182071
    },
    {
        "code": "A122310000807",
        "type": 16011,
        "name": "六合幼稚園",
        "address": "島田市道悦2-27-11",
        "lat": 34.835483,
        "lng": 138.203588
    },
    {
        "code": "A122310000816",
        "type": 16011,
        "name": "五和幼稚園",
        "address": "島田市島550-6",
        "lat": 34.844136,
        "lng": 138.125327
    },
    {
        "code": "A122310001174",
        "type": 16011,
        "name": "金谷幼稚園",
        "address": "島田市金谷根岸町47-1",
        "lat": 34.827913,
        "lng": 138.125844
    },
    {
        "code": "A222310001155",
        "type": 16013,
        "name": "みどり認定こども園",
        "address": "島田市大柳南308",
        "lat": 34.80862,
        "lng": 138.2261
    },
    {
        "code": "A222310001164",
        "type": 16013,
        "name": "島田学園付属幼稚園",
        "address": "島田市伊太2075-1",
        "lat": 34.848181,
        "lng": 138.152463
    },
    {
        "code": "A222310001173",
        "type": 16013,
        "name": "島田中央幼稚園",
        "address": "島田市旗指2888-1",
        "lat": 34.844834,
        "lng": 138.166642
    },
    {
        "code": "A222310001182",
        "type": 16013,
        "name": "幼保連携型認定こども園エルフのみらい",
        "address": "島田市道悦2-27-14",
        "lat": 34.835078,
        "lng": 138.203939
    },
    {
        "code": "A222310001191",
        "type": 16013,
        "name": "幼保連携型認定こども園エルフのゆめ",
        "address": "島田市東町1210",
        "lat": 34.833813,
        "lng": 138.221762
    },
    {
        "code": "B122210002422",
        "type": 16001,
        "name": "島田第一小学校",
        "address": "島田市稲荷2-19-1",
        "lat": 34.839779,
        "lng": 138.152827
    },
    {
        "code": "B122210002431",
        "type": 16001,
        "name": "島田第二小学校",
        "address": "島田市中溝町2372",
        "lat": 34.83703,
        "lng": 138.169436
    },
    {
        "code": "B122210002440",
        "type": 16001,
        "name": "島田第三小学校",
        "address": "島田市南1-10-1",
        "lat": 34.826726,
        "lng": 138.178935
    },
    {
        "code": "B122210002459",
        "type": 16001,
        "name": "島田第四小学校",
        "address": "島田市中河町201",
        "lat": 34.842307,
        "lng": 138.178685
    },
    {
        "code": "B122210002468",
        "type": 16001,
        "name": "六合小学校",
        "address": "島田市道悦5-13-1",
        "lat": 34.835864,
        "lng": 138.210015
    },
    {
        "code": "B122210002477",
        "type": 16001,
        "name": "大津小学校",
        "address": "島田市落合160-1",
        "lat": 34.854972,
        "lng": 138.180907
    },
    {
        "code": "B122210002486",
        "type": 16001,
        "name": "伊太小学校",
        "address": "島田市伊太1314",
        "lat": 34.848917,
        "lng": 138.152022
    },
    {
        "code": "B122210002495",
        "type": 16001,
        "name": "相賀小学校",
        "address": "島田市相賀875",
        "lat": 34.873552,
        "lng": 138.134967
    },
    {
        "code": "B122210002501",
        "type": 16001,
        "name": "神座小学校",
        "address": "島田市神座1444",
        "lat": 34.87419,
        "lng": 138.10833
    },
    {
        "code": "B122210002510",
        "type": 16001,
        "name": "伊久美小学校",
        "address": "島田市伊久美3690-1",
        "lat": 34.928573,
        "lng": 138.141188
    },
    {
        "code": "B122210002529",
        "type": 16001,
        "name": "初倉小学校",
        "address": "島田市阪本1331",
        "lat": 34.8062,
        "lng": 138.222903
    },
    {
        "code": "B122210002547",
        "type": 16001,
        "name": "島田第五小学校",
        "address": "島田市旭2-25-1",
        "lat": 34.831031,
        "lng": 138.197544
    },
    {
        "code": "B122210002556",
        "type": 16001,
        "name": "初倉南小学校",
        "address": "島田市南原10",
        "lat": 34.797368,
        "lng": 138.224931
    },
    {
        "code": "B122210002565",
        "type": 16001,
        "name": "六合東小学校",
        "address": "島田市東町1200",
        "lat": 34.834641,
        "lng": 138.221931
    },
    {
        "code": "B122210003350",
        "type": 16001,
        "name": "金谷小学校",
        "address": "島田市金谷根岸町33",
        "lat": 34.82639,
        "lng": 138.127415
    },
    {
        "code": "B122210003369",
        "type": 16001,
        "name": "五和小学校",
        "address": "島田市牛尾435",
        "lat": 34.846972,
        "lng": 138.122413
    },
    {
        "code": "B122210003378",
        "type": 16001,
        "name": "川根小学校",
        "address": "島田市川根町家山400-1",
        "lat": 34.939824,
        "lng": 138.075436
    },
    {
        "code": "C122110000031",
        "type": 16002,
        "name": "静岡大学教育学部附属島田中学校",
        "address": "島田市中河町169",
        "lat": 34.843418,
        "lng": 138.176463
    },
    {
        "code": "C122210001341",
        "type": 16002,
        "name": "島田第一中学校",
        "address": "島田市稲荷3-18-1",
        "lat": 34.83868,
        "lng": 138.155922
    },
    {
        "code": "C122210001350",
        "type": 16002,
        "name": "島田第二中学校",
        "address": "島田市旗指77-1",
        "lat": 34.843498,
        "lng": 138.174377
    },
    {
        "code": "C122210001369",
        "type": 16002,
        "name": "六合中学校",
        "address": "島田市道悦2-25-1",
        "lat": 34.834141,
        "lng": 138.203266
    },
    {
        "code": "C122210001378",
        "type": 16002,
        "name": "初倉中学校",
        "address": "島田市大柳南132",
        "lat": 34.804729,
        "lng": 138.228014
    },
    {
        "code": "C122210001813",
        "type": 16002,
        "name": "金谷中学校",
        "address": "島田市金谷栄町211-1",
        "lat": 34.832409,
        "lng": 138.124275
    },
    {
        "code": "C122210001822",
        "type": 16002,
        "name": "川根中学校",
        "address": "島田市川根町身成3340",
        "lat": 34.943874,
        "lng": 138.086006
    },
    {
        "code": "D122210000466",
        "type": 16004,
        "name": "島田高等学校",
        "address": "島田市稲荷1-7-1",
        "lat": 34.837613,
        "lng": 138.149466
    },
    {
        "code": "D122210000475",
        "type": 16004,
        "name": "島田工業高等学校",
        "address": "島田市阿知ヶ谷201",
        "lat": 34.838974,
        "lng": 138.201877
    },
    {
        "code": "D122210000484",
        "type": 16004,
        "name": "島田商業高等学校",
        "address": "島田市祇園町8707",
        "lat": 34.834688,
        "lng": 138.18419
    },
    {
        "code": "D122210000493",
        "type": 16004,
        "name": "金谷高等学校",
        "address": "島田市金谷根岸町35",
        "lat": 34.827123,
        "lng": 138.126884
    },
    {
        "code": "D122310000295",
        "type": 16004,
        "name": "島田樟誠高等学校",
        "address": "島田市伊太2075-1",
        "lat": 34.84725,
        "lng": 138.153244
    },
    {
        "code": "H122210000047",
        "type": 16016,
        "name": "島田市立看護専門学校",
        "address": "島田市野田1065-1",
        "lat": 34.847131,
        "lng": 138.183893
    },
    {
        "code": "H122310000474",
        "type": 16016,
        "name": "島田実業高等専修学校",
        "address": "島田市元島田9217-1",
        "lat": 34.839916,
        "lng": 138.185579
    }
]