[
    {
        "code": "A122210000765",
        "type": 16011,
        "name": "大富幼稚園",
        "address": "焼津市中根新田638",
        "lat": 34.833727,
        "lng": 138.293771
    },
    {
        "code": "A122210000774",
        "type": 16011,
        "name": "東益津幼稚園",
        "address": "焼津市石脇下791-2",
        "lat": 34.887091,
        "lng": 138.322181
    },
    {
        "code": "A122210000783",
        "type": 16011,
        "name": "さつき幼稚園",
        "address": "焼津市大覚寺3-5-1",
        "lat": 34.873464,
        "lng": 138.300759
    },
    {
        "code": "A122210000827",
        "type": 16011,
        "name": "静浜幼稚園",
        "address": "焼津市宗高88",
        "lat": 34.813797,
        "lng": 138.284032
    },
    {
        "code": "A122210000836",
        "type": 16011,
        "name": "大井川西幼稚園",
        "address": "焼津市下江留2300-1",
        "lat": 34.814613,
        "lng": 138.266484
    },
    {
        "code": "A122210000845",
        "type": 16011,
        "name": "大井川南幼稚園",
        "address": "焼津市吉永334-2",
        "lat": 34.796026,
        "lng": 138.290251
    },
    {
        "code": "A122210000854",
        "type": 16011,
        "name": "静浜幼稚園下藤分園",
        "address": "焼津市下小杉1361",
        "lat": 34.810888,
        "lng": 138.307104
    },
    {
        "code": "A122310000825",
        "type": 16011,
        "name": "相愛学園焼津幼稚園",
        "address": "焼津市焼津5-4-2",
        "lat": 34.861317,
        "lng": 138.318417
    },
    {
        "code": "A122310000834",
        "type": 16011,
        "name": "新屋幼稚園",
        "address": "焼津市本町1-1-10",
        "lat": 34.868795,
        "lng": 138.321903
    },
    {
        "code": "A122310000843",
        "type": 16011,
        "name": "西町幼稚園",
        "address": "焼津市大村1-12",
        "lat": 34.874433,
        "lng": 138.308078
    },
    {
        "code": "A122310000852",
        "type": 16011,
        "name": "小川幼稚園",
        "address": "焼津市東小川6-21-4",
        "lat": 34.852781,
        "lng": 138.311577
    },
    {
        "code": "A122310000861",
        "type": 16011,
        "name": "みなと幼稚園",
        "address": "焼津市中港1-7-23",
        "lat": 34.873278,
        "lng": 138.321998
    },
    {
        "code": "A122310000870",
        "type": 16011,
        "name": "焼津豊田幼稚園",
        "address": "焼津市小土1059-1",
        "lat": 34.863534,
        "lng": 138.288655
    },
    {
        "code": "A122310000889",
        "type": 16011,
        "name": "みやじま幼稚園",
        "address": "焼津市三ヶ名字宮嶋807-1",
        "lat": 34.859915,
        "lng": 138.301795
    },
    {
        "code": "A122310000898",
        "type": 16011,
        "name": "焼津中央幼稚園",
        "address": "焼津市西小川1-2-14",
        "lat": 34.860906,
        "lng": 138.31191
    },
    {
        "code": "A122310000905",
        "type": 16011,
        "name": "まどか幼稚園",
        "address": "焼津市田尻北1223-2",
        "lat": 34.839845,
        "lng": 138.329058
    },
    {
        "code": "A122310000914",
        "type": 16011,
        "name": "三和幼稚園",
        "address": "焼津市三和614-2",
        "lat": 34.826497,
        "lng": 138.299613
    },
    {
        "code": "A122310000923",
        "type": 16011,
        "name": "すみれ台幼稚園",
        "address": "焼津市すみれ台1-25-1",
        "lat": 34.830963,
        "lng": 138.324586
    },
    {
        "code": "B122210002574",
        "type": 16001,
        "name": "焼津東小学校",
        "address": "焼津市栄町5-14-1",
        "lat": 34.867945,
        "lng": 138.318281
    },
    {
        "code": "B122210002583",
        "type": 16001,
        "name": "焼津西小学校",
        "address": "焼津市塩津117-1",
        "lat": 34.866056,
        "lng": 138.309949
    },
    {
        "code": "B122210002592",
        "type": 16001,
        "name": "焼津南小学校",
        "address": "焼津市焼津5-5-1",
        "lat": 34.861056,
        "lng": 138.317253
    },
    {
        "code": "B122210002609",
        "type": 16001,
        "name": "豊田小学校",
        "address": "焼津市五ｹ堀之内2",
        "lat": 34.863529,
        "lng": 138.290368
    },
    {
        "code": "B122210002618",
        "type": 16001,
        "name": "小川小学校",
        "address": "焼津市小川2525",
        "lat": 34.84978,
        "lng": 138.316919
    },
    {
        "code": "B122210002627",
        "type": 16001,
        "name": "東益津小学校",
        "address": "焼津市石脇上65",
        "lat": 34.886554,
        "lng": 138.320309
    },
    {
        "code": "B122210002636",
        "type": 16001,
        "name": "大富小学校",
        "address": "焼津市中根新田637",
        "lat": 34.834172,
        "lng": 138.294868
    },
    {
        "code": "B122210002645",
        "type": 16001,
        "name": "和田小学校",
        "address": "焼津市田尻541",
        "lat": 34.827478,
        "lng": 138.321087
    },
    {
        "code": "B122210002654",
        "type": 16001,
        "name": "港小学校",
        "address": "焼津市石津港町40-2",
        "lat": 34.840781,
        "lng": 138.326947
    },
    {
        "code": "B122210002663",
        "type": 16001,
        "name": "黒石小学校",
        "address": "焼津市大住1246",
        "lat": 34.850725,
        "lng": 138.300645
    },
    {
        "code": "B122210003181",
        "type": 16001,
        "name": "大井川東小学校",
        "address": "焼津市宗高428",
        "lat": 34.807592,
        "lng": 138.293064
    },
    {
        "code": "B122210003190",
        "type": 16001,
        "name": "大井川西小学校",
        "address": "焼津市上泉1688-1",
        "lat": 34.814535,
        "lng": 138.2654
    },
    {
        "code": "B122210003207",
        "type": 16001,
        "name": "大井川南小学校",
        "address": "焼津市吉永490",
        "lat": 34.794732,
        "lng": 138.294453
    },
    {
        "code": "C122210001396",
        "type": 16002,
        "name": "焼津中学校",
        "address": "焼津市焼津2-10-28",
        "lat": 34.86475,
        "lng": 138.312032
    },
    {
        "code": "C122210001403",
        "type": 16002,
        "name": "大村中学校",
        "address": "焼津市大村3-25-1",
        "lat": 34.871556,
        "lng": 138.304422
    },
    {
        "code": "C122210001412",
        "type": 16002,
        "name": "豊田中学校",
        "address": "焼津市小土301-2",
        "lat": 34.868084,
        "lng": 138.292979
    },
    {
        "code": "C122210001421",
        "type": 16002,
        "name": "小川中学校",
        "address": "焼津市東小川4-21-1",
        "lat": 34.853026,
        "lng": 138.313776
    },
    {
        "code": "C122210001430",
        "type": 16002,
        "name": "東益津中学校",
        "address": "焼津市中里416",
        "lat": 34.885193,
        "lng": 138.318976
    },
    {
        "code": "C122210001449",
        "type": 16002,
        "name": "大富中学校",
        "address": "焼津市中根1-1",
        "lat": 34.83931,
        "lng": 138.29809
    },
    {
        "code": "C122210001458",
        "type": 16002,
        "name": "和田中学校",
        "address": "焼津市田尻1984",
        "lat": 34.826589,
        "lng": 138.320948
    },
    {
        "code": "C122210001467",
        "type": 16002,
        "name": "港中学校",
        "address": "焼津市田尻北584",
        "lat": 34.838309,
        "lng": 138.33003
    },
    {
        "code": "C122210001751",
        "type": 16002,
        "name": "大井川中学校",
        "address": "焼津市下江留191",
        "lat": 34.800953,
        "lng": 138.28126
    },
    {
        "code": "D122210000411",
        "type": 16004,
        "name": "焼津中央高等学校",
        "address": "焼津市小土157-1",
        "lat": 34.867528,
        "lng": 138.289841
    },
    {
        "code": "D122210000420",
        "type": 16004,
        "name": "焼津水産高等学校",
        "address": "焼津市焼津5-5-2",
        "lat": 34.860056,
        "lng": 138.317725
    },
    {
        "code": "D122210000858",
        "type": 16004,
        "name": "清流館高等学校",
        "address": "焼津市上新田292-1",
        "lat": 34.821035,
        "lng": 138.275233
    },
    {
        "code": "D122310000277",
        "type": 16004,
        "name": "焼津高等学校",
        "address": "焼津市中港1-1-8",
        "lat": 34.872611,
        "lng": 138.320531
    },
    {
        "code": "E122210000356",
        "type": 16012,
        "name": "藤枝特別支援学校焼津分校",
        "address": "焼津市焼津5-5-2",
        "lat": 34.859948,
        "lng": 138.317539
    },
    {
        "code": "F122310106284",
        "type": 16007,
        "name": "静岡福祉大学",
        "address": "焼津市本中根549-1",
        "lat": 34.829526,
        "lng": 138.296875
    },
    {
        "code": "H122210000056",
        "type": 16016,
        "name": "中部看護専門学校",
        "address": "焼津市東小川1-6-9",
        "lat": 34.860709,
        "lng": 138.313726
    }
]