[
    {
        "code": "A122210000505",
        "type": 16011,
        "name": "長岡幼稚園",
        "address": "伊豆の国市長岡1212",
        "lat": 35.031935,
        "lng": 138.939144
    },
    {
        "code": "A122210000587",
        "type": 16011,
        "name": "共和幼稚園",
        "address": "伊豆の国市中773-1",
        "lat": 35.038209,
        "lng": 138.951869
    },
    {
        "code": "A122210000596",
        "type": 16011,
        "name": "富士美幼稚園",
        "address": "伊豆の国市原木1343",
        "lat": 35.064817,
        "lng": 138.949261
    },
    {
        "code": "A122210000603",
        "type": 16011,
        "name": "のぞみ幼稚園",
        "address": "伊豆の国市吉田416-1",
        "lat": 35.002486,
        "lng": 138.941812
    },
    {
        "code": "A122210000612",
        "type": 16011,
        "name": "田京幼稚園",
        "address": "伊豆の国市田京238-21",
        "lat": 35.015217,
        "lng": 138.942731
    },
    {
        "code": "A222310001654",
        "type": 16013,
        "name": "しょうれんじこども園楽生・寿光",
        "address": "伊豆の国市南江間919",
        "lat": 35.05476,
        "lng": 138.930684
    },
    {
        "code": "A222310001663",
        "type": 16013,
        "name": "慈恩こども園",
        "address": "伊豆の国市白山堂171-2",
        "lat": 35.020819,
        "lng": 138.940551
    },
    {
        "code": "B122210001272",
        "type": 16001,
        "name": "長岡南小学校",
        "address": "伊豆の国市長岡1294-1",
        "lat": 35.031354,
        "lng": 138.937998
    },
    {
        "code": "B122210001281",
        "type": 16001,
        "name": "長岡北小学校",
        "address": "伊豆の国市南江間1200",
        "lat": 35.053907,
        "lng": 138.926498
    },
    {
        "code": "B122210001398",
        "type": 16001,
        "name": "韮山小学校",
        "address": "伊豆の国市四日町350",
        "lat": 35.055713,
        "lng": 138.947886
    },
    {
        "code": "B122210001405",
        "type": 16001,
        "name": "韮山南小学校",
        "address": "伊豆の国市中817-1",
        "lat": 35.038743,
        "lng": 138.952747
    },
    {
        "code": "B122210001414",
        "type": 16001,
        "name": "大仁小学校",
        "address": "伊豆の国市三福325",
        "lat": 35.008468,
        "lng": 138.947081
    },
    {
        "code": "B122210001423",
        "type": 16001,
        "name": "大仁北小学校",
        "address": "伊豆の国市守木312",
        "lat": 35.01805,
        "lng": 138.948136
    },
    {
        "code": "C122210000743",
        "type": 16002,
        "name": "長岡中学校",
        "address": "伊豆の国市長岡1407-1",
        "lat": 35.043353,
        "lng": 138.922804
    },
    {
        "code": "C122210000798",
        "type": 16002,
        "name": "韮山中学校",
        "address": "伊豆の国市韮山韮山393",
        "lat": 35.052038,
        "lng": 138.954914
    },
    {
        "code": "C122210000805",
        "type": 16002,
        "name": "大仁中学校",
        "address": "伊豆の国市三福1276-3",
        "lat": 35.000053,
        "lng": 138.948414
    },
    {
        "code": "D122210000064",
        "type": 16004,
        "name": "韮山高等学校",
        "address": "伊豆の国市韮山韮山229",
        "lat": 35.055163,
        "lng": 138.955207
    },
    {
        "code": "D122210000251",
        "type": 16004,
        "name": "伊豆中央高等学校",
        "address": "伊豆の国市寺家970-1",
        "lat": 35.041579,
        "lng": 138.937777
    },
    {
        "code": "E122210000105",
        "type": 16012,
        "name": "東部特別支援学校",
        "address": "伊豆の国市寺家246-1",
        "lat": 35.047503,
        "lng": 138.944836
    },
    {
        "code": "E122210000383",
        "type": 16012,
        "name": "伊豆の国特別支援学校",
        "address": "伊豆の国市寺家235",
        "lat": 35.04868,
        "lng": 138.944095
    },
    {
        "code": "H122310000768",
        "type": 16016,
        "name": "専門学校白寿医療学院",
        "address": "伊豆の国市南江間1949",
        "lat": 35.046428,
        "lng": 138.930832
    }
]