[
    {
        "code": "A122210000453",
        "type": 16011,
        "name": "稲取幼稚園",
        "address": "賀茂郡東伊豆町稲取1569-6",
        "lat": 34.767439,
        "lng": 139.037384
    },
    {
        "code": "A122210000462",
        "type": 16011,
        "name": "熱川幼稚園",
        "address": "賀茂郡東伊豆町奈良本745-145",
        "lat": 34.812556,
        "lng": 139.059624
    },
    {
        "code": "B122210001085",
        "type": 16001,
        "name": "稲取小学校",
        "address": "賀茂郡東伊豆町稲取614-1",
        "lat": 34.769742,
        "lng": 139.038748
    },
    {
        "code": "B122210001094",
        "type": 16001,
        "name": "熱川小学校",
        "address": "賀茂郡東伊豆町奈良本771-1",
        "lat": 34.812764,
        "lng": 139.060244
    },
    {
        "code": "C122210000627",
        "type": 16002,
        "name": "稲取中学校",
        "address": "賀茂郡東伊豆町稲取1873",
        "lat": 34.76988,
        "lng": 139.035664
    },
    {
        "code": "C122210000636",
        "type": 16002,
        "name": "熱川中学校",
        "address": "賀茂郡東伊豆町奈良本1296-3",
        "lat": 34.815653,
        "lng": 139.053633
    },
    {
        "code": "D122210000028",
        "type": 16004,
        "name": "稲取高等学校",
        "address": "賀茂郡東伊豆町稲取3012-2",
        "lat": 34.781213,
        "lng": 139.047858
    },
    {
        "code": "H222310000071",
        "type": 16015,
        "name": "稲取珠算学校",
        "address": "賀茂郡東伊豆町稲取424-8",
        "lat": 34.76997,
        "lng": 139.040426
    }
]