[
    {
        "code": "A122210000523",
        "type": 16011,
        "name": "春光幼稚園",
        "address": "田方郡函南町仁田613-2",
        "lat": 35.08175,
        "lng": 138.94901
    },
    {
        "code": "A122210000532",
        "type": 16011,
        "name": "丹那幼稚園",
        "address": "田方郡函南町丹那445-1",
        "lat": 35.106015,
        "lng": 139.018744
    },
    {
        "code": "A122210000541",
        "type": 16011,
        "name": "二葉幼稚園",
        "address": "田方郡函南町上沢658-35",
        "lat": 35.102381,
        "lng": 138.960116
    },
    {
        "code": "A122210000550",
        "type": 16011,
        "name": "間宮幼稚園",
        "address": "田方郡函南町間宮865-5",
        "lat": 35.08788,
        "lng": 138.940394
    },
    {
        "code": "A122210000569",
        "type": 16011,
        "name": "みのり幼稚園",
        "address": "田方郡函南町肥田677-1",
        "lat": 35.072809,
        "lng": 138.931244
    },
    {
        "code": "A122210000578",
        "type": 16011,
        "name": "自由ケ丘幼稚園",
        "address": "田方郡函南町平井1041-1",
        "lat": 35.091123,
        "lng": 138.960233
    },
    {
        "code": "B122210001343",
        "type": 16001,
        "name": "函南小学校",
        "address": "田方郡函南町仁田148",
        "lat": 35.082681,
        "lng": 138.94608
    },
    {
        "code": "B122210001352",
        "type": 16001,
        "name": "丹那小学校",
        "address": "田方郡函南町丹那443",
        "lat": 35.106237,
        "lng": 139.01949
    },
    {
        "code": "B122210001361",
        "type": 16001,
        "name": "桑村小学校",
        "address": "田方郡函南町桑原933",
        "lat": 35.114179,
        "lng": 138.972605
    },
    {
        "code": "B122210001370",
        "type": 16001,
        "name": "東小学校",
        "address": "田方郡函南町平井972",
        "lat": 35.089069,
        "lng": 138.960884
    },
    {
        "code": "B122210001389",
        "type": 16001,
        "name": "西小学校",
        "address": "田方郡函南町間宮475",
        "lat": 35.081876,
        "lng": 138.937386
    },
    {
        "code": "C122210000770",
        "type": 16002,
        "name": "函南中学校",
        "address": "田方郡函南町仁田56",
        "lat": 35.088013,
        "lng": 138.943469
    },
    {
        "code": "C122210000789",
        "type": 16002,
        "name": "東中学校",
        "address": "田方郡函南町柏谷540",
        "lat": 35.07832,
        "lng": 138.95369
    },
    {
        "code": "D122210000073",
        "type": 16004,
        "name": "田方農業高等学校",
        "address": "田方郡函南町塚本961",
        "lat": 35.080737,
        "lng": 138.942497
    },
    {
        "code": "E122210000052",
        "type": 16012,
        "name": "沼津特別支援学校伊豆田方分校",
        "address": "田方郡函南町塚本961",
        "lat": 35.080265,
        "lng": 138.942565
    }
]