[
    {
        "code": "A122210001540",
        "type": 16011,
        "name": "飯田幼稚園",
        "address": "周智郡森町飯田4058-1",
        "lat": 34.811496,
        "lng": 137.919967
    },
    {
        "code": "A122210001559",
        "type": 16011,
        "name": "園田幼稚園",
        "address": "周智郡森町谷中513-6",
        "lat": 34.811679,
        "lng": 137.901466
    },
    {
        "code": "A122210001568",
        "type": 16011,
        "name": "一宮幼稚園",
        "address": "周智郡森町一宮1845-2",
        "lat": 34.824927,
        "lng": 137.891278
    },
    {
        "code": "A122210001577",
        "type": 16011,
        "name": "森幼稚園",
        "address": "周智郡森町森2320",
        "lat": 34.838876,
        "lng": 137.928247
    },
    {
        "code": "A122210001586",
        "type": 16011,
        "name": "三倉幼稚園",
        "address": "周智郡森町三倉740",
        "lat": 34.902385,
        "lng": 137.947465
    },
    {
        "code": "A122210001595",
        "type": 16011,
        "name": "天方幼稚園",
        "address": "周智郡森町大鳥居73",
        "lat": 34.858899,
        "lng": 137.941162
    },
    {
        "code": "B122210004563",
        "type": 16001,
        "name": "飯田小学校",
        "address": "周智郡森町飯田3310-1",
        "lat": 34.811638,
        "lng": 137.921375
    },
    {
        "code": "B122210004572",
        "type": 16001,
        "name": "宮園小学校",
        "address": "周智郡森町谷中650",
        "lat": 34.817025,
        "lng": 137.89946
    },
    {
        "code": "B122210004581",
        "type": 16001,
        "name": "森小学校",
        "address": "周智郡森町森125",
        "lat": 34.837884,
        "lng": 137.929208
    },
    {
        "code": "C122210002402",
        "type": 16002,
        "name": "旭が丘中学校",
        "address": "周智郡森町谷中556",
        "lat": 34.815303,
        "lng": 137.901238
    },
    {
        "code": "C122210002411",
        "type": 16002,
        "name": "森中学校",
        "address": "周智郡森町天宮888-1",
        "lat": 34.8453,
        "lng": 137.932429
    },
    {
        "code": "D122210000830",
        "type": 16004,
        "name": "遠江総合高等学校",
        "address": "周智郡森町森2085",
        "lat": 34.835899,
        "lng": 137.925942
    }
]