[
    {
        "code": "A102310000687",
        "type": 16011,
        "name": "山彦幼稚園",
        "address": "東津軽郡平内町小湊字下槻5-36",
        "lat": 40.923877,
        "lng": 140.962322
    },
    {
        "code": "A202310001373",
        "type": 16013,
        "name": "東和保育園",
        "address": "東津軽郡平内町小湊字前萢53-308",
        "lat": 40.936566,
        "lng": 140.969282
    },
    {
        "code": "B102210001506",
        "type": 16001,
        "name": "小湊小学校",
        "address": "東津軽郡平内町小湊字後萢15",
        "lat": 40.926555,
        "lng": 140.950898
    },
    {
        "code": "B102210001515",
        "type": 16001,
        "name": "山口小学校",
        "address": "東津軽郡平内町山口字小沢20-1",
        "lat": 40.915443,
        "lng": 140.907291
    },
    {
        "code": "B102210001524",
        "type": 16001,
        "name": "東小学校",
        "address": "東津軽郡平内町口広字水須3-9",
        "lat": 40.917948,
        "lng": 141.028392
    },
    {
        "code": "C102210000792",
        "type": 16002,
        "name": "小湊中学校",
        "address": "東津軽郡平内町小湊字後萢21-1",
        "lat": 40.9235,
        "lng": 140.950898
    },
    {
        "code": "C102210000809",
        "type": 16002,
        "name": "西平内中学校",
        "address": "東津軽郡平内町山口字小沢44-3",
        "lat": 40.915721,
        "lng": 140.905902
    },
    {
        "code": "C102210000818",
        "type": 16002,
        "name": "東平内中学校",
        "address": "東津軽郡平内町清水川字道巣5-1",
        "lat": 40.919614,
        "lng": 141.025892
    },
    {
        "code": "D102310000155",
        "type": 16004,
        "name": "松風塾高等学校",
        "address": "東津軽郡平内町外童子字滝ﾉ沢37",
        "lat": 40.849342,
        "lng": 140.985898
    }
]