[
    {
        "code": "A202310002041",
        "type": 16013,
        "name": "風のまちこども園",
        "address": "東津軽郡外ヶ浜町字下蟹田122-5",
        "lat": 41.045297,
        "lng": 140.641363
    },
    {
        "code": "B102210001533",
        "type": 16001,
        "name": "蟹田小学校",
        "address": "東津軽郡外ヶ浜町字蟹田鰐ヶ淵24-2",
        "lat": 41.042793,
        "lng": 140.634611
    },
    {
        "code": "B102210001560",
        "type": 16001,
        "name": "三厩小学校",
        "address": "東津軽郡外ヶ浜町字三厩桃ヶ丘1",
        "lat": 41.19364,
        "lng": 140.433546
    },
    {
        "code": "C102210000827",
        "type": 16002,
        "name": "蟹田中学校",
        "address": "東津軽郡外ヶ浜町字蟹田田ﾉ沢78",
        "lat": 41.035979,
        "lng": 140.642031
    },
    {
        "code": "C102210000854",
        "type": 16002,
        "name": "三厩中学校",
        "address": "東津軽郡外ヶ浜町字三厩下平5-1",
        "lat": 41.228052,
        "lng": 140.399611
    }
]