[
    {
        "code": "A123110000016",
        "type": 16011,
        "name": "愛知教育大学附属幼稚園",
        "address": "名古屋市東区大幸南1-126",
        "lat": 35.188997,
        "lng": 136.951934
    },
    {
        "code": "A123210000005",
        "type": 16011,
        "name": "第二幼稚園",
        "address": "名古屋市千種区千種3-4-1",
        "lat": 35.16217,
        "lng": 136.93491
    },
    {
        "code": "A123210000014",
        "type": 16011,
        "name": "第一幼稚園",
        "address": "名古屋市東区泉1-1-42",
        "lat": 35.177738,
        "lng": 136.908621
    },
    {
        "code": "A123210000023",
        "type": 16011,
        "name": "大幸幼稚園",
        "address": "名古屋市東区砂田橋5-6-20",
        "lat": 35.186578,
        "lng": 136.960324
    },
    {
        "code": "A123210000032",
        "type": 16011,
        "name": "報徳幼稚園",
        "address": "名古屋市北区平安2-21-61",
        "lat": 35.196059,
        "lng": 136.933994
    },
    {
        "code": "A123210000041",
        "type": 16011,
        "name": "楠西幼稚園",
        "address": "名古屋市北区会所町82-1",
        "lat": 35.239442,
        "lng": 136.907618
    },
    {
        "code": "A123210000050",
        "type": 16011,
        "name": "おりべ幼稚園",
        "address": "名古屋市北区織部町1-9",
        "lat": 35.199719,
        "lng": 136.928036
    },
    {
        "code": "A123210000069",
        "type": 16011,
        "name": "第三幼稚園",
        "address": "名古屋市西区那古野2-15-1",
        "lat": 35.17634,
        "lng": 136.887233
    },
    {
        "code": "A123210000078",
        "type": 16011,
        "name": "比良西幼稚園",
        "address": "名古屋市西区清里町39",
        "lat": 35.229856,
        "lng": 136.890286
    },
    {
        "code": "A123210000087",
        "type": 16011,
        "name": "吹上幼稚園",
        "address": "名古屋市昭和区吹上町1-27",
        "lat": 35.157001,
        "lng": 136.929644
    },
    {
        "code": "A123210000096",
        "type": 16011,
        "name": "高田幼稚園",
        "address": "名古屋市瑞穂区直来町3-20",
        "lat": 35.129431,
        "lng": 136.923495
    },
    {
        "code": "A123210000103",
        "type": 16011,
        "name": "常磐幼稚園",
        "address": "名古屋市中川区小本1-15-2",
        "lat": 35.149196,
        "lng": 136.862653
    },
    {
        "code": "A123210000112",
        "type": 16011,
        "name": "荒子幼稚園",
        "address": "名古屋市中川区中郷4-234",
        "lat": 35.134002,
        "lng": 136.85042
    },
    {
        "code": "A123210000121",
        "type": 16011,
        "name": "春田幼稚園",
        "address": "名古屋市中川区東春田2-143",
        "lat": 35.140225,
        "lng": 136.817311
    },
    {
        "code": "A123210000130",
        "type": 16011,
        "name": "はとり幼稚園",
        "address": "名古屋市中川区服部3-601",
        "lat": 35.148351,
        "lng": 136.813061
    },
    {
        "code": "A123210000149",
        "type": 16011,
        "name": "二城幼稚園",
        "address": "名古屋市守山区鳥神町248",
        "lat": 35.209264,
        "lng": 136.956606
    },
    {
        "code": "A123210000158",
        "type": 16011,
        "name": "鳴子幼稚園",
        "address": "名古屋市緑区鳴子町1-54",
        "lat": 35.097443,
        "lng": 136.966122
    },
    {
        "code": "A123210000167",
        "type": 16011,
        "name": "桶狭間幼稚園",
        "address": "名古屋市緑区南陵102",
        "lat": 35.050616,
        "lng": 136.96825
    },
    {
        "code": "A123210000176",
        "type": 16011,
        "name": "大高幼稚園",
        "address": "名古屋市緑区森の里1-107",
        "lat": 35.060497,
        "lng": 136.94013
    },
    {
        "code": "A123210000185",
        "type": 16011,
        "name": "神の倉幼稚園",
        "address": "名古屋市緑区神の倉4-210",
        "lat": 35.100944,
        "lng": 137.011843
    },
    {
        "code": "A123210000194",
        "type": 16011,
        "name": "西山台幼稚園",
        "address": "名古屋市名東区亀の井2-41",
        "lat": 35.162921,
        "lng": 136.996088
    },
    {
        "code": "A123210000201",
        "type": 16011,
        "name": "猪高幼稚園",
        "address": "名古屋市名東区丁田町33",
        "lat": 35.178584,
        "lng": 137.003252
    },
    {
        "code": "A123210000210",
        "type": 16011,
        "name": "梅森坂幼稚園",
        "address": "名古屋市名東区梅森坂3-210",
        "lat": 35.143871,
        "lng": 137.017711
    },
    {
        "code": "A123210000229",
        "type": 16011,
        "name": "植田幼稚園",
        "address": "名古屋市天白区植田本町1-1201",
        "lat": 35.135716,
        "lng": 136.992837
    },
    {
        "code": "A123310000003",
        "type": 16011,
        "name": "椙山女学園大学附属幼稚園",
        "address": "名古屋市千種区山添町2-2",
        "lat": 35.163357,
        "lng": 136.951288
    },
    {
        "code": "A123310000012",
        "type": 16011,
        "name": "愛英幼稚園",
        "address": "名古屋市千種区今池5-24-7",
        "lat": 35.166541,
        "lng": 136.937482
    },
    {
        "code": "A123310000021",
        "type": 16011,
        "name": "わかば幼稚園",
        "address": "名古屋市千種区猫洞通2-13",
        "lat": 35.16905,
        "lng": 136.971498
    },
    {
        "code": "A123310000030",
        "type": 16011,
        "name": "青葉幼稚園",
        "address": "名古屋市千種区唐山町1-61",
        "lat": 35.159614,
        "lng": 136.969145
    },
    {
        "code": "A123310000049",
        "type": 16011,
        "name": "第二自由ケ丘幼稚園",
        "address": "名古屋市千種区宮根台2-4-30",
        "lat": 35.18519,
        "lng": 136.979203
    },
    {
        "code": "A123310000058",
        "type": 16011,
        "name": "名古屋ルーテル幼稚園",
        "address": "名古屋市千種区今池3-5-19",
        "lat": 35.166433,
        "lng": 136.935813
    },
    {
        "code": "A123310000067",
        "type": 16011,
        "name": "天満幼稚園",
        "address": "名古屋市千種区天満通1-46",
        "lat": 35.180792,
        "lng": 136.955641
    },
    {
        "code": "A123310000076",
        "type": 16011,
        "name": "若竹幼稚園",
        "address": "名古屋市千種区内山2-18-12",
        "lat": 35.170838,
        "lng": 136.940848
    },
    {
        "code": "A123310000085",
        "type": 16011,
        "name": "自由ケ丘幼稚園",
        "address": "名古屋市千種区富士見台3-9-2",
        "lat": 35.182684,
        "lng": 136.970998
    },
    {
        "code": "A123310000094",
        "type": 16011,
        "name": "聖マリア幼稚園",
        "address": "名古屋市千種区園山町1-59",
        "lat": 35.158823,
        "lng": 136.966318
    },
    {
        "code": "A123310000101",
        "type": 16011,
        "name": "城山幼稚園",
        "address": "名古屋市千種区城山新町2-71",
        "lat": 35.171777,
        "lng": 136.96033
    },
    {
        "code": "A123310000110",
        "type": 16011,
        "name": "上野幼稚園",
        "address": "名古屋市千種区上野3-2-20",
        "lat": 35.178923,
        "lng": 136.950552
    },
    {
        "code": "A123310000129",
        "type": 16011,
        "name": "城山学院幼稚園",
        "address": "名古屋市千種区城山新町2-71",
        "lat": 35.171308,
        "lng": 136.960196
    },
    {
        "code": "A123310000138",
        "type": 16011,
        "name": "第三自由ケ丘幼稚園",
        "address": "名古屋市千種区千代が丘1-24",
        "lat": 35.182018,
        "lng": 136.982294
    },
    {
        "code": "A123310000147",
        "type": 16011,
        "name": "名古屋柳城短期大学附属柳城幼稚園",
        "address": "名古屋市東区白壁1-31",
        "lat": 35.182551,
        "lng": 136.912761
    },
    {
        "code": "A123310000156",
        "type": 16011,
        "name": "東桜幼稚園",
        "address": "名古屋市東区東桜2-8-26",
        "lat": 35.172811,
        "lng": 136.915964
    },
    {
        "code": "A123310000165",
        "type": 16011,
        "name": "名古屋文化幼稚園",
        "address": "名古屋市東区白壁1-54",
        "lat": 35.181501,
        "lng": 136.911619
    },
    {
        "code": "A123310000174",
        "type": 16011,
        "name": "筒井幼稚園",
        "address": "名古屋市東区筒井町4-13",
        "lat": 35.176929,
        "lng": 136.930151
    },
    {
        "code": "A123310000183",
        "type": 16011,
        "name": "明星幼稚園",
        "address": "名古屋市東区代官町22-17",
        "lat": 35.177166,
        "lng": 136.923174
    },
    {
        "code": "A123310000192",
        "type": 16011,
        "name": "建中寺幼稚園",
        "address": "名古屋市東区筒井1-7-52",
        "lat": 35.178641,
        "lng": 136.927654
    },
    {
        "code": "A123310000209",
        "type": 16011,
        "name": "山田幼稚園",
        "address": "名古屋市北区山田町4-42",
        "lat": 35.197588,
        "lng": 136.938852
    },
    {
        "code": "A123310000218",
        "type": 16011,
        "name": "久国幼稚園",
        "address": "名古屋市北区大杉3-4-1",
        "lat": 35.189689,
        "lng": 136.915821
    },
    {
        "code": "A123310000227",
        "type": 16011,
        "name": "志賀幼稚園",
        "address": "名古屋市北区志賀町5-46",
        "lat": 35.202562,
        "lng": 136.916531
    },
    {
        "code": "A123310000236",
        "type": 16011,
        "name": "如意幼稚園",
        "address": "名古屋市北区六が池町72",
        "lat": 35.238286,
        "lng": 136.927816
    },
    {
        "code": "A123310000245",
        "type": 16011,
        "name": "聖心幼稚園",
        "address": "名古屋市北区金城1-1-57",
        "lat": 35.193415,
        "lng": 136.901303
    },
    {
        "code": "A123310000254",
        "type": 16011,
        "name": "ゼンヌ幼稚園",
        "address": "名古屋市北区大杉3-12-8",
        "lat": 35.189392,
        "lng": 136.918282
    },
    {
        "code": "A123310000263",
        "type": 16011,
        "name": "名古屋楠幼稚園",
        "address": "名古屋市北区西味鋺3-931",
        "lat": 35.222841,
        "lng": 136.919415
    },
    {
        "code": "A123310000272",
        "type": 16011,
        "name": "城北幼稚園",
        "address": "名古屋市北区川中町6-11",
        "lat": 35.213273,
        "lng": 136.911277
    },
    {
        "code": "A123310000281",
        "type": 16011,
        "name": "金城幼稚園",
        "address": "名古屋市北区金城町2-23-2",
        "lat": 35.200174,
        "lng": 136.906633
    },
    {
        "code": "A123310000290",
        "type": 16011,
        "name": "西城幼稚園",
        "address": "名古屋市西区城西3-4-5",
        "lat": 35.187319,
        "lng": 136.892354
    },
    {
        "code": "A123310000307",
        "type": 16011,
        "name": "名古屋西幼稚園",
        "address": "名古屋市西区菊井2-2-10",
        "lat": 35.17952,
        "lng": 136.885619
    },
    {
        "code": "A123310000316",
        "type": 16011,
        "name": "桂幼稚園",
        "address": "名古屋市西区又穂町2-1",
        "lat": 35.205056,
        "lng": 136.898086
    },
    {
        "code": "A123310000325",
        "type": 16011,
        "name": "枇杷島幼稚園",
        "address": "名古屋市西区枇杷島4-8-2",
        "lat": 35.193837,
        "lng": 136.873384
    },
    {
        "code": "A123310000334",
        "type": 16011,
        "name": "国風第二幼稚園",
        "address": "名古屋市西区名塚町4-46",
        "lat": 35.208545,
        "lng": 136.888935
    },
    {
        "code": "A123310000343",
        "type": 16011,
        "name": "国風第一幼稚園",
        "address": "名古屋市西区笠取町2‐89",
        "lat": 35.200062,
        "lng": 136.889746
    },
    {
        "code": "A123310000352",
        "type": 16011,
        "name": "幅下幼稚園",
        "address": "名古屋市西区城西2-4-16",
        "lat": 35.184783,
        "lng": 136.893782
    },
    {
        "code": "A123310000361",
        "type": 16011,
        "name": "みどりケ丘幼稚園",
        "address": "名古屋市西区平中町202",
        "lat": 35.22537,
        "lng": 136.864717
    },
    {
        "code": "A123310000370",
        "type": 16011,
        "name": "善光寺別院幼稚園",
        "address": "名古屋市西区中小田井1-353",
        "lat": 35.213691,
        "lng": 136.878705
    },
    {
        "code": "A123310000389",
        "type": 16011,
        "name": "中京幼稚園",
        "address": "名古屋市中村区則武本通2-55",
        "lat": 35.17299,
        "lng": 136.872348
    },
    {
        "code": "A123310000398",
        "type": 16011,
        "name": "清正幼稚園",
        "address": "名古屋市中村区藤江町4-32",
        "lat": 35.172568,
        "lng": 136.861516
    },
    {
        "code": "A123310000405",
        "type": 16011,
        "name": "同朋幼稚園",
        "address": "名古屋市中村区稲葉地町7-1",
        "lat": 35.164362,
        "lng": 136.84398
    },
    {
        "code": "A123310000414",
        "type": 16011,
        "name": "太閤幼稚園",
        "address": "名古屋市中村区二ﾂ橋町5-20",
        "lat": 35.164311,
        "lng": 136.868143
    },
    {
        "code": "A123310000423",
        "type": 16011,
        "name": "名古屋遊花幼稚園",
        "address": "名古屋市中村区栄生町9-30",
        "lat": 35.182539,
        "lng": 136.871884
    },
    {
        "code": "A123310000432",
        "type": 16011,
        "name": "飯田幼稚園",
        "address": "名古屋市中村区向島町5-28",
        "lat": 35.161816,
        "lng": 136.850784
    },
    {
        "code": "A123310000441",
        "type": 16011,
        "name": "わかくさ幼稚園",
        "address": "名古屋市中村区深川町1-6",
        "lat": 35.161272,
        "lng": 136.875904
    },
    {
        "code": "A123310000450",
        "type": 16011,
        "name": "みのり幼稚園",
        "address": "名古屋市中村区日比津町4-7-27",
        "lat": 35.17845,
        "lng": 136.858136
    },
    {
        "code": "A123310000469",
        "type": 16011,
        "name": "上の宮幼稚園",
        "address": "名古屋市中村区上ﾉ宮町1-27",
        "lat": 35.176695,
        "lng": 136.86408
    },
    {
        "code": "A123310000478",
        "type": 16011,
        "name": "とよとみ幼稚園",
        "address": "名古屋市中村区中村町7-19",
        "lat": 35.170626,
        "lng": 136.855664
    },
    {
        "code": "A123310000487",
        "type": 16011,
        "name": "岩塚第一幼稚園",
        "address": "名古屋市中村区八社1-145",
        "lat": 35.151518,
        "lng": 136.841258
    },
    {
        "code": "A123310000496",
        "type": 16011,
        "name": "名古屋教会幼稚園",
        "address": "名古屋市中区丸の内3-4-5",
        "lat": 35.177931,
        "lng": 136.905238
    },
    {
        "code": "A123310000502",
        "type": 16011,
        "name": "お東幼稚園",
        "address": "名古屋市中区橘2-8-75",
        "lat": 35.152813,
        "lng": 136.901388
    },
    {
        "code": "A123310000511",
        "type": 16011,
        "name": "西別院幼稚園",
        "address": "名古屋市中区門前町1-23",
        "lat": 35.157395,
        "lng": 136.900155
    },
    {
        "code": "A123310000520",
        "type": 16011,
        "name": "松元幼稚園",
        "address": "名古屋市中区千代田2-6-19",
        "lat": 35.158494,
        "lng": 136.912501
    },
    {
        "code": "A123310000539",
        "type": 16011,
        "name": "大須幼稚園",
        "address": "名古屋市中区大須3-1-53",
        "lat": 35.161482,
        "lng": 136.903152
    },
    {
        "code": "A123310000548",
        "type": 16011,
        "name": "滝子幼稚園",
        "address": "名古屋市昭和区永金町1-1-15",
        "lat": 35.143814,
        "lng": 136.926754
    },
    {
        "code": "A123310000557",
        "type": 16011,
        "name": "希望学園希望幼稚園",
        "address": "名古屋市昭和区塩付通6-8",
        "lat": 35.143683,
        "lng": 136.937446
    },
    {
        "code": "A123310000566",
        "type": 16011,
        "name": "みちる幼稚園",
        "address": "名古屋市昭和区北山町3-9-2",
        "lat": 35.15274,
        "lng": 136.935738
    },
    {
        "code": "A123310000575",
        "type": 16011,
        "name": "高辻幼稚園",
        "address": "名古屋市昭和区白金3-9-15",
        "lat": 35.141927,
        "lng": 136.915665
    },
    {
        "code": "A123310000584",
        "type": 16011,
        "name": "天池幼稚園",
        "address": "名古屋市昭和区御器所2-9-16",
        "lat": 35.148126,
        "lng": 136.922334
    },
    {
        "code": "A123310000593",
        "type": 16011,
        "name": "南山幼稚園",
        "address": "名古屋市昭和区南山町14",
        "lat": 35.139106,
        "lng": 136.953903
    },
    {
        "code": "A123310000600",
        "type": 16011,
        "name": "第一村雲幼稚園",
        "address": "名古屋市昭和区円上町11-14",
        "lat": 35.142669,
        "lng": 136.921204
    },
    {
        "code": "A123310000619",
        "type": 16011,
        "name": "広路幼稚園",
        "address": "名古屋市昭和区安田通2-15",
        "lat": 35.156057,
        "lng": 136.942984
    },
    {
        "code": "A123310000628",
        "type": 16011,
        "name": "享栄学園享栄幼稚園",
        "address": "名古屋市瑞穂区東栄町2-4",
        "lat": 35.136051,
        "lng": 136.937168
    },
    {
        "code": "A123310000637",
        "type": 16011,
        "name": "みずほが丘幼稚園",
        "address": "名古屋市瑞穂区高田町2-5",
        "lat": 35.13545,
        "lng": 136.929439
    },
    {
        "code": "A123310000646",
        "type": 16011,
        "name": "弥富二葉幼稚園",
        "address": "名古屋市瑞穂区丸根町2-54",
        "lat": 35.115018,
        "lng": 136.951593
    },
    {
        "code": "A123310000655",
        "type": 16011,
        "name": "旭キンダーの丘幼稚園",
        "address": "名古屋市瑞穂区田辺通3-20",
        "lat": 35.13013,
        "lng": 136.94596
    },
    {
        "code": "A123310000664",
        "type": 16011,
        "name": "弥富幼稚園",
        "address": "名古屋市瑞穂区岳見町4-41",
        "lat": 35.122259,
        "lng": 136.958751
    },
    {
        "code": "A123310000673",
        "type": 16011,
        "name": "萩山幼稚園",
        "address": "名古屋市瑞穂区萩山町3-4",
        "lat": 35.127016,
        "lng": 136.941135
    },
    {
        "code": "A123310000682",
        "type": 16011,
        "name": "しおじ幼稚園",
        "address": "名古屋市瑞穂区汐路町4-23",
        "lat": 35.129871,
        "lng": 136.940166
    },
    {
        "code": "A123310000691",
        "type": 16011,
        "name": "白竜幼稚園",
        "address": "名古屋市瑞穂区田光町3-30",
        "lat": 35.124135,
        "lng": 136.929595
    },
    {
        "code": "A123310000708",
        "type": 16011,
        "name": "聖テレジア幼稚園",
        "address": "名古屋市熱田区大宝4-5-17",
        "lat": 35.129085,
        "lng": 136.892406
    },
    {
        "code": "A123310000717",
        "type": 16011,
        "name": "白鳥幼稚園",
        "address": "名古屋市熱田区白鳥2-12-15",
        "lat": 35.125889,
        "lng": 136.906103
    },
    {
        "code": "A123310000726",
        "type": 16011,
        "name": "内田橋聖アントニオ幼稚園",
        "address": "名古屋市熱田区伝馬2-28-14",
        "lat": 35.117845,
        "lng": 136.909472
    },
    {
        "code": "A123310000735",
        "type": 16011,
        "name": "堅磐信誠幼稚園",
        "address": "名古屋市熱田区玉の井町9-28",
        "lat": 35.130666,
        "lng": 136.907055
    },
    {
        "code": "A123310000744",
        "type": 16011,
        "name": "星条幼稚園",
        "address": "名古屋市中川区八熊3-11-5",
        "lat": 35.142358,
        "lng": 136.888789
    },
    {
        "code": "A123310000753",
        "type": 16011,
        "name": "のぞみ幼稚園",
        "address": "名古屋市中川区五女子1-5-5",
        "lat": 35.143666,
        "lng": 136.884579
    },
    {
        "code": "A123310000762",
        "type": 16011,
        "name": "戸田幼稚園",
        "address": "名古屋市中川区戸田2-2801",
        "lat": 35.139163,
        "lng": 136.804973
    },
    {
        "code": "A123310000771",
        "type": 16011,
        "name": "万場幼稚園",
        "address": "名古屋市中川区万場5-203",
        "lat": 35.157414,
        "lng": 136.828714
    },
    {
        "code": "A123310000799",
        "type": 16011,
        "name": "法誓幼稚園",
        "address": "名古屋市中川区愛知町31-12",
        "lat": 35.152779,
        "lng": 136.873926
    },
    {
        "code": "A123310000806",
        "type": 16011,
        "name": "打中幼稚園",
        "address": "名古屋市中川区打中2-195",
        "lat": 35.13342,
        "lng": 136.84417
    },
    {
        "code": "A123310000824",
        "type": 16011,
        "name": "港北幼稚園",
        "address": "名古屋市港区正徳町5-135",
        "lat": 35.119718,
        "lng": 136.85826
    },
    {
        "code": "A123310000833",
        "type": 16011,
        "name": "慶和幼稚園",
        "address": "名古屋市港区港栄4-4-18",
        "lat": 35.09939,
        "lng": 136.881367
    },
    {
        "code": "A123310000842",
        "type": 16011,
        "name": "小碓幼稚園",
        "address": "名古屋市港区小碓3-134",
        "lat": 35.115677,
        "lng": 136.849831
    },
    {
        "code": "A123310000851",
        "type": 16011,
        "name": "萬泰幼稚園",
        "address": "名古屋市港区稲永1-9-18",
        "lat": 35.089164,
        "lng": 136.859815
    },
    {
        "code": "A123310000860",
        "type": 16011,
        "name": "うぐいす幼稚園",
        "address": "名古屋市港区本宮町5-16",
        "lat": 35.109076,
        "lng": 136.867768
    },
    {
        "code": "A123310000879",
        "type": 16011,
        "name": "呉竹幼稚園",
        "address": "名古屋市港区名四町121",
        "lat": 35.099198,
        "lng": 136.867069
    },
    {
        "code": "A123310000888",
        "type": 16011,
        "name": "富士文化幼稚園",
        "address": "名古屋市港区小賀須1-801",
        "lat": 35.114527,
        "lng": 136.829868
    },
    {
        "code": "A123310000897",
        "type": 16011,
        "name": "西福田幼稚園",
        "address": "名古屋市港区福屋2-70",
        "lat": 35.116227,
        "lng": 136.801987
    },
    {
        "code": "A123310000904",
        "type": 16011,
        "name": "しらさぎ幼稚園",
        "address": "名古屋市港区宝神5-3302",
        "lat": 35.089002,
        "lng": 136.847422
    },
    {
        "code": "A123310000913",
        "type": 16011,
        "name": "道徳和光幼稚園",
        "address": "名古屋市南区道徳北町2-14",
        "lat": 35.10615,
        "lng": 136.907462
    },
    {
        "code": "A123310000922",
        "type": 16011,
        "name": "鶴田幼稚園",
        "address": "名古屋市南区鶴田1-5-20",
        "lat": 35.110026,
        "lng": 136.945127
    },
    {
        "code": "A123310000931",
        "type": 16011,
        "name": "大江幼稚園",
        "address": "名古屋市南区港東通1-11",
        "lat": 35.091568,
        "lng": 136.914281
    },
    {
        "code": "A123310000940",
        "type": 16011,
        "name": "マハヤナ幼稚園",
        "address": "名古屋市南区呼続3-11-23",
        "lat": 35.109474,
        "lng": 136.933367
    },
    {
        "code": "A123310000968",
        "type": 16011,
        "name": "善東幼稚園",
        "address": "名古屋市南区鳥山町3-40-1",
        "lat": 35.092905,
        "lng": 136.933787
    },
    {
        "code": "A123310000977",
        "type": 16011,
        "name": "正和幼稚園",
        "address": "名古屋市南区星崎1-310",
        "lat": 35.080203,
        "lng": 136.935756
    },
    {
        "code": "A123310000986",
        "type": 16011,
        "name": "ユタカ幼稚園",
        "address": "名古屋市南区内田橋2-30-8",
        "lat": 35.112971,
        "lng": 136.908633
    },
    {
        "code": "A123310000995",
        "type": 16011,
        "name": "みどり幼稚園",
        "address": "名古屋市南区呼続5-14-34",
        "lat": 35.100704,
        "lng": 136.932237
    },
    {
        "code": "A123310001002",
        "type": 16011,
        "name": "山崎幼稚園",
        "address": "名古屋市南区呼続2-20-11",
        "lat": 35.111187,
        "lng": 136.930131
    },
    {
        "code": "A123310001011",
        "type": 16011,
        "name": "第二松元幼稚園",
        "address": "名古屋市南区明円町180",
        "lat": 35.100949,
        "lng": 136.945691
    },
    {
        "code": "A123310001020",
        "type": 16011,
        "name": "瀬古幼稚園",
        "address": "名古屋市守山区瀬古東3-119",
        "lat": 35.210968,
        "lng": 136.938558
    },
    {
        "code": "A123310001039",
        "type": 16011,
        "name": "志だみ幼稚園",
        "address": "名古屋市守山区中志段味吉田洞2911-18",
        "lat": 35.242553,
        "lng": 137.028652
    },
    {
        "code": "A123310001048",
        "type": 16011,
        "name": "ひまわり幼稚園",
        "address": "名古屋市守山区白山1-807",
        "lat": 35.195184,
        "lng": 137.020525
    },
    {
        "code": "A123310001057",
        "type": 16011,
        "name": "守山幼稚園",
        "address": "名古屋市守山区大屋敷13-73",
        "lat": 35.203307,
        "lng": 136.965862
    },
    {
        "code": "A123310001066",
        "type": 16011,
        "name": "小幡あさひ幼稚園",
        "address": "名古屋市守山区小幡南2-5-9",
        "lat": 35.198199,
        "lng": 136.978558
    },
    {
        "code": "A123310001075",
        "type": 16011,
        "name": "喜多山幼稚園",
        "address": "名古屋市守山区小幡4-12-52",
        "lat": 35.207292,
        "lng": 136.982925
    },
    {
        "code": "A123310001084",
        "type": 16011,
        "name": "第二富士幼稚園",
        "address": "名古屋市守山区小幡中3-28-30",
        "lat": 35.207839,
        "lng": 136.976094
    },
    {
        "code": "A123310001093",
        "type": 16011,
        "name": "ともしび幼稚園",
        "address": "名古屋市守山区更屋敷10-11",
        "lat": 35.192755,
        "lng": 136.959979
    },
    {
        "code": "A123310001100",
        "type": 16011,
        "name": "みつる幼稚園",
        "address": "名古屋市守山区大森1-2711",
        "lat": 35.203376,
        "lng": 136.996458
    },
    {
        "code": "A123310001119",
        "type": 16011,
        "name": "金城学院幼稚園",
        "address": "名古屋市守山区大森2-1724",
        "lat": 35.208701,
        "lng": 136.993298
    },
    {
        "code": "A123310001128",
        "type": 16011,
        "name": "吉根みどり幼稚園",
        "address": "名古屋市守山区花咲台1-502",
        "lat": 35.233292,
        "lng": 137.008365
    },
    {
        "code": "A123310001137",
        "type": 16011,
        "name": "第二若竹幼稚園",
        "address": "名古屋市守山区森孝3-1803",
        "lat": 35.195233,
        "lng": 137.010979
    },
    {
        "code": "A123310001146",
        "type": 16011,
        "name": "鳴海ケ丘幼稚園",
        "address": "名古屋市緑区鳴海町字有松裏70-3",
        "lat": 35.069395,
        "lng": 136.973927
    },
    {
        "code": "A123310001155",
        "type": 16011,
        "name": "鳴海幼稚園",
        "address": "名古屋市緑区鳴海町向田272",
        "lat": 35.077112,
        "lng": 136.94904
    },
    {
        "code": "A123310001164",
        "type": 16011,
        "name": "有松幼稚園",
        "address": "名古屋市緑区有松212",
        "lat": 35.068967,
        "lng": 136.967347
    },
    {
        "code": "A123310001173",
        "type": 16011,
        "name": "あけの星幼稚園",
        "address": "名古屋市緑区ほら貝1-52",
        "lat": 35.10214,
        "lng": 136.978871
    },
    {
        "code": "A123310001182",
        "type": 16011,
        "name": "新生幼稚園",
        "address": "名古屋市緑区古鳴海1-165",
        "lat": 35.100375,
        "lng": 136.960568
    },
    {
        "code": "A123310001191",
        "type": 16011,
        "name": "緑学園平手幼稚園",
        "address": "名古屋市緑区平手北2-1113",
        "lat": 35.085459,
        "lng": 136.991026
    },
    {
        "code": "A123310001208",
        "type": 16011,
        "name": "マツガネ台幼稚園",
        "address": "名古屋市緑区松が根台182",
        "lat": 35.093973,
        "lng": 136.953871
    },
    {
        "code": "A123310001217",
        "type": 16011,
        "name": "池上台幼稚園",
        "address": "名古屋市緑区池上台2-194",
        "lat": 35.092546,
        "lng": 136.966814
    },
    {
        "code": "A123310001226",
        "type": 16011,
        "name": "黒石みどり幼稚園",
        "address": "名古屋市緑区桃山3-201",
        "lat": 35.101371,
        "lng": 136.989681
    },
    {
        "code": "A123310001235",
        "type": 16011,
        "name": "徳重幼稚園",
        "address": "名古屋市緑区亀が洞2-401",
        "lat": 35.094878,
        "lng": 137.009485
    },
    {
        "code": "A123310001244",
        "type": 16011,
        "name": "風かおる丘幼稚園",
        "address": "名古屋市緑区大高町丸根42-1",
        "lat": 35.065346,
        "lng": 136.946154
    },
    {
        "code": "A123310001253",
        "type": 16011,
        "name": "登美幼稚園",
        "address": "名古屋市緑区定納山1-603",
        "lat": 35.054664,
        "lng": 136.935306
    },
    {
        "code": "A123310001262",
        "type": 16011,
        "name": "愛英西山幼稚園",
        "address": "名古屋市名東区扇町1-73",
        "lat": 35.1556,
        "lng": 136.993966
    },
    {
        "code": "A123310001271",
        "type": 16011,
        "name": "あいわ幼稚園",
        "address": "名古屋市名東区神里2-168",
        "lat": 35.154542,
        "lng": 137.001918
    },
    {
        "code": "A123310001280",
        "type": 16011,
        "name": "星ケ丘幼稚園",
        "address": "名古屋市名東区名東本町20",
        "lat": 35.163557,
        "lng": 136.991582
    },
    {
        "code": "A123310001299",
        "type": 16011,
        "name": "東名幼稚園",
        "address": "名古屋市名東区藤森2-43",
        "lat": 35.180813,
        "lng": 137.009838
    },
    {
        "code": "A123310001306",
        "type": 16011,
        "name": "健峰幼稚園",
        "address": "名古屋市名東区小池町65",
        "lat": 35.180794,
        "lng": 137.018748
    },
    {
        "code": "A123310001315",
        "type": 16011,
        "name": "珉光幼稚園",
        "address": "名古屋市名東区平和が丘3-78",
        "lat": 35.169881,
        "lng": 136.988477
    },
    {
        "code": "A123310001324",
        "type": 16011,
        "name": "高針幼稚園",
        "address": "名古屋市名東区高針台3-701",
        "lat": 35.157064,
        "lng": 137.016827
    },
    {
        "code": "A123310001333",
        "type": 16011,
        "name": "よもぎ幼稚園",
        "address": "名古屋市名東区よもぎ台1-101",
        "lat": 35.179382,
        "lng": 136.987032
    },
    {
        "code": "A123310001342",
        "type": 16011,
        "name": "上社幼稚園",
        "address": "名古屋市名東区上社5-301",
        "lat": 35.170812,
        "lng": 137.013674
    },
    {
        "code": "A123310001351",
        "type": 16011,
        "name": "あいく学園むらくも幼稚園",
        "address": "名古屋市名東区大針3-344-2",
        "lat": 35.147946,
        "lng": 137.017558
    },
    {
        "code": "A123310001360",
        "type": 16011,
        "name": "東貴船幼稚園",
        "address": "名古屋市名東区貴船3-2001",
        "lat": 35.163568,
        "lng": 137.012311
    },
    {
        "code": "A123310001379",
        "type": 16011,
        "name": "愛英名東幼稚園",
        "address": "名古屋市名東区高針原2-1510",
        "lat": 35.146943,
        "lng": 136.995574
    },
    {
        "code": "A123310001388",
        "type": 16011,
        "name": "名古屋あかつき幼稚園",
        "address": "名古屋市天白区平針南2-1005",
        "lat": 35.111512,
        "lng": 137.005049
    },
    {
        "code": "A123310001397",
        "type": 16011,
        "name": "ひばり幼稚園",
        "address": "名古屋市天白区久方1-147",
        "lat": 35.107095,
        "lng": 136.976416
    },
    {
        "code": "A123310001404",
        "type": 16011,
        "name": "天道幼稚園",
        "address": "名古屋市天白区八事天道815",
        "lat": 35.134159,
        "lng": 136.962162
    },
    {
        "code": "A123310001413",
        "type": 16011,
        "name": "島田幼稚園",
        "address": "名古屋市天白区島田黒石507",
        "lat": 35.109675,
        "lng": 136.990272
    },
    {
        "code": "A123310001422",
        "type": 16011,
        "name": "名古屋女子大学付属幼稚園",
        "address": "名古屋市天白区高宮町401-2",
        "lat": 35.11581,
        "lng": 136.97531
    },
    {
        "code": "A123310001431",
        "type": 16011,
        "name": "原幼稚園",
        "address": "名古屋市天白区原3-107",
        "lat": 35.120713,
        "lng": 136.988889
    },
    {
        "code": "A123310001440",
        "type": 16011,
        "name": "上田学園高坂幼稚園",
        "address": "名古屋市天白区高坂町47-1",
        "lat": 35.106501,
        "lng": 136.985087
    },
    {
        "code": "A123310001459",
        "type": 16011,
        "name": "栄光八事幼稚園",
        "address": "名古屋市天白区天白町八事裏山122",
        "lat": 35.143976,
        "lng": 136.982445
    },
    {
        "code": "A223310000002",
        "type": 16013,
        "name": "認定丘の上こども園",
        "address": "名古屋市緑区高根山1-1601",
        "lat": 35.045685,
        "lng": 136.947077
    },
    {
        "code": "A223310000011",
        "type": 16013,
        "name": "葵第二幼稚園",
        "address": "名古屋市南区白水町26",
        "lat": 35.075731,
        "lng": 136.906923
    },
    {
        "code": "A223310000020",
        "type": 16013,
        "name": "名古屋東幼稚園",
        "address": "名古屋市名東区亀の井2-210",
        "lat": 35.163801,
        "lng": 136.999312
    },
    {
        "code": "A223310000137",
        "type": 16013,
        "name": "千草保育園",
        "address": "名古屋市千種区下方町3-3-1",
        "lat": 35.179712,
        "lng": 136.95396
    },
    {
        "code": "A223310000146",
        "type": 16013,
        "name": "富士見の森こども園",
        "address": "名古屋市千種区富士見台1-22",
        "lat": 35.18279,
        "lng": 136.96724
    },
    {
        "code": "A223310000155",
        "type": 16013,
        "name": "幼保連携型認定こども園寺子屋大の木",
        "address": "名古屋市西区大野木2-135",
        "lat": 35.218008,
        "lng": 136.8962
    },
    {
        "code": "A223310000164",
        "type": 16013,
        "name": "オアシスこども園",
        "address": "名古屋市西区大野木4-43",
        "lat": 35.222393,
        "lng": 136.897344
    },
    {
        "code": "A223310000173",
        "type": 16013,
        "name": "南山ルンビニー園",
        "address": "名古屋市昭和区南山町5",
        "lat": 35.140363,
        "lng": 136.955404
    },
    {
        "code": "A223310000182",
        "type": 16013,
        "name": "黎明保育園",
        "address": "名古屋市瑞穂区河岸町3-36",
        "lat": 35.115702,
        "lng": 136.926946
    },
    {
        "code": "A223310000191",
        "type": 16013,
        "name": "名古屋ドレミこども園",
        "address": "名古屋市港区秋葉2-110",
        "lat": 35.106842,
        "lng": 136.81733
    },
    {
        "code": "A223310000208",
        "type": 16013,
        "name": "道徳保育園",
        "address": "名古屋市南区観音町6-20",
        "lat": 35.098798,
        "lng": 136.90792
    },
    {
        "code": "A223310000217",
        "type": 16013,
        "name": "白水保育園",
        "address": "名古屋市南区鶴見通1-3-11",
        "lat": 35.075537,
        "lng": 136.912147
    },
    {
        "code": "A223310000226",
        "type": 16013,
        "name": "幼保連携型認定こども園スカイ",
        "address": "名古屋市守山区桔梗平1-408-1",
        "lat": 35.229114,
        "lng": 136.994989
    },
    {
        "code": "A223310000235",
        "type": 16013,
        "name": "フェアリーイースト保育園",
        "address": "名古屋市守山区大字下志段味字吉田2235",
        "lat": 35.237564,
        "lng": 137.025871
    },
    {
        "code": "A223310000244",
        "type": 16013,
        "name": "キリクこども園",
        "address": "名古屋市守山区大字上志段味字樹木1663",
        "lat": 35.249453,
        "lng": 137.036541
    },
    {
        "code": "A223310000253",
        "type": 16013,
        "name": "めぐみ保育園",
        "address": "名古屋市緑区有松町大字桶狭間字愛宕西23-73",
        "lat": 35.060601,
        "lng": 136.966014
    },
    {
        "code": "A223310000262",
        "type": 16013,
        "name": "滝の水保育園",
        "address": "名古屋市緑区滝ﾉ水1-301",
        "lat": 35.09053,
        "lng": 136.975022
    },
    {
        "code": "A223310000271",
        "type": 16013,
        "name": "神の倉清凉保育園",
        "address": "名古屋市緑区東神の倉3-1803",
        "lat": 35.105015,
        "lng": 137.018148
    },
    {
        "code": "A223310000342",
        "type": 16013,
        "name": "高坂こども園",
        "address": "名古屋市天白区高坂町74",
        "lat": 35.106084,
        "lng": 136.98559
    },
    {
        "code": "A223310000379",
        "type": 16013,
        "name": "しらほ宮根台保育園",
        "address": "名古屋市千種区宮根台1-5-6",
        "lat": 35.186984,
        "lng": 136.981019
    },
    {
        "code": "A223310000388",
        "type": 16013,
        "name": "ひだまりkids茶屋ヶ坂こども園",
        "address": "名古屋市千種区茶屋が坂1-13-6",
        "lat": 35.186031,
        "lng": 136.960124
    },
    {
        "code": "A223310000397",
        "type": 16013,
        "name": "ジョイフルドーム前こども園",
        "address": "名古屋市東区大幸1-1-11",
        "lat": 35.190577,
        "lng": 136.946966
    },
    {
        "code": "A223310000404",
        "type": 16013,
        "name": "あおいこども園",
        "address": "名古屋市東区筒井1-12-38",
        "lat": 35.17765,
        "lng": 136.927348
    },
    {
        "code": "A223310000413",
        "type": 16013,
        "name": "上飯田みらいこども園",
        "address": "名古屋市北区上飯田通2-32",
        "lat": 35.205541,
        "lng": 136.929161
    },
    {
        "code": "A223310000422",
        "type": 16013,
        "name": "若松幼稚園",
        "address": "名古屋市北区清水5-27-14",
        "lat": 35.192311,
        "lng": 136.91518
    },
    {
        "code": "A223310000431",
        "type": 16013,
        "name": "光和幼稚園",
        "address": "名古屋市北区光音寺町2-68",
        "lat": 35.208505,
        "lng": 136.903063
    },
    {
        "code": "A223310000440",
        "type": 16013,
        "name": "幼保連携型認定こども園寺子屋まんぼう",
        "address": "名古屋市西区貴生町164-1",
        "lat": 35.223465,
        "lng": 136.873977
    },
    {
        "code": "A223310000459",
        "type": 16013,
        "name": "新生保育園",
        "address": "名古屋市西区天神山町3-7",
        "lat": 35.188441,
        "lng": 136.885533
    },
    {
        "code": "A223310000468",
        "type": 16013,
        "name": "すくすくこども園",
        "address": "名古屋市西区宝地町350",
        "lat": 35.22311,
        "lng": 136.894439
    },
    {
        "code": "A223310000477",
        "type": 16013,
        "name": "にじいろこどもえん",
        "address": "名古屋市西区笠取町4-60",
        "lat": 35.201017,
        "lng": 136.885166
    },
    {
        "code": "A223310000486",
        "type": 16013,
        "name": "比良すみれこども園",
        "address": "名古屋市西区比良2-175",
        "lat": 35.226321,
        "lng": 136.900236
    },
    {
        "code": "A223310000495",
        "type": 16013,
        "name": "稲葉地こども園",
        "address": "名古屋市中村区稲葉地町3-20",
        "lat": 35.167144,
        "lng": 136.842772
    },
    {
        "code": "A223310000501",
        "type": 16013,
        "name": "豊岡保育園",
        "address": "名古屋市瑞穂区内方町2-4",
        "lat": 35.122819,
        "lng": 136.938636
    },
    {
        "code": "A223310000510",
        "type": 16013,
        "name": "お茶の花こども園",
        "address": "名古屋市瑞穂区弥富通4-45",
        "lat": 35.11979,
        "lng": 136.955751
    },
    {
        "code": "A223310000529",
        "type": 16013,
        "name": "明野保育園",
        "address": "名古屋市熱田区明野町10-11",
        "lat": 35.139407,
        "lng": 136.889501
    },
    {
        "code": "A223310000538",
        "type": 16013,
        "name": "おひさまこどもえん",
        "address": "名古屋市中川区富田町大字榎津字西ﾅｺﾗ295-5",
        "lat": 35.139136,
        "lng": 136.819256
    },
    {
        "code": "A223310000547",
        "type": 16013,
        "name": "ひおき保育園",
        "address": "名古屋市中川区西日置1-5-14",
        "lat": 35.157809,
        "lng": 136.890208
    },
    {
        "code": "A223310000556",
        "type": 16013,
        "name": "清凉保育園",
        "address": "名古屋市中川区五女子町4-32-1",
        "lat": 35.142697,
        "lng": 136.881762
    },
    {
        "code": "A223310000565",
        "type": 16013,
        "name": "すみれこども園",
        "address": "名古屋市中川区水里3-48",
        "lat": 35.130728,
        "lng": 136.807669
    },
    {
        "code": "A223310000574",
        "type": 16013,
        "name": "あおぞらこどもえん",
        "address": "名古屋市中川区富田町大字榎津字西新海1235",
        "lat": 35.132745,
        "lng": 136.821151
    },
    {
        "code": "A223310000583",
        "type": 16013,
        "name": "千音寺すみれこども園",
        "address": "名古屋市中川区富田町大字千音寺字赤星裏4559",
        "lat": 35.158636,
        "lng": 136.815534
    },
    {
        "code": "A223310000592",
        "type": 16013,
        "name": "戸田桜台こども園",
        "address": "名古屋市中川区供米田2-1509",
        "lat": 35.134425,
        "lng": 136.813226
    },
    {
        "code": "A223310000609",
        "type": 16013,
        "name": "だいちのこどもえん",
        "address": "名古屋市中川区野田3-39",
        "lat": 35.142433,
        "lng": 136.836612
    },
    {
        "code": "A223310000618",
        "type": 16013,
        "name": "いしん保育園",
        "address": "名古屋市港区惟信町2-28-1",
        "lat": 35.106229,
        "lng": 136.845003
    },
    {
        "code": "A223310000627",
        "type": 16013,
        "name": "愛名保育園",
        "address": "名古屋市港区七番町5-3",
        "lat": 35.114402,
        "lng": 136.8875
    },
    {
        "code": "A223310000636",
        "type": 16013,
        "name": "親愛保育園",
        "address": "名古屋市港区本宮町3-18",
        "lat": 35.109743,
        "lng": 136.872248
    },
    {
        "code": "A223310000645",
        "type": 16013,
        "name": "たからうらこども園",
        "address": "名古屋市港区多加良浦町5-25",
        "lat": 35.099455,
        "lng": 136.843661
    },
    {
        "code": "A223310000654",
        "type": 16013,
        "name": "曽池ひかり幼稚園",
        "address": "名古屋市南区曽池町2-40",
        "lat": 35.105965,
        "lng": 136.928515
    },
    {
        "code": "A223310000663",
        "type": 16013,
        "name": "明円ひかり園",
        "address": "名古屋市南区明円町183",
        "lat": 35.100847,
        "lng": 136.946155
    },
    {
        "code": "A223310000672",
        "type": 16013,
        "name": "大生幼児園",
        "address": "名古屋市南区西又兵ヱ町3-74",
        "lat": 35.093563,
        "lng": 136.916097
    },
    {
        "code": "A223310000681",
        "type": 16013,
        "name": "葵第一幼稚園",
        "address": "名古屋市南区浜田町1-15-4",
        "lat": 35.086436,
        "lng": 136.920713
    },
    {
        "code": "A223310000690",
        "type": 16013,
        "name": "小桜幼稚園",
        "address": "名古屋市南区鳥栖1-6-2",
        "lat": 35.11091,
        "lng": 136.940531
    },
    {
        "code": "A223310000707",
        "type": 16013,
        "name": "もりの風こども園",
        "address": "名古屋市守山区吉根字太鼓ｹ根3231-29",
        "lat": 35.227968,
        "lng": 137.00989
    },
    {
        "code": "A223310000716",
        "type": 16013,
        "name": "ふたばみのり園",
        "address": "名古屋市守山区小幡2-10-18",
        "lat": 35.207631,
        "lng": 136.97841
    },
    {
        "code": "A223310000725",
        "type": 16013,
        "name": "もみじこども園",
        "address": "名古屋市守山区笹ヶ根1-1003",
        "lat": 35.23045,
        "lng": 137.003224
    },
    {
        "code": "A223310000734",
        "type": 16013,
        "name": "青山保育園",
        "address": "名古屋市守山区青山台628-18",
        "lat": 35.233584,
        "lng": 137.015931
    },
    {
        "code": "A223310000743",
        "type": 16013,
        "name": "みそのラファエルこども園",
        "address": "名古屋市緑区鳴海町乙子山1",
        "lat": 35.085573,
        "lng": 136.954246
    },
    {
        "code": "A223310000752",
        "type": 16013,
        "name": "おにぎりが空",
        "address": "名古屋市緑区桶狭間西501",
        "lat": 35.058757,
        "lng": 136.967836
    },
    {
        "code": "A223310000761",
        "type": 16013,
        "name": "水広保育園",
        "address": "名古屋市緑区諸の木3-802",
        "lat": 35.076527,
        "lng": 136.999714
    },
    {
        "code": "A223310000770",
        "type": 16013,
        "name": "茶屋とくしげ保育園",
        "address": "名古屋市緑区元徳重2-103",
        "lat": 35.097063,
        "lng": 136.997586
    },
    {
        "code": "A223310000789",
        "type": 16013,
        "name": "みらいの風こども園",
        "address": "名古屋市緑区篠の風1-101",
        "lat": 35.099248,
        "lng": 136.974758
    },
    {
        "code": "A223310000798",
        "type": 16013,
        "name": "しおみが丘保育園",
        "address": "名古屋市緑区潮見が丘1-48-1",
        "lat": 35.08306,
        "lng": 136.960065
    },
    {
        "code": "A223310000805",
        "type": 16013,
        "name": "春華しろつち保育園",
        "address": "名古屋市緑区白土1930",
        "lat": 35.097864,
        "lng": 137.021097
    },
    {
        "code": "A223310000814",
        "type": 16013,
        "name": "りたの芽",
        "address": "名古屋市緑区桶狭間清水山1806",
        "lat": 35.047696,
        "lng": 136.959657
    },
    {
        "code": "A223310000823",
        "type": 16013,
        "name": "陽だまりこども園",
        "address": "名古屋市名東区高針2-1801",
        "lat": 35.156242,
        "lng": 137.008437
    },
    {
        "code": "A223310000832",
        "type": 16013,
        "name": "椙山女学園大学附属椙山こども園",
        "address": "名古屋市名東区にじが丘1-12-4",
        "lat": 35.158543,
        "lng": 136.989399
    },
    {
        "code": "A223310000841",
        "type": 16013,
        "name": "名古屋植田ヶ丘こども園",
        "address": "名古屋市天白区植田本町2-1310",
        "lat": 35.132947,
        "lng": 136.994291
    },
    {
        "code": "A223310001813",
        "type": 16013,
        "name": "五反田幼稚園",
        "address": "名古屋市中川区大当郎2-1604",
        "lat": 35.132209,
        "lng": 136.830178
    },
    {
        "code": "A223310001822",
        "type": 16013,
        "name": "認定こども園ＫｉｄｓＢＡＳＥ",
        "address": "名古屋市中川区福島1-110",
        "lat": 35.122449,
        "lng": 136.800353
    },
    {
        "code": "A223310001831",
        "type": 16013,
        "name": "御田クローバーこども園",
        "address": "名古屋市中村区岩塚町4-10-1",
        "lat": 35.157206,
        "lng": 136.84596
    },
    {
        "code": "A223310001840",
        "type": 16013,
        "name": "笠寺幼児園",
        "address": "名古屋市南区笠寺町字大門63",
        "lat": 35.097763,
        "lng": 136.935948
    },
    {
        "code": "B123110000023",
        "type": 16001,
        "name": "愛知教育大学附属名古屋小学校",
        "address": "名古屋市東区大幸南1-126",
        "lat": 35.188755,
        "lng": 136.952957
    },
    {
        "code": "B123210000003",
        "type": 16001,
        "name": "内山小学校",
        "address": "名古屋市千種区内山1-4-15",
        "lat": 35.174146,
        "lng": 136.937764
    },
    {
        "code": "B123210000012",
        "type": 16001,
        "name": "春岡小学校",
        "address": "名古屋市千種区春岡2-5-38",
        "lat": 35.164231,
        "lng": 136.942237
    },
    {
        "code": "B123210000021",
        "type": 16001,
        "name": "千種小学校",
        "address": "名古屋市千種区千種3-2-5",
        "lat": 35.162731,
        "lng": 136.934071
    },
    {
        "code": "B123210000030",
        "type": 16001,
        "name": "千石小学校",
        "address": "名古屋市千種区千種1-1-52",
        "lat": 35.166174,
        "lng": 136.928405
    },
    {
        "code": "B123210000049",
        "type": 16001,
        "name": "高見小学校",
        "address": "名古屋市千種区高見1-7-1",
        "lat": 35.172813,
        "lng": 136.948986
    },
    {
        "code": "B123210000058",
        "type": 16001,
        "name": "大和小学校",
        "address": "名古屋市千種区松軒1-4-9",
        "lat": 35.179228,
        "lng": 136.939208
    },
    {
        "code": "B123210000067",
        "type": 16001,
        "name": "田代小学校",
        "address": "名古屋市千種区観月町2-41",
        "lat": 35.16462,
        "lng": 136.955402
    },
    {
        "code": "B123210000076",
        "type": 16001,
        "name": "自由ケ丘小学校",
        "address": "名古屋市千種区自由ｹ丘2-15-24",
        "lat": 35.172508,
        "lng": 136.965124
    },
    {
        "code": "B123210000085",
        "type": 16001,
        "name": "上野小学校",
        "address": "名古屋市千種区上野2-6-1",
        "lat": 35.18009,
        "lng": 136.952402
    },
    {
        "code": "B123210000094",
        "type": 16001,
        "name": "富士見台小学校",
        "address": "名古屋市千種区富士見台2-1",
        "lat": 35.182006,
        "lng": 136.970012
    },
    {
        "code": "B123210000101",
        "type": 16001,
        "name": "東山小学校",
        "address": "名古屋市千種区橋本町3-20",
        "lat": 35.163787,
        "lng": 136.96704
    },
    {
        "code": "B123210000110",
        "type": 16001,
        "name": "星ケ丘小学校",
        "address": "名古屋市千種区星ヶ丘1-4",
        "lat": 35.163481,
        "lng": 136.988622
    },
    {
        "code": "B123210000129",
        "type": 16001,
        "name": "宮根小学校",
        "address": "名古屋市千種区宮根台2-10-19",
        "lat": 35.183618,
        "lng": 136.979872
    },
    {
        "code": "B123210000138",
        "type": 16001,
        "name": "見付小学校",
        "address": "名古屋市千種区見附町3-1-3",
        "lat": 35.160204,
        "lng": 136.959347
    },
    {
        "code": "B123210000147",
        "type": 16001,
        "name": "千代田橋小学校",
        "address": "名古屋市千種区千代田橋2-3-7",
        "lat": 35.186645,
        "lng": 136.971373
    },
    {
        "code": "B123210000156",
        "type": 16001,
        "name": "旭丘小学校",
        "address": "名古屋市東区徳川町1601",
        "lat": 35.18531,
        "lng": 136.929542
    },
    {
        "code": "B123210000165",
        "type": 16001,
        "name": "明倫小学校",
        "address": "名古屋市東区出来町1-8-1",
        "lat": 35.181116,
        "lng": 136.935097
    },
    {
        "code": "B123210000174",
        "type": 16001,
        "name": "筒井小学校",
        "address": "名古屋市東区筒井1-15-28",
        "lat": 35.17745,
        "lng": 136.928876
    },
    {
        "code": "B123210000183",
        "type": 16001,
        "name": "東桜小学校",
        "address": "名古屋市東区東桜1-13-1",
        "lat": 35.171533,
        "lng": 136.912711
    },
    {
        "code": "B123210000192",
        "type": 16001,
        "name": "矢田小学校",
        "address": "名古屋市東区矢田南4-4-1",
        "lat": 35.19031,
        "lng": 136.945374
    },
    {
        "code": "B123210000209",
        "type": 16001,
        "name": "山吹小学校",
        "address": "名古屋市東区橦木町2-24",
        "lat": 35.179727,
        "lng": 136.915294
    },
    {
        "code": "B123210000218",
        "type": 16001,
        "name": "東白壁小学校",
        "address": "名古屋市東区白壁5-7",
        "lat": 35.183115,
        "lng": 136.921571
    },
    {
        "code": "B123210000227",
        "type": 16001,
        "name": "葵小学校",
        "address": "名古屋市東区葵1-5-1",
        "lat": 35.173145,
        "lng": 136.922155
    },
    {
        "code": "B123210000236",
        "type": 16001,
        "name": "砂田橋小学校",
        "address": "名古屋市東区砂田橋3-1-13",
        "lat": 35.188617,
        "lng": 136.959485
    },
    {
        "code": "B123210000245",
        "type": 16001,
        "name": "飯田小学校",
        "address": "名古屋市北区平安2-7-14",
        "lat": 35.197496,
        "lng": 136.931563
    },
    {
        "code": "B123210000254",
        "type": 16001,
        "name": "大杉小学校",
        "address": "名古屋市北区大杉3-9-21",
        "lat": 35.190364,
        "lng": 136.917543
    },
    {
        "code": "B123210000263",
        "type": 16001,
        "name": "清水小学校",
        "address": "名古屋市北区清水5-3-1",
        "lat": 35.19253,
        "lng": 136.913488
    },
    {
        "code": "B123210000272",
        "type": 16001,
        "name": "杉村小学校",
        "address": "名古屋市北区長田町3-62",
        "lat": 35.192142,
        "lng": 136.922182
    },
    {
        "code": "B123210000281",
        "type": 16001,
        "name": "名北小学校",
        "address": "名古屋市北区下飯田町1-34",
        "lat": 35.199308,
        "lng": 136.926181
    },
    {
        "code": "B123210000290",
        "type": 16001,
        "name": "金城小学校",
        "address": "名古屋市北区金城3-11-6",
        "lat": 35.196557,
        "lng": 136.906211
    },
    {
        "code": "B123210000307",
        "type": 16001,
        "name": "東志賀小学校",
        "address": "名古屋市北区志賀町4-60",
        "lat": 35.202613,
        "lng": 136.915127
    },
    {
        "code": "B123210000316",
        "type": 16001,
        "name": "城北小学校",
        "address": "名古屋市北区鳩岡2-8-43",
        "lat": 35.210223,
        "lng": 136.91196
    },
    {
        "code": "B123210000325",
        "type": 16001,
        "name": "光城小学校",
        "address": "名古屋市北区光音寺町4-1",
        "lat": 35.209778,
        "lng": 136.904294
    },
    {
        "code": "B123210000334",
        "type": 16001,
        "name": "六郷小学校",
        "address": "名古屋市北区大曽根3-15-82",
        "lat": 35.192375,
        "lng": 136.934395
    },
    {
        "code": "B123210000343",
        "type": 16001,
        "name": "楠小学校",
        "address": "名古屋市北区池花町309",
        "lat": 35.232526,
        "lng": 136.920125
    },
    {
        "code": "B123210000352",
        "type": 16001,
        "name": "味鋺小学校",
        "address": "名古屋市北区楠味鋺3-126",
        "lat": 35.221278,
        "lng": 136.925319
    },
    {
        "code": "B123210000361",
        "type": 16001,
        "name": "西味鋺小学校",
        "address": "名古屋市北区西味鋺2-526",
        "lat": 35.224583,
        "lng": 136.914376
    },
    {
        "code": "B123210000370",
        "type": 16001,
        "name": "六郷北小学校",
        "address": "名古屋市北区山田4-14-56",
        "lat": 35.198365,
        "lng": 136.94084
    },
    {
        "code": "B123210000389",
        "type": 16001,
        "name": "楠西小学校",
        "address": "名古屋市北区会所町89",
        "lat": 35.238608,
        "lng": 136.907681
    },
    {
        "code": "B123210000398",
        "type": 16001,
        "name": "川中小学校",
        "address": "名古屋市北区福徳町5-52",
        "lat": 35.213056,
        "lng": 136.901683
    },
    {
        "code": "B123210000405",
        "type": 16001,
        "name": "宮前小学校",
        "address": "名古屋市北区上飯田南町4-1-2",
        "lat": 35.201392,
        "lng": 136.937152
    },
    {
        "code": "B123210000414",
        "type": 16001,
        "name": "如意小学校",
        "address": "名古屋市北区如意3-131",
        "lat": 35.238331,
        "lng": 136.925791
    },
    {
        "code": "B123210000423",
        "type": 16001,
        "name": "辻小学校",
        "address": "名古屋市北区辻町1-32-4",
        "lat": 35.205668,
        "lng": 136.921987
    },
    {
        "code": "B123210000432",
        "type": 16001,
        "name": "榎小学校",
        "address": "名古屋市西区押切1-12-25",
        "lat": 35.186391,
        "lng": 136.883686
    },
    {
        "code": "B123210000441",
        "type": 16001,
        "name": "栄生小学校",
        "address": "名古屋市西区栄生1-27-26",
        "lat": 35.184169,
        "lng": 136.874992
    },
    {
        "code": "B123210000450",
        "type": 16001,
        "name": "上名古屋小学校",
        "address": "名古屋市西区上名古屋3-4-18",
        "lat": 35.195224,
        "lng": 136.89424
    },
    {
        "code": "B123210000469",
        "type": 16001,
        "name": "城西小学校",
        "address": "名古屋市西区城西3-14-25",
        "lat": 35.188308,
        "lng": 136.895046
    },
    {
        "code": "B123210000478",
        "type": 16001,
        "name": "児玉小学校",
        "address": "名古屋市西区児玉2-3-33",
        "lat": 35.193446,
        "lng": 136.884075
    },
    {
        "code": "B123210000487",
        "type": 16001,
        "name": "枇杷島小学校",
        "address": "名古屋市西区枇杷島3-16-33",
        "lat": 35.192695,
        "lng": 136.87177
    },
    {
        "code": "B123210000496",
        "type": 16001,
        "name": "南押切小学校",
        "address": "名古屋市西区則武新町2-14-3",
        "lat": 35.183447,
        "lng": 136.881103
    },
    {
        "code": "B123210000502",
        "type": 16001,
        "name": "庄内小学校",
        "address": "名古屋市西区新福寺町2-5-1",
        "lat": 35.206361,
        "lng": 136.884074
    },
    {
        "code": "B123210000511",
        "type": 16001,
        "name": "稲生小学校",
        "address": "名古屋市西区香呑町2-84",
        "lat": 35.203695,
        "lng": 136.898128
    },
    {
        "code": "B123210000520",
        "type": 16001,
        "name": "山田小学校",
        "address": "名古屋市西区八筋町381-1",
        "lat": 35.222998,
        "lng": 136.882018
    },
    {
        "code": "B123210000539",
        "type": 16001,
        "name": "平田小学校",
        "address": "名古屋市西区西原町88",
        "lat": 35.226858,
        "lng": 136.863798
    },
    {
        "code": "B123210000548",
        "type": 16001,
        "name": "比良小学校",
        "address": "名古屋市西区比良2-175",
        "lat": 35.226943,
        "lng": 136.900072
    },
    {
        "code": "B123210000557",
        "type": 16001,
        "name": "大野木小学校",
        "address": "名古屋市西区大野木3-17",
        "lat": 35.219444,
        "lng": 136.896878
    },
    {
        "code": "B123210000566",
        "type": 16001,
        "name": "浮野小学校",
        "address": "名古屋市西区浮野町98",
        "lat": 35.22808,
        "lng": 136.858159
    },
    {
        "code": "B123210000575",
        "type": 16001,
        "name": "比良西小学校",
        "address": "名古屋市西区玉池町347",
        "lat": 35.229387,
        "lng": 136.889489
    },
    {
        "code": "B123210000584",
        "type": 16001,
        "name": "中小田井小学校",
        "address": "名古屋市西区中小田井2-189",
        "lat": 35.213249,
        "lng": 136.871658
    },
    {
        "code": "B123210000593",
        "type": 16001,
        "name": "なごや小学校",
        "address": "名古屋市西区幅下1-7-17",
        "lat": 35.180503,
        "lng": 136.891852
    },
    {
        "code": "B123210000600",
        "type": 16001,
        "name": "中村小学校",
        "address": "名古屋市中村区中村町1-72",
        "lat": 35.174031,
        "lng": 136.858105
    },
    {
        "code": "B123210000619",
        "type": 16001,
        "name": "豊臣小学校",
        "address": "名古屋市中村区森末町2-1",
        "lat": 35.177364,
        "lng": 136.861855
    },
    {
        "code": "B123210000628",
        "type": 16001,
        "name": "牧野小学校",
        "address": "名古屋市中村区竹橋町3-4",
        "lat": 35.169144,
        "lng": 136.87752
    },
    {
        "code": "B123210000637",
        "type": 16001,
        "name": "米野小学校",
        "address": "名古屋市中村区権現通1-28",
        "lat": 35.163254,
        "lng": 136.877859
    },
    {
        "code": "B123210000646",
        "type": 16001,
        "name": "日比津小学校",
        "address": "名古屋市中村区高道町2-1-30",
        "lat": 35.183336,
        "lng": 136.864355
    },
    {
        "code": "B123210000655",
        "type": 16001,
        "name": "諏訪小学校",
        "address": "名古屋市中村区諏訪町2-6-7",
        "lat": 35.178669,
        "lng": 136.853828
    },
    {
        "code": "B123210000664",
        "type": 16001,
        "name": "柳小学校",
        "address": "名古屋市中村区烏森町2-25",
        "lat": 35.154478,
        "lng": 136.860939
    },
    {
        "code": "B123210000673",
        "type": 16001,
        "name": "稲葉地小学校",
        "address": "名古屋市中村区靖国町3-20",
        "lat": 35.169671,
        "lng": 136.846551
    },
    {
        "code": "B123210000682",
        "type": 16001,
        "name": "稲西小学校",
        "address": "名古屋市中村区稲西町88",
        "lat": 35.165866,
        "lng": 136.838635
    },
    {
        "code": "B123210000691",
        "type": 16001,
        "name": "日吉小学校",
        "address": "名古屋市中村区城主町1-1",
        "lat": 35.165449,
        "lng": 136.867243
    },
    {
        "code": "B123210000708",
        "type": 16001,
        "name": "千成小学校",
        "address": "名古屋市中村区日ﾉ宮1-120",
        "lat": 35.162033,
        "lng": 136.858494
    },
    {
        "code": "B123210000717",
        "type": 16001,
        "name": "岩塚小学校",
        "address": "名古屋市中村区岩塚町4-17",
        "lat": 35.1567,
        "lng": 136.846107
    },
    {
        "code": "B123210000726",
        "type": 16001,
        "name": "八社小学校",
        "address": "名古屋市中村区八社1-199-2",
        "lat": 35.151257,
        "lng": 136.838997
    },
    {
        "code": "B123210000735",
        "type": 16001,
        "name": "ほのか小学校",
        "address": "名古屋市中村区松原町5-5",
        "lat": 35.174241,
        "lng": 136.871711
    },
    {
        "code": "B123210000744",
        "type": 16001,
        "name": "笹島小学校",
        "address": "名古屋市中村区名駅4-19-1",
        "lat": 35.170587,
        "lng": 136.889349
    },
    {
        "code": "B123210000753",
        "type": 16001,
        "name": "名城小学校",
        "address": "名古屋市中区丸の内3-3-35",
        "lat": 35.177504,
        "lng": 136.903934
    },
    {
        "code": "B123210000762",
        "type": 16001,
        "name": "御園小学校",
        "address": "名古屋市中区錦1-9-1",
        "lat": 35.170644,
        "lng": 136.895546
    },
    {
        "code": "B123210000771",
        "type": 16001,
        "name": "栄小学校",
        "address": "名古屋市中区栄1-28-1",
        "lat": 35.163895,
        "lng": 136.894824
    },
    {
        "code": "B123210000780",
        "type": 16001,
        "name": "新栄小学校",
        "address": "名古屋市中区新栄3-15-51",
        "lat": 35.16784,
        "lng": 136.92621
    },
    {
        "code": "B123210000799",
        "type": 16001,
        "name": "松原小学校",
        "address": "名古屋市中区松原3-5-3",
        "lat": 35.153507,
        "lng": 136.897186
    },
    {
        "code": "B123210000806",
        "type": 16001,
        "name": "橘小学校",
        "address": "名古屋市中区橘1-13-12",
        "lat": 35.153924,
        "lng": 136.904435
    },
    {
        "code": "B123210000815",
        "type": 16001,
        "name": "平和小学校",
        "address": "名古屋市中区平和1-14-3",
        "lat": 35.148543,
        "lng": 136.905103
    },
    {
        "code": "B123210000824",
        "type": 16001,
        "name": "老松小学校",
        "address": "名古屋市中区千代田1-9-36",
        "lat": 35.16048,
        "lng": 136.913101
    },
    {
        "code": "B123210000833",
        "type": 16001,
        "name": "千早小学校",
        "address": "名古屋市中区新栄1-44-36",
        "lat": 35.162618,
        "lng": 136.918739
    },
    {
        "code": "B123210000842",
        "type": 16001,
        "name": "大須小学校",
        "address": "名古屋市中区大須1-31-4",
        "lat": 35.159534,
        "lng": 136.896408
    },
    {
        "code": "B123210000851",
        "type": 16001,
        "name": "正木小学校",
        "address": "名古屋市中区正木1-17-33",
        "lat": 35.150119,
        "lng": 136.897574
    },
    {
        "code": "B123210000860",
        "type": 16001,
        "name": "鶴舞小学校",
        "address": "名古屋市昭和区鶴舞1-1-85",
        "lat": 35.153703,
        "lng": 136.922711
    },
    {
        "code": "B123210000879",
        "type": 16001,
        "name": "吹上小学校",
        "address": "名古屋市昭和区吹上町1-22",
        "lat": 35.156509,
        "lng": 136.9296
    },
    {
        "code": "B123210000888",
        "type": 16001,
        "name": "村雲小学校",
        "address": "名古屋市昭和区村雲町26-16",
        "lat": 35.145232,
        "lng": 136.921489
    },
    {
        "code": "B123210000897",
        "type": 16001,
        "name": "松栄小学校",
        "address": "名古屋市昭和区長戸町2-1",
        "lat": 35.144789,
        "lng": 136.939932
    },
    {
        "code": "B123210000904",
        "type": 16001,
        "name": "御器所小学校",
        "address": "名古屋市昭和区明月町1-32",
        "lat": 35.147288,
        "lng": 136.928905
    },
    {
        "code": "B123210000913",
        "type": 16001,
        "name": "広路小学校",
        "address": "名古屋市昭和区川原通8-21-2",
        "lat": 35.15101,
        "lng": 136.948292
    },
    {
        "code": "B123210000922",
        "type": 16001,
        "name": "川原小学校",
        "address": "名古屋市昭和区萩原町2-1",
        "lat": 35.156982,
        "lng": 136.950042
    },
    {
        "code": "B123210000931",
        "type": 16001,
        "name": "八事小学校",
        "address": "名古屋市昭和区五軒家町25",
        "lat": 35.141151,
        "lng": 136.950015
    },
    {
        "code": "B123210000940",
        "type": 16001,
        "name": "滝川小学校",
        "address": "名古屋市昭和区滝川町131",
        "lat": 35.144206,
        "lng": 136.960486
    },
    {
        "code": "B123210000959",
        "type": 16001,
        "name": "白金小学校",
        "address": "名古屋市昭和区白金2-2-5",
        "lat": 35.146787,
        "lng": 136.915684
    },
    {
        "code": "B123210000968",
        "type": 16001,
        "name": "伊勝小学校",
        "address": "名古屋市昭和区伊勝町2-100",
        "lat": 35.154871,
        "lng": 136.958597
    },
    {
        "code": "B123210000977",
        "type": 16001,
        "name": "川原小学校分校",
        "address": "名古屋市昭和区折戸町4-16",
        "lat": 35.155249,
        "lng": 136.94596
    },
    {
        "code": "B123210000986",
        "type": 16001,
        "name": "弥富小学校",
        "address": "名古屋市瑞穂区日向町4-23-1",
        "lat": 35.120153,
        "lng": 136.951543
    },
    {
        "code": "B123210000995",
        "type": 16001,
        "name": "御劔小学校",
        "address": "名古屋市瑞穂区亀城町5-4-1",
        "lat": 35.13515,
        "lng": 136.925684
    },
    {
        "code": "B123210001002",
        "type": 16001,
        "name": "堀田小学校",
        "address": "名古屋市瑞穂区新開24-13",
        "lat": 35.12279,
        "lng": 136.918685
    },
    {
        "code": "B123210001011",
        "type": 16001,
        "name": "汐路小学校",
        "address": "名古屋市瑞穂区御莨町1-2",
        "lat": 35.135207,
        "lng": 136.939849
    },
    {
        "code": "B123210001020",
        "type": 16001,
        "name": "高田小学校",
        "address": "名古屋市瑞穂区宝田町4-1",
        "lat": 35.12954,
        "lng": 136.924267
    },
    {
        "code": "B123210001039",
        "type": 16001,
        "name": "瑞穂小学校",
        "address": "名古屋市瑞穂区牧町2-46",
        "lat": 35.126401,
        "lng": 136.932684
    },
    {
        "code": "B123210001048",
        "type": 16001,
        "name": "井戸田小学校",
        "address": "名古屋市瑞穂区姫宮町1-46",
        "lat": 35.118819,
        "lng": 136.932823
    },
    {
        "code": "B123210001057",
        "type": 16001,
        "name": "穂波小学校",
        "address": "名古屋市瑞穂区河岸1-1-38",
        "lat": 35.116083,
        "lng": 136.924683
    },
    {
        "code": "B123210001066",
        "type": 16001,
        "name": "豊岡小学校",
        "address": "名古屋市瑞穂区膳棚町3-60",
        "lat": 35.12393,
        "lng": 136.939877
    },
    {
        "code": "B123210001075",
        "type": 16001,
        "name": "陽明小学校",
        "address": "名古屋市瑞穂区密柑山町1-1",
        "lat": 35.131152,
        "lng": 136.947626
    },
    {
        "code": "B123210001084",
        "type": 16001,
        "name": "中根小学校",
        "address": "名古屋市瑞穂区井の元町50",
        "lat": 35.114376,
        "lng": 136.955459
    },
    {
        "code": "B123210001093",
        "type": 16001,
        "name": "高蔵小学校",
        "address": "名古屋市熱田区花町7-33",
        "lat": 35.137871,
        "lng": 136.901047
    },
    {
        "code": "B123210001100",
        "type": 16001,
        "name": "旗屋小学校",
        "address": "名古屋市熱田区夜寒町5-1",
        "lat": 35.134066,
        "lng": 136.904797
    },
    {
        "code": "B123210001119",
        "type": 16001,
        "name": "千年小学校",
        "address": "名古屋市熱田区千年2-38-26",
        "lat": 35.113901,
        "lng": 136.896743
    },
    {
        "code": "B123210001128",
        "type": 16001,
        "name": "船方小学校",
        "address": "名古屋市熱田区四番2-10-43",
        "lat": 35.122317,
        "lng": 136.892048
    },
    {
        "code": "B123210001137",
        "type": 16001,
        "name": "白鳥小学校",
        "address": "名古屋市熱田区白鳥2-13-12",
        "lat": 35.125345,
        "lng": 136.906436
    },
    {
        "code": "B123210001146",
        "type": 16001,
        "name": "野立小学校",
        "address": "名古屋市熱田区青池町2-21",
        "lat": 35.135426,
        "lng": 136.889492
    },
    {
        "code": "B123210001155",
        "type": 16001,
        "name": "大宝小学校",
        "address": "名古屋市熱田区大宝3-8-43",
        "lat": 35.130621,
        "lng": 136.893437
    },
    {
        "code": "B123210001164",
        "type": 16001,
        "name": "広見小学校",
        "address": "名古屋市中川区広住町4-41",
        "lat": 35.156479,
        "lng": 136.884825
    },
    {
        "code": "B123210001173",
        "type": 16001,
        "name": "露橋小学校",
        "address": "名古屋市中川区露橋1-9-41",
        "lat": 35.150091,
        "lng": 136.886909
    },
    {
        "code": "B123210001182",
        "type": 16001,
        "name": "愛知小学校",
        "address": "名古屋市中川区豊成町1-35",
        "lat": 35.155618,
        "lng": 136.878048
    },
    {
        "code": "B123210001191",
        "type": 16001,
        "name": "八熊小学校",
        "address": "名古屋市中川区八熊1-8-30",
        "lat": 35.141037,
        "lng": 136.894436
    },
    {
        "code": "B123210001208",
        "type": 16001,
        "name": "昭和橋小学校",
        "address": "名古屋市中川区中野新町7-51-1",
        "lat": 35.125981,
        "lng": 136.871577
    },
    {
        "code": "B123210001217",
        "type": 16001,
        "name": "常磐小学校",
        "address": "名古屋市中川区小本1-15-2",
        "lat": 35.149118,
        "lng": 136.862772
    },
    {
        "code": "B123210001226",
        "type": 16001,
        "name": "八幡小学校",
        "address": "名古屋市中川区八熊通5-4",
        "lat": 35.140203,
        "lng": 136.884354
    },
    {
        "code": "B123210001235",
        "type": 16001,
        "name": "荒子小学校",
        "address": "名古屋市中川区中郷4-234",
        "lat": 35.134064,
        "lng": 136.849496
    },
    {
        "code": "B123210001244",
        "type": 16001,
        "name": "正色小学校",
        "address": "名古屋市中川区下之一色町字権野107",
        "lat": 35.124232,
        "lng": 136.827778
    },
    {
        "code": "B123210001253",
        "type": 16001,
        "name": "篠原小学校",
        "address": "名古屋市中川区丸米町1-55",
        "lat": 35.134536,
        "lng": 136.872549
    },
    {
        "code": "B123210001262",
        "type": 16001,
        "name": "戸田小学校",
        "address": "名古屋市中川区戸田2-2114",
        "lat": 35.138869,
        "lng": 136.805807
    },
    {
        "code": "B123210001271",
        "type": 16001,
        "name": "豊治小学校",
        "address": "名古屋市中川区かの里1-2501",
        "lat": 35.132092,
        "lng": 136.814835
    },
    {
        "code": "B123210001280",
        "type": 16001,
        "name": "千音寺小学校",
        "address": "名古屋市中川区富田町千音寺三の坪4666",
        "lat": 35.157061,
        "lng": 136.816582
    },
    {
        "code": "B123210001299",
        "type": 16001,
        "name": "長須賀小学校",
        "address": "名古屋市中川区前田西町1-1001",
        "lat": 35.140202,
        "lng": 136.830165
    },
    {
        "code": "B123210001306",
        "type": 16001,
        "name": "万場小学校",
        "address": "名古屋市中川区万場4-1106",
        "lat": 35.153784,
        "lng": 136.826276
    },
    {
        "code": "B123210001315",
        "type": 16001,
        "name": "野田小学校",
        "address": "名古屋市中川区野田1-545",
        "lat": 35.142174,
        "lng": 136.846635
    },
    {
        "code": "B123210001324",
        "type": 16001,
        "name": "明正小学校",
        "address": "名古屋市中川区戸田明正3-1001",
        "lat": 35.146505,
        "lng": 136.802425
    },
    {
        "code": "B123210001333",
        "type": 16001,
        "name": "玉川小学校",
        "address": "名古屋市中川区玉川町2-1",
        "lat": 35.121705,
        "lng": 136.87841
    },
    {
        "code": "B123210001342",
        "type": 16001,
        "name": "赤星小学校",
        "address": "名古屋市中川区富田町千音寺西五反田1560",
        "lat": 35.160759,
        "lng": 136.810166
    },
    {
        "code": "B123210001351",
        "type": 16001,
        "name": "中島小学校",
        "address": "名古屋市中川区中島新町2-401",
        "lat": 35.127592,
        "lng": 136.852802
    },
    {
        "code": "B123210001360",
        "type": 16001,
        "name": "西中島小学校",
        "address": "名古屋市中川区西中島2-301",
        "lat": 35.121788,
        "lng": 136.847053
    },
    {
        "code": "B123210001379",
        "type": 16001,
        "name": "五反田小学校",
        "address": "名古屋市中川区一色新町1-601",
        "lat": 35.129787,
        "lng": 136.831361
    },
    {
        "code": "B123210001388",
        "type": 16001,
        "name": "春田小学校",
        "address": "名古屋市中川区東春田2-243",
        "lat": 35.140591,
        "lng": 136.818583
    },
    {
        "code": "B123210001397",
        "type": 16001,
        "name": "西前田小学校",
        "address": "名古屋市中川区前田西町3-1001",
        "lat": 35.136647,
        "lng": 136.832305
    },
    {
        "code": "B123210001404",
        "type": 16001,
        "name": "東築地小学校",
        "address": "名古屋市港区東築地町26",
        "lat": 35.092987,
        "lng": 136.892772
    },
    {
        "code": "B123210001413",
        "type": 16001,
        "name": "中川小学校",
        "address": "名古屋市港区辰巳町37-6",
        "lat": 35.11254,
        "lng": 136.886994
    },
    {
        "code": "B123210001422",
        "type": 16001,
        "name": "成章小学校",
        "address": "名古屋市港区東土古町1-3",
        "lat": 35.113095,
        "lng": 136.872717
    },
    {
        "code": "B123210001431",
        "type": 16001,
        "name": "大手小学校",
        "address": "名古屋市港区大手町3-28",
        "lat": 35.096904,
        "lng": 136.868663
    },
    {
        "code": "B123210001440",
        "type": 16001,
        "name": "港西小学校",
        "address": "名古屋市港区十一屋3-55",
        "lat": 35.092344,
        "lng": 136.856526
    },
    {
        "code": "B123210001459",
        "type": 16001,
        "name": "稲永小学校",
        "address": "名古屋市港区稲永町4-6-35",
        "lat": 35.085933,
        "lng": 136.857526
    },
    {
        "code": "B123210001468",
        "type": 16001,
        "name": "小碓小学校",
        "address": "名古屋市港区土古町4-59",
        "lat": 35.111345,
        "lng": 136.857802
    },
    {
        "code": "B123210001477",
        "type": 16001,
        "name": "西築地小学校",
        "address": "名古屋市港区浜1-2-33",
        "lat": 35.097654,
        "lng": 136.881912
    },
    {
        "code": "B123210001486",
        "type": 16001,
        "name": "高木小学校",
        "address": "名古屋市港区高木町3-20",
        "lat": 35.102208,
        "lng": 136.848943
    },
    {
        "code": "B123210001495",
        "type": 16001,
        "name": "南陽小学校",
        "address": "名古屋市港区東茶屋2-328",
        "lat": 35.106596,
        "lng": 136.829612
    },
    {
        "code": "B123210001501",
        "type": 16001,
        "name": "港楽小学校",
        "address": "名古屋市港区港楽2-3-36",
        "lat": 35.103542,
        "lng": 136.885828
    },
    {
        "code": "B123210001510",
        "type": 16001,
        "name": "明徳小学校",
        "address": "名古屋市港区小碓3-259",
        "lat": 35.115927,
        "lng": 136.847637
    },
    {
        "code": "B123210001529",
        "type": 16001,
        "name": "西福田小学校",
        "address": "名古屋市港区西福田5-1601",
        "lat": 35.11551,
        "lng": 136.804114
    },
    {
        "code": "B123210001538",
        "type": 16001,
        "name": "野跡小学校",
        "address": "名古屋市港区野跡1-4-11",
        "lat": 35.079322,
        "lng": 136.854582
    },
    {
        "code": "B123210001547",
        "type": 16001,
        "name": "東海小学校",
        "address": "名古屋市港区九番町1-1-3",
        "lat": 35.116984,
        "lng": 136.884382
    },
    {
        "code": "B123210001556",
        "type": 16001,
        "name": "当知小学校",
        "address": "名古屋市港区当知3-2401",
        "lat": 35.111151,
        "lng": 136.844554
    },
    {
        "code": "B123210001565",
        "type": 16001,
        "name": "福田小学校",
        "address": "名古屋市港区七反野1-1207",
        "lat": 35.115261,
        "lng": 136.820668
    },
    {
        "code": "B123210001574",
        "type": 16001,
        "name": "正保小学校",
        "address": "名古屋市港区正保町5-22",
        "lat": 35.116177,
        "lng": 136.86369
    },
    {
        "code": "B123210001583",
        "type": 16001,
        "name": "神宮寺小学校",
        "address": "名古屋市港区神宮寺2-501",
        "lat": 35.097236,
        "lng": 136.845249
    },
    {
        "code": "B123210001592",
        "type": 16001,
        "name": "福春小学校",
        "address": "名古屋市港区春田野1-2901",
        "lat": 35.118399,
        "lng": 136.813086
    },
    {
        "code": "B123210001609",
        "type": 16001,
        "name": "豊田小学校",
        "address": "名古屋市南区豊田1-19-23",
        "lat": 35.105459,
        "lng": 136.911686
    },
    {
        "code": "B123210001618",
        "type": 16001,
        "name": "明治小学校",
        "address": "名古屋市南区明治2-3-50",
        "lat": 35.110763,
        "lng": 136.904881
    },
    {
        "code": "B123210001627",
        "type": 16001,
        "name": "伝馬小学校",
        "address": "名古屋市南区豊2-38-9",
        "lat": 35.10968,
        "lng": 136.914408
    },
    {
        "code": "B123210001636",
        "type": 16001,
        "name": "呼続小学校",
        "address": "名古屋市南区呼続4-17-10",
        "lat": 35.107598,
        "lng": 136.932962
    },
    {
        "code": "B123210001645",
        "type": 16001,
        "name": "白水小学校",
        "address": "名古屋市南区松下町2-1",
        "lat": 35.076767,
        "lng": 136.914047
    },
    {
        "code": "B123210001654",
        "type": 16001,
        "name": "柴田小学校",
        "address": "名古屋市南区白水町19",
        "lat": 35.074795,
        "lng": 136.905465
    },
    {
        "code": "B123210001663",
        "type": 16001,
        "name": "桜小学校",
        "address": "名古屋市南区桜台2-13-38",
        "lat": 35.106883,
        "lng": 136.941624
    },
    {
        "code": "B123210001672",
        "type": 16001,
        "name": "菊住小学校",
        "address": "名古屋市南区駈上1-12-37",
        "lat": 35.11407,
        "lng": 136.938017
    },
    {
        "code": "B123210001681",
        "type": 16001,
        "name": "道徳小学校",
        "address": "名古屋市南区道徳新町5-43",
        "lat": 35.10257,
        "lng": 136.906965
    },
    {
        "code": "B123210001690",
        "type": 16001,
        "name": "笠寺小学校",
        "address": "名古屋市南区本星崎町本城765",
        "lat": 35.089933,
        "lng": 136.934934
    },
    {
        "code": "B123210001707",
        "type": 16001,
        "name": "星崎小学校",
        "address": "名古屋市南区南野3-163",
        "lat": 35.079045,
        "lng": 136.931545
    },
    {
        "code": "B123210001716",
        "type": 16001,
        "name": "大生小学校",
        "address": "名古屋市南区西又兵ヱ町3-76",
        "lat": 35.094432,
        "lng": 136.917214
    },
    {
        "code": "B123210001725",
        "type": 16001,
        "name": "宝小学校",
        "address": "名古屋市南区中割町2-5",
        "lat": 35.088377,
        "lng": 136.916519
    },
    {
        "code": "B123210001734",
        "type": 16001,
        "name": "大磯小学校",
        "address": "名古屋市南区北内町5-1",
        "lat": 35.103931,
        "lng": 136.925463
    },
    {
        "code": "B123210001743",
        "type": 16001,
        "name": "千鳥小学校",
        "address": "名古屋市南区三吉町6-1",
        "lat": 35.073795,
        "lng": 136.919241
    },
    {
        "code": "B123210001752",
        "type": 16001,
        "name": "春日野小学校",
        "address": "名古屋市南区春日野町9-1",
        "lat": 35.102015,
        "lng": 136.939072
    },
    {
        "code": "B123210001761",
        "type": 16001,
        "name": "笠東小学校",
        "address": "名古屋市南区芝町113",
        "lat": 35.097155,
        "lng": 136.944266
    },
    {
        "code": "B123210001770",
        "type": 16001,
        "name": "宝南小学校",
        "address": "名古屋市南区堤起町3-48",
        "lat": 35.085009,
        "lng": 136.919556
    },
    {
        "code": "B123210001789",
        "type": 16001,
        "name": "守山小学校",
        "address": "名古屋市守山区西島町6-27",
        "lat": 35.201337,
        "lng": 136.965261
    },
    {
        "code": "B123210001798",
        "type": 16001,
        "name": "小幡小学校",
        "address": "名古屋市守山区小幡1-3-4",
        "lat": 35.204532,
        "lng": 136.97701
    },
    {
        "code": "B123210001805",
        "type": 16001,
        "name": "廿軒家小学校",
        "address": "名古屋市守山区更屋敷16-16",
        "lat": 35.192767,
        "lng": 136.961151
    },
    {
        "code": "B123210001814",
        "type": 16001,
        "name": "大森小学校",
        "address": "名古屋市守山区大森4-401",
        "lat": 35.204393,
        "lng": 136.998314
    },
    {
        "code": "B123210001823",
        "type": 16001,
        "name": "瀬古小学校",
        "address": "名古屋市守山区瀬古東3-1303",
        "lat": 35.210863,
        "lng": 136.94333
    },
    {
        "code": "B123210001832",
        "type": 16001,
        "name": "鳥羽見小学校",
        "address": "名古屋市守山区鳥羽見2-17-6",
        "lat": 35.200837,
        "lng": 136.95229
    },
    {
        "code": "B123210001841",
        "type": 16001,
        "name": "志段味東小学校",
        "address": "名古屋市守山区大字上志段味字道光323-2",
        "lat": 35.254274,
        "lng": 137.032018
    },
    {
        "code": "B123210001850",
        "type": 16001,
        "name": "志段味西小学校",
        "address": "名古屋市守山区深沢2-177",
        "lat": 35.239314,
        "lng": 137.009401
    },
    {
        "code": "B123210001869",
        "type": 16001,
        "name": "白沢小学校",
        "address": "名古屋市守山区白沢町233",
        "lat": 35.21303,
        "lng": 136.971344
    },
    {
        "code": "B123210001878",
        "type": 16001,
        "name": "苗代小学校",
        "address": "名古屋市守山区苗代2-10-6",
        "lat": 35.195366,
        "lng": 136.981371
    },
    {
        "code": "B123210001887",
        "type": 16001,
        "name": "本地丘小学校",
        "address": "名古屋市守山区本地が丘908",
        "lat": 35.198033,
        "lng": 137.021756
    },
    {
        "code": "B123210001896",
        "type": 16001,
        "name": "二城小学校",
        "address": "名古屋市守山区鳥神町248",
        "lat": 35.209169,
        "lng": 136.956678
    },
    {
        "code": "B123210001903",
        "type": 16001,
        "name": "天子田小学校",
        "address": "名古屋市守山区天子田2-1501",
        "lat": 35.199255,
        "lng": 137.005452
    },
    {
        "code": "B123210001912",
        "type": 16001,
        "name": "森孝東小学校",
        "address": "名古屋市守山区森孝東1-442",
        "lat": 35.191701,
        "lng": 137.021312
    },
    {
        "code": "B123210001921",
        "type": 16001,
        "name": "森孝西小学校",
        "address": "名古屋市守山区森孝1-1108",
        "lat": 35.194756,
        "lng": 137.004424
    },
    {
        "code": "B123210001930",
        "type": 16001,
        "name": "西城小学校",
        "address": "名古屋市守山区西城2-14-3",
        "lat": 35.204365,
        "lng": 136.966428
    },
    {
        "code": "B123210001949",
        "type": 16001,
        "name": "大森北小学校",
        "address": "名古屋市守山区御膳洞321",
        "lat": 35.212993,
        "lng": 137.001896
    },
    {
        "code": "B123210001958",
        "type": 16001,
        "name": "小幡北小学校",
        "address": "名古屋市守山区小幡北1801",
        "lat": 35.215768,
        "lng": 136.986246
    },
    {
        "code": "B123210001967",
        "type": 16001,
        "name": "吉根小学校",
        "address": "名古屋市守山区吉根1-1601",
        "lat": 35.234256,
        "lng": 136.997206
    },
    {
        "code": "B123210001976",
        "type": 16001,
        "name": "下志段味小学校",
        "address": "名古屋市守山区大字下志段味字島ﾉ口1825",
        "lat": 35.239106,
        "lng": 137.018201
    },
    {
        "code": "B123210001985",
        "type": 16001,
        "name": "鳴海小学校",
        "address": "名古屋市緑区鳴海町字矢切98",
        "lat": 35.081712,
        "lng": 136.953654
    },
    {
        "code": "B123210001994",
        "type": 16001,
        "name": "緑小学校",
        "address": "名古屋市緑区鳴海町前之輪24",
        "lat": 35.075212,
        "lng": 136.944071
    },
    {
        "code": "B123210002001",
        "type": 16001,
        "name": "鳴海東部小学校",
        "address": "名古屋市緑区平手北2-901",
        "lat": 35.086662,
        "lng": 136.991327
    },
    {
        "code": "B123210002010",
        "type": 16001,
        "name": "東丘小学校",
        "address": "名古屋市緑区鳴海町字有松裏9",
        "lat": 35.068715,
        "lng": 136.972819
    },
    {
        "code": "B123210002029",
        "type": 16001,
        "name": "平子小学校",
        "address": "名古屋市緑区平子が丘236",
        "lat": 35.074682,
        "lng": 136.96047
    },
    {
        "code": "B123210002038",
        "type": 16001,
        "name": "鳴子小学校",
        "address": "名古屋市緑区鳴子町2-69",
        "lat": 35.098601,
        "lng": 136.965542
    },
    {
        "code": "B123210002047",
        "type": 16001,
        "name": "大高小学校",
        "address": "名古屋市緑区大高台3-2601",
        "lat": 35.062161,
        "lng": 136.936447
    },
    {
        "code": "B123210002056",
        "type": 16001,
        "name": "有松小学校",
        "address": "名古屋市緑区有松2803",
        "lat": 35.065654,
        "lng": 136.970401
    },
    {
        "code": "B123210002065",
        "type": 16001,
        "name": "片平小学校",
        "address": "名古屋市緑区鳴海町字片平18",
        "lat": 35.088906,
        "lng": 136.952182
    },
    {
        "code": "B123210002074",
        "type": 16001,
        "name": "太子小学校",
        "address": "名古屋市緑区太子2-242",
        "lat": 35.065354,
        "lng": 136.97943
    },
    {
        "code": "B123210002083",
        "type": 16001,
        "name": "戸笠小学校",
        "address": "名古屋市緑区相川3-60",
        "lat": 35.101795,
        "lng": 136.976013
    },
    {
        "code": "B123210002092",
        "type": 16001,
        "name": "浦里小学校",
        "address": "名古屋市緑区浦里1-77",
        "lat": 35.089961,
        "lng": 136.944711
    },
    {
        "code": "B123210002109",
        "type": 16001,
        "name": "旭出小学校",
        "address": "名古屋市緑区旭出1-101",
        "lat": 35.086157,
        "lng": 136.964042
    },
    {
        "code": "B123210002118",
        "type": 16001,
        "name": "黒石小学校",
        "address": "名古屋市緑区黒沢台2-1533",
        "lat": 35.101157,
        "lng": 136.998122
    },
    {
        "code": "B123210002127",
        "type": 16001,
        "name": "長根台小学校",
        "address": "名古屋市緑区古鳴海2-161-1",
        "lat": 35.09735,
        "lng": 136.959487
    },
    {
        "code": "B123210002136",
        "type": 16001,
        "name": "神の倉小学校",
        "address": "名古屋市緑区神の倉2-198",
        "lat": 35.103574,
        "lng": 137.01512
    },
    {
        "code": "B123210002145",
        "type": 16001,
        "name": "桶狭間小学校",
        "address": "名古屋市緑区桶狭間巻山1908",
        "lat": 35.055193,
        "lng": 136.967961
    },
    {
        "code": "B123210002154",
        "type": 16001,
        "name": "相原小学校",
        "address": "名古屋市緑区若田1-301",
        "lat": 35.077324,
        "lng": 136.965042
    },
    {
        "code": "B123210002163",
        "type": 16001,
        "name": "桃山小学校",
        "address": "名古屋市緑区桃山4-327",
        "lat": 35.10274,
        "lng": 136.986317
    },
    {
        "code": "B123210002172",
        "type": 16001,
        "name": "南陵小学校",
        "address": "名古屋市緑区桶狭間森前1348",
        "lat": 35.048852,
        "lng": 136.966205
    },
    {
        "code": "B123210002181",
        "type": 16001,
        "name": "大高北小学校",
        "address": "名古屋市緑区大高町字町屋川1",
        "lat": 35.060213,
        "lng": 136.941155
    },
    {
        "code": "B123210002190",
        "type": 16001,
        "name": "大高南小学校",
        "address": "名古屋市緑区南大高1-1004",
        "lat": 35.059125,
        "lng": 136.944702
    },
    {
        "code": "B123210002207",
        "type": 16001,
        "name": "徳重小学校",
        "address": "名古屋市緑区徳重2-801",
        "lat": 35.088242,
        "lng": 137.001538
    },
    {
        "code": "B123210002216",
        "type": 16001,
        "name": "滝ノ水小学校",
        "address": "名古屋市緑区滝ﾉ水1-1901",
        "lat": 35.091046,
        "lng": 136.978791
    },
    {
        "code": "B123210002225",
        "type": 16001,
        "name": "大清水小学校",
        "address": "名古屋市緑区大清水西901",
        "lat": 35.078249,
        "lng": 136.990085
    },
    {
        "code": "B123210002234",
        "type": 16001,
        "name": "常安小学校",
        "address": "名古屋市緑区乗鞍1-2101",
        "lat": 35.093345,
        "lng": 136.993719
    },
    {
        "code": "B123210002243",
        "type": 16001,
        "name": "小坂小学校",
        "address": "名古屋市緑区小坂1-1001-2",
        "lat": 35.085316,
        "lng": 136.981806
    },
    {
        "code": "B123210002252",
        "type": 16001,
        "name": "熊の前小学校",
        "address": "名古屋市緑区亀が洞1-901",
        "lat": 35.095642,
        "lng": 137.007293
    },
    {
        "code": "B123210002261",
        "type": 16001,
        "name": "猪高小学校",
        "address": "名古屋市名東区丁田町32",
        "lat": 35.176564,
        "lng": 137.005092
    },
    {
        "code": "B123210002270",
        "type": 16001,
        "name": "香流小学校",
        "address": "名古屋市名東区香流2-1201",
        "lat": 35.187062,
        "lng": 136.992981
    },
    {
        "code": "B123210002289",
        "type": 16001,
        "name": "高針小学校",
        "address": "名古屋市名東区高針2-1103",
        "lat": 35.158344,
        "lng": 137.00912
    },
    {
        "code": "B123210002298",
        "type": 16001,
        "name": "西山小学校",
        "address": "名古屋市名東区西山本通2-35",
        "lat": 35.157233,
        "lng": 136.993899
    },
    {
        "code": "B123210002305",
        "type": 16001,
        "name": "名東小学校",
        "address": "名古屋市名東区亀の井3-134",
        "lat": 35.16501,
        "lng": 137.003787
    },
    {
        "code": "B123210002314",
        "type": 16001,
        "name": "藤が丘小学校",
        "address": "名古屋市名東区藤が丘54",
        "lat": 35.184424,
        "lng": 137.01959
    },
    {
        "code": "B123210002323",
        "type": 16001,
        "name": "猪子石小学校",
        "address": "名古屋市名東区猪子石2-1201",
        "lat": 35.186229,
        "lng": 137.003897
    },
    {
        "code": "B123210002332",
        "type": 16001,
        "name": "蓬来小学校",
        "address": "名古屋市名東区よもぎ台1-501",
        "lat": 35.178535,
        "lng": 136.988677
    },
    {
        "code": "B123210002341",
        "type": 16001,
        "name": "梅森坂小学校",
        "address": "名古屋市名東区梅森坂4-201",
        "lat": 35.142846,
        "lng": 137.021619
    },
    {
        "code": "B123210002350",
        "type": 16001,
        "name": "本郷小学校",
        "address": "名古屋市名東区本郷1-237",
        "lat": 35.178397,
        "lng": 137.014424
    },
    {
        "code": "B123210002369",
        "type": 16001,
        "name": "貴船小学校",
        "address": "名古屋市名東区貴船3-2301",
        "lat": 35.163954,
        "lng": 137.011341
    },
    {
        "code": "B123210002378",
        "type": 16001,
        "name": "上社小学校",
        "address": "名古屋市名東区上社5-1002",
        "lat": 35.170898,
        "lng": 137.012758
    },
    {
        "code": "B123210002387",
        "type": 16001,
        "name": "引山小学校",
        "address": "名古屋市名東区引山1-1105",
        "lat": 35.189562,
        "lng": 136.99762
    },
    {
        "code": "B123210002396",
        "type": 16001,
        "name": "極楽小学校",
        "address": "名古屋市名東区高針台3-901",
        "lat": 35.156261,
        "lng": 137.016341
    },
    {
        "code": "B123210002403",
        "type": 16001,
        "name": "平和が丘小学校",
        "address": "名古屋市名東区平和が丘1-1",
        "lat": 35.178896,
        "lng": 136.981511
    },
    {
        "code": "B123210002412",
        "type": 16001,
        "name": "豊が丘小学校",
        "address": "名古屋市名東区豊が丘1501",
        "lat": 35.187896,
        "lng": 137.014007
    },
    {
        "code": "B123210002421",
        "type": 16001,
        "name": "前山小学校",
        "address": "名古屋市名東区牧の里2-1501",
        "lat": 35.151956,
        "lng": 137.004648
    },
    {
        "code": "B123210002430",
        "type": 16001,
        "name": "牧の原小学校",
        "address": "名古屋市名東区牧の原3-401",
        "lat": 35.151095,
        "lng": 136.997621
    },
    {
        "code": "B123210002449",
        "type": 16001,
        "name": "北一社小学校",
        "address": "名古屋市名東区上菅1-101",
        "lat": 35.178896,
        "lng": 136.995648
    },
    {
        "code": "B123210002458",
        "type": 16001,
        "name": "天白小学校",
        "address": "名古屋市天白区池場2-1109",
        "lat": 35.122404,
        "lng": 136.982651
    },
    {
        "code": "B123210002467",
        "type": 16001,
        "name": "野並小学校",
        "address": "名古屋市天白区野並1-60",
        "lat": 35.108766,
        "lng": 136.955626
    },
    {
        "code": "B123210002476",
        "type": 16001,
        "name": "高坂小学校",
        "address": "名古屋市天白区高坂町89",
        "lat": 35.1081,
        "lng": 136.986151
    },
    {
        "code": "B123210002485",
        "type": 16001,
        "name": "八事東小学校",
        "address": "名古屋市天白区音聞山1801",
        "lat": 35.128264,
        "lng": 136.969124
    },
    {
        "code": "B123210002494",
        "type": 16001,
        "name": "平針小学校",
        "address": "名古屋市天白区向ヶ丘1-620",
        "lat": 35.118599,
        "lng": 137.004371
    },
    {
        "code": "B123210002500",
        "type": 16001,
        "name": "植田小学校",
        "address": "名古屋市天白区植田本町1-1201",
        "lat": 35.136309,
        "lng": 136.992449
    },
    {
        "code": "B123210002519",
        "type": 16001,
        "name": "表山小学校",
        "address": "名古屋市天白区表山2-701",
        "lat": 35.130875,
        "lng": 136.96493
    },
    {
        "code": "B123210002528",
        "type": 16001,
        "name": "しまだ小学校",
        "address": "名古屋市天白区御前場町351",
        "lat": 35.109878,
        "lng": 136.995455
    },
    {
        "code": "B123210002537",
        "type": 16001,
        "name": "山根小学校",
        "address": "名古屋市天白区山根町189",
        "lat": 35.111599,
        "lng": 136.973013
    },
    {
        "code": "B123210002546",
        "type": 16001,
        "name": "平針南小学校",
        "address": "名古屋市天白区平針南4-402",
        "lat": 35.107152,
        "lng": 137.010215
    },
    {
        "code": "B123210002555",
        "type": 16001,
        "name": "相生小学校",
        "address": "名古屋市天白区境根町36",
        "lat": 35.107461,
        "lng": 136.973319
    },
    {
        "code": "B123210002564",
        "type": 16001,
        "name": "大坪小学校",
        "address": "名古屋市天白区大坪2-1601",
        "lat": 35.136791,
        "lng": 136.981512
    },
    {
        "code": "B123210002573",
        "type": 16001,
        "name": "原小学校",
        "address": "名古屋市天白区原5-601",
        "lat": 35.119571,
        "lng": 136.995205
    },
    {
        "code": "B123210002582",
        "type": 16001,
        "name": "植田南小学校",
        "address": "名古屋市天白区植田3-301",
        "lat": 35.129348,
        "lng": 136.990289
    },
    {
        "code": "B123210002591",
        "type": 16001,
        "name": "平針北小学校",
        "address": "名古屋市天白区平針1-501",
        "lat": 35.127543,
        "lng": 137.002899
    },
    {
        "code": "B123210002608",
        "type": 16001,
        "name": "植田北小学校",
        "address": "名古屋市天白区焼山2-1302",
        "lat": 35.14208,
        "lng": 136.993523
    },
    {
        "code": "B123210002617",
        "type": 16001,
        "name": "植田東小学校",
        "address": "名古屋市天白区植田東3-1003-1",
        "lat": 35.131062,
        "lng": 136.996371
    },
    {
        "code": "B123210009647",
        "type": 16001,
        "name": "上志段味小学校",
        "address": "名古屋市守山区上志段味大塚1220-2",
        "lat": 35.251308,
        "lng": 137.041901
    },
    {
        "code": "B123310000001",
        "type": 16001,
        "name": "椙山女学園大学附属小学校",
        "address": "名古屋市千種区山添町2-2",
        "lat": 35.164758,
        "lng": 136.951181
    },
    {
        "code": "B123310000010",
        "type": 16001,
        "name": "南山大学附属小学校",
        "address": "名古屋市昭和区五軒家町17-1",
        "lat": 35.143249,
        "lng": 136.950181
    },
    {
        "code": "B123310000029",
        "type": 16001,
        "name": "名進研小学校",
        "address": "名古屋市守山区緑ヶ丘853-1",
        "lat": 35.213084,
        "lng": 136.981746
    },
    {
        "code": "C123110000012",
        "type": 16002,
        "name": "名古屋大学教育学部附属中学校",
        "address": "名古屋市千種区不老町",
        "lat": 35.15686,
        "lng": 136.962324
    },
    {
        "code": "C123110000030",
        "type": 16002,
        "name": "愛知教育大学附属名古屋中学校",
        "address": "名古屋市東区大幸南1-126",
        "lat": 35.188311,
        "lng": 136.954152
    },
    {
        "code": "C123210000001",
        "type": 16002,
        "name": "今池中学校",
        "address": "名古屋市千種区今池3-19-1",
        "lat": 35.165925,
        "lng": 136.93321
    },
    {
        "code": "C123210000010",
        "type": 16002,
        "name": "城山中学校",
        "address": "名古屋市千種区西崎町1-42",
        "lat": 35.162037,
        "lng": 136.959041
    },
    {
        "code": "C123210000029",
        "type": 16002,
        "name": "千種台中学校",
        "address": "名古屋市千種区自由ヶ丘3-3-55",
        "lat": 35.17671,
        "lng": 136.969501
    },
    {
        "code": "C123210000038",
        "type": 16002,
        "name": "振甫中学校",
        "address": "名古屋市千種区北千種1-7-1",
        "lat": 35.180228,
        "lng": 136.942653
    },
    {
        "code": "C123210000047",
        "type": 16002,
        "name": "若水中学校",
        "address": "名古屋市千種区若水2-6-1",
        "lat": 35.174396,
        "lng": 136.946431
    },
    {
        "code": "C123210000056",
        "type": 16002,
        "name": "千種中学校",
        "address": "名古屋市千種区千代田橋1-1-12",
        "lat": 35.188533,
        "lng": 136.966873
    },
    {
        "code": "C123210000065",
        "type": 16002,
        "name": "東星中学校",
        "address": "名古屋市千種区星が丘山手105",
        "lat": 35.16312,
        "lng": 136.979011
    },
    {
        "code": "C123210000074",
        "type": 16002,
        "name": "あずま中学校",
        "address": "名古屋市東区筒井1-1-1",
        "lat": 35.180755,
        "lng": 136.927737
    },
    {
        "code": "C123210000083",
        "type": 16002,
        "name": "冨士中学校",
        "address": "名古屋市東区東桜1-7-1",
        "lat": 35.173144,
        "lng": 136.912822
    },
    {
        "code": "C123210000092",
        "type": 16002,
        "name": "桜丘中学校",
        "address": "名古屋市東区東大曽根町11-1",
        "lat": 35.187699,
        "lng": 136.932458
    },
    {
        "code": "C123210000109",
        "type": 16002,
        "name": "矢田中学校",
        "address": "名古屋市東区大幸南1-1-23",
        "lat": 35.18795,
        "lng": 136.950902
    },
    {
        "code": "C123210000118",
        "type": 16002,
        "name": "若葉中学校",
        "address": "名古屋市北区石園町2-16",
        "lat": 35.194836,
        "lng": 136.927153
    },
    {
        "code": "C123210000127",
        "type": 16002,
        "name": "志賀中学校",
        "address": "名古屋市北区中丸町3-2-1",
        "lat": 35.20564,
        "lng": 136.905072
    },
    {
        "code": "C123210000136",
        "type": 16002,
        "name": "北陵中学校",
        "address": "名古屋市北区志賀町2-12",
        "lat": 35.200474,
        "lng": 136.913293
    },
    {
        "code": "C123210000145",
        "type": 16002,
        "name": "大曽根中学校",
        "address": "名古屋市北区上飯田東町2-100",
        "lat": 35.205197,
        "lng": 136.93768
    },
    {
        "code": "C123210000154",
        "type": 16002,
        "name": "八王子中学校",
        "address": "名古屋市北区清水4-4-1",
        "lat": 35.193336,
        "lng": 136.910683
    },
    {
        "code": "C123210000163",
        "type": 16002,
        "name": "楠中学校",
        "address": "名古屋市北区楠2-957",
        "lat": 35.22886,
        "lng": 136.921625
    },
    {
        "code": "C123210000172",
        "type": 16002,
        "name": "北中学校",
        "address": "名古屋市北区中味鋺2-656",
        "lat": 35.220139,
        "lng": 136.923542
    },
    {
        "code": "C123210000181",
        "type": 16002,
        "name": "浄心中学校",
        "address": "名古屋市西区児玉1-15-12",
        "lat": 35.195779,
        "lng": 136.888019
    },
    {
        "code": "C123210000190",
        "type": 16002,
        "name": "菊井中学校",
        "address": "名古屋市西区新道1-6-33",
        "lat": 35.182198,
        "lng": 136.889463
    },
    {
        "code": "C123210000207",
        "type": 16002,
        "name": "名塚中学校",
        "address": "名古屋市西区新福寺町2-1-2",
        "lat": 35.20425,
        "lng": 136.883935
    },
    {
        "code": "C123210000216",
        "type": 16002,
        "name": "天神山中学校",
        "address": "名古屋市西区天神山町4-12",
        "lat": 35.190557,
        "lng": 136.885547
    },
    {
        "code": "C123210000225",
        "type": 16002,
        "name": "山田中学校",
        "address": "名古屋市西区八筋町363-1",
        "lat": 35.223054,
        "lng": 136.880018
    },
    {
        "code": "C123210000234",
        "type": 16002,
        "name": "山田東中学校",
        "address": "名古屋市西区宝地町10",
        "lat": 35.223165,
        "lng": 136.890767
    },
    {
        "code": "C123210000243",
        "type": 16002,
        "name": "平田中学校",
        "address": "名古屋市西区山木1-1",
        "lat": 35.220387,
        "lng": 136.868547
    },
    {
        "code": "C123210000252",
        "type": 16002,
        "name": "豊国中学校",
        "address": "名古屋市中村区北畑町1-8",
        "lat": 35.159784,
        "lng": 136.868521
    },
    {
        "code": "C123210000261",
        "type": 16002,
        "name": "笹島中学校",
        "address": "名古屋市中村区名駅4-19-1",
        "lat": 35.170588,
        "lng": 136.88913
    },
    {
        "code": "C123210000270",
        "type": 16002,
        "name": "笈瀬中学校",
        "address": "名古屋市中村区佐古前町5-4",
        "lat": 35.179808,
        "lng": 136.871465
    },
    {
        "code": "C123210000289",
        "type": 16002,
        "name": "御田中学校",
        "address": "名古屋市中村区岩塚町2-10",
        "lat": 35.15645,
        "lng": 136.85069
    },
    {
        "code": "C123210000298",
        "type": 16002,
        "name": "豊正中学校",
        "address": "名古屋市中村区稲葉地町7-1-2",
        "lat": 35.164019,
        "lng": 136.847447
    },
    {
        "code": "C123210000305",
        "type": 16002,
        "name": "黄金中学校",
        "address": "名古屋市中村区権現通4-28",
        "lat": 35.162978,
        "lng": 136.870465
    },
    {
        "code": "C123210000314",
        "type": 16002,
        "name": "日比津中学校",
        "address": "名古屋市中村区高道町2-2-36",
        "lat": 35.182558,
        "lng": 136.864438
    },
    {
        "code": "C123210000323",
        "type": 16002,
        "name": "前津中学校",
        "address": "名古屋市中区大須4-8-88",
        "lat": 35.158757,
        "lng": 136.909184
    },
    {
        "code": "C123210000332",
        "type": 16002,
        "name": "丸の内中学校",
        "address": "名古屋市中区三の丸1-9-2",
        "lat": 35.179365,
        "lng": 136.895074
    },
    {
        "code": "C123210000341",
        "type": 16002,
        "name": "伊勢山中学校",
        "address": "名古屋市中区正木3-2-21",
        "lat": 35.147536,
        "lng": 136.895852
    },
    {
        "code": "C123210000350",
        "type": 16002,
        "name": "白山中学校",
        "address": "名古屋市中区新栄町1-15-56",
        "lat": 35.167368,
        "lng": 136.917989
    },