[
    {
        "code": "A123310001869",
        "type": 16011,
        "name": "修文大学附属一宮幼稚園",
        "address": "一宮市日光町6",
        "lat": 35.301164,
        "lng": 136.781948
    },
    {
        "code": "A123310001878",
        "type": 16011,
        "name": "一宮栽松幼稚園",
        "address": "一宮市大赤見字西川垂99-1",
        "lat": 35.320388,
        "lng": 136.82508
    },
    {
        "code": "A123310001887",
        "type": 16011,
        "name": "大和東幼稚園",
        "address": "一宮市大和町妙興寺字才田32",
        "lat": 35.282958,
        "lng": 136.794836
    },
    {
        "code": "A123310001896",
        "type": 16011,
        "name": "愛知文教女子短期大学附属萩原幼稚園",
        "address": "一宮市萩原町串作字流17-1",
        "lat": 35.276462,
        "lng": 136.758021
    },
    {
        "code": "A123310001903",
        "type": 16011,
        "name": "真光幼稚園",
        "address": "一宮市大江1-3-5",
        "lat": 35.304962,
        "lng": 136.805571
    },
    {
        "code": "A123310001912",
        "type": 16011,
        "name": "一宮聖光幼稚園",
        "address": "一宮市古金町1-40",
        "lat": 35.298701,
        "lng": 136.809644
    },
    {
        "code": "A123310001921",
        "type": 16011,
        "name": "剱正幼稚園",
        "address": "一宮市本町1-4-24",
        "lat": 35.305315,
        "lng": 136.80221
    },
    {
        "code": "A123310001930",
        "type": 16011,
        "name": "おじま幼稚園",
        "address": "一宮市北神明町3-68-5",
        "lat": 35.324538,
        "lng": 136.805815
    },
    {
        "code": "A123310001949",
        "type": 16011,
        "name": "千秋幼稚園",
        "address": "一宮市千秋町佐野宇加村25",
        "lat": 35.303908,
        "lng": 136.858982
    },
    {
        "code": "A123310001958",
        "type": 16011,
        "name": "平安幼稚園",
        "address": "一宮市浅井町小日比野堤南の切1622-11",
        "lat": 35.341123,
        "lng": 136.835534
    },
    {
        "code": "A123310001976",
        "type": 16011,
        "name": "たんぽぽ幼稚園",
        "address": "一宮市島村字六反田55",
        "lat": 35.341792,
        "lng": 136.811359
    },
    {
        "code": "A123310001985",
        "type": 16011,
        "name": "サンタマリア幼稚園",
        "address": "一宮市今伊勢町馬寄字桑屋敷34-2",
        "lat": 35.324035,
        "lng": 136.793558
    },
    {
        "code": "A123310001994",
        "type": 16011,
        "name": "丹陽幼稚園",
        "address": "一宮市あずら1-18-16",
        "lat": 35.28224,
        "lng": 136.821784
    },
    {
        "code": "A123310002001",
        "type": 16011,
        "name": "中田剱正幼稚園",
        "address": "一宮市北小渕字中田60",
        "lat": 35.302654,
        "lng": 136.827898
    },
    {
        "code": "A123310002010",
        "type": 16011,
        "name": "西成幼稚園",
        "address": "一宮市春明字中切生7-2",
        "lat": 35.322839,
        "lng": 136.845817
    },
    {
        "code": "A123310002029",
        "type": 16011,
        "name": "愛知文教女子短期大学附属一宮東幼稚園",
        "address": "一宮市千秋町小山字北川田1522-7",
        "lat": 35.291392,
        "lng": 136.848734
    },
    {
        "code": "A123310002038",
        "type": 16011,
        "name": "今伊勢真光幼稚園",
        "address": "一宮市今伊勢町馬寄字西切戸7-1",
        "lat": 35.32487,
        "lng": 136.781776
    },
    {
        "code": "A123310002047",
        "type": 16011,
        "name": "龍明寺幼稚園",
        "address": "一宮市大和町毛受字浜田28‐2",
        "lat": 35.298467,
        "lng": 136.779663
    },
    {
        "code": "A123310002706",
        "type": 16011,
        "name": "金剛幼稚園",
        "address": "一宮市開明字郷中58",
        "lat": 35.32218,
        "lng": 136.759493
    },
    {
        "code": "A123310002715",
        "type": 16011,
        "name": "尾西幼稚園",
        "address": "一宮市蓮池字上長池10",
        "lat": 35.293641,
        "lng": 136.742096
    },
    {
        "code": "A123310002724",
        "type": 16011,
        "name": "金剛プラザ幼稚園",
        "address": "一宮市小信中島上郷西1",
        "lat": 35.310533,
        "lng": 136.743488
    },
    {
        "code": "A123310003260",
        "type": 16011,
        "name": "木曽川花園幼稚園",
        "address": "一宮市木曽川町黒田宝光寺37",
        "lat": 35.344058,
        "lng": 136.778037
    },
    {
        "code": "A223310000994",
        "type": 16013,
        "name": "九品寺幼稚園",
        "address": "一宮市真清田2-14-7",
        "lat": 35.310981,
        "lng": 136.80256
    },
    {
        "code": "A223310001001",
        "type": 16013,
        "name": "おおの子どもの庭",
        "address": "一宮市浅井町大野字郷西32-2",
        "lat": 35.351555,
        "lng": 136.820633
    },
    {
        "code": "A223310001868",
        "type": 16013,
        "name": "北方幼稚園",
        "address": "一宮市北方町北方字中土取188",
        "lat": 35.362381,
        "lng": 136.78755
    },
    {
        "code": "A223310001877",
        "type": 16013,
        "name": "きそがわ幼稚園",
        "address": "一宮市木曽川町外割田堀田110",
        "lat": 35.336506,
        "lng": 136.770939
    },
    {
        "code": "B123210003616",
        "type": 16001,
        "name": "宮西小学校",
        "address": "一宮市大宮4-5-33",
        "lat": 35.312097,
        "lng": 136.801049
    },
    {
        "code": "B123210003625",
        "type": 16001,
        "name": "貴船小学校",
        "address": "一宮市貴船1-8-46",
        "lat": 35.311514,
        "lng": 136.80952
    },
    {
        "code": "B123210003634",
        "type": 16001,
        "name": "神山小学校",
        "address": "一宮市平和2-12-7",
        "lat": 35.301598,
        "lng": 136.787911
    },
    {
        "code": "B123210003643",
        "type": 16001,
        "name": "大志小学校",
        "address": "一宮市大志2-7-6",
        "lat": 35.299793,
        "lng": 136.805326
    },
    {
        "code": "B123210003652",
        "type": 16001,
        "name": "向山小学校",
        "address": "一宮市向山町3-1",
        "lat": 35.295682,
        "lng": 136.807687
    },
    {
        "code": "B123210003661",
        "type": 16001,
        "name": "葉栗小学校",
        "address": "一宮市大毛字南出30",
        "lat": 35.3414,
        "lng": 136.807742
    },
    {
        "code": "B123210003670",
        "type": 16001,
        "name": "西成小学校",
        "address": "一宮市西大海道字障子目30",
        "lat": 35.31893,
        "lng": 136.833046
    },
    {
        "code": "B123210003689",
        "type": 16001,
        "name": "瀬部小学校",
        "address": "一宮市大字瀬部川原55",
        "lat": 35.32918,
        "lng": 136.835795
    },
    {
        "code": "B123210003698",
        "type": 16001,
        "name": "赤見小学校",
        "address": "一宮市大赤見字清水2467",
        "lat": 35.308591,
        "lng": 136.829125
    },
    {
        "code": "B123210003705",
        "type": 16001,
        "name": "浅野小学校",
        "address": "一宮市浅野野口95",
        "lat": 35.297183,
        "lng": 136.83049
    },
    {
        "code": "B123210003714",
        "type": 16001,
        "name": "丹陽小学校",
        "address": "一宮市三ﾂ井5-22-1",
        "lat": 35.276087,
        "lng": 136.839625
    },
    {
        "code": "B123210003723",
        "type": 16001,
        "name": "丹陽西小学校",
        "address": "一宮市多加木1-17-1",
        "lat": 35.283878,
        "lng": 136.813687
    },
    {
        "code": "B123210003732",
        "type": 16001,
        "name": "丹陽南小学校",
        "address": "一宮市丹陽町九日市場2666",
        "lat": 35.263937,
        "lng": 136.837021
    },
    {
        "code": "B123210003741",
        "type": 16001,
        "name": "浅井南小学校",
        "address": "一宮市浅井町東浅井字地蔵386",
        "lat": 35.334457,
        "lng": 136.825824
    },
    {
        "code": "B123210003750",
        "type": 16001,
        "name": "浅井北小学校",
        "address": "一宮市浅井町大野字南土山75",
        "lat": 35.349928,
        "lng": 136.826129
    },
    {
        "code": "B123210003769",
        "type": 16001,
        "name": "北方小学校",
        "address": "一宮市北方町北方字宮浦43",
        "lat": 35.361453,
        "lng": 136.781634
    },
    {
        "code": "B123210003778",
        "type": 16001,
        "name": "大和東小学校",
        "address": "一宮市大和町戸塚字薬師浦320",
        "lat": 35.283822,
        "lng": 136.792828
    },
    {
        "code": "B123210003787",
        "type": 16001,
        "name": "大和西小学校",
        "address": "一宮市大和町苅安賀字東北出3248",
        "lat": 35.291793,
        "lng": 136.778524
    },
    {
        "code": "B123210003796",
        "type": 16001,
        "name": "今伊勢小学校",
        "address": "一宮市今伊勢町新神戸字乾26",
        "lat": 35.322013,
        "lng": 136.793272
    },
    {
        "code": "B123210003803",
        "type": 16001,
        "name": "奥小学校",
        "address": "一宮市奥町貴船前24",
        "lat": 35.326095,
        "lng": 136.758414
    },
    {
        "code": "B123210003812",
        "type": 16001,
        "name": "萩原小学校",
        "address": "一宮市萩原町萩原字河原崎1544",
        "lat": 35.280711,
        "lng": 136.756665
    },
    {
        "code": "B123210003821",
        "type": 16001,
        "name": "中島小学校",
        "address": "一宮市萩原町西宮重字中光堂850",
        "lat": 35.272601,
        "lng": 136.773386
    },
    {
        "code": "B123210003830",
        "type": 16001,
        "name": "千秋小学校",
        "address": "一宮市千秋町佐野字北浦136",
        "lat": 35.303933,
        "lng": 136.855683
    },
    {
        "code": "B123210003849",
        "type": 16001,
        "name": "千秋南小学校",
        "address": "一宮市千秋町小山1329",
        "lat": 35.290268,
        "lng": 136.850795
    },
    {
        "code": "B123210003858",
        "type": 16001,
        "name": "富士小学校",
        "address": "一宮市富士2-5-14",
        "lat": 35.304154,
        "lng": 136.816602
    },
    {
        "code": "B123210003867",
        "type": 16001,
        "name": "末広小学校",
        "address": "一宮市末広2-20-1",
        "lat": 35.29571,
        "lng": 136.788634
    },
    {
        "code": "B123210003876",
        "type": 16001,
        "name": "西成東小学校",
        "address": "一宮市春明字中切1",
        "lat": 35.31732,
        "lng": 136.844183
    },
    {
        "code": "B123210003885",
        "type": 16001,
        "name": "今伊勢西小学校",
        "address": "一宮市今伊勢町馬寄字西平4-1",
        "lat": 35.323651,
        "lng": 136.783106
    },
    {
        "code": "B123210003894",
        "type": 16001,
        "name": "葉栗北小学校",
        "address": "一宮市光明寺字畳手55",
        "lat": 35.35151,
        "lng": 136.802104
    },
    {
        "code": "B123210003901",
        "type": 16001,
        "name": "大和南小学校",
        "address": "一宮市大和町戸塚連田1-2",
        "lat": 35.274545,
        "lng": 136.790968
    },
    {
        "code": "B123210003910",
        "type": 16001,
        "name": "浅井中小学校",
        "address": "一宮市浅井町大日比野字東若栗61",
        "lat": 35.344039,
        "lng": 136.822768
    },
    {
        "code": "B123210003929",
        "type": 16001,
        "name": "千秋東小学校",
        "address": "一宮市千秋町加納馬場字松下54",
        "lat": 35.304599,
        "lng": 136.870626
    },
    {
        "code": "B123210003938",
        "type": 16001,
        "name": "起小学校",
        "address": "一宮市起字西生出35",
        "lat": 35.305819,
        "lng": 136.739806
    },
    {
        "code": "B123210003947",
        "type": 16001,
        "name": "三条小学校",
        "address": "一宮市三条字苅16",
        "lat": 35.306013,
        "lng": 136.760026
    },
    {
        "code": "B123210003956",
        "type": 16001,
        "name": "小信中島小学校",
        "address": "一宮市小信中島字南平口59",
        "lat": 35.315735,
        "lng": 136.747443
    },
    {
        "code": "B123210003965",
        "type": 16001,
        "name": "朝日東小学校",
        "address": "一宮市明地字江端8",
        "lat": 35.279406,
        "lng": 136.737418
    },
    {
        "code": "B123210003974",
        "type": 16001,
        "name": "朝日西小学校",
        "address": "一宮市上祖父江字高須賀18",
        "lat": 35.279767,
        "lng": 136.71992
    },
    {
        "code": "B123210003983",
        "type": 16001,
        "name": "開明小学校",
        "address": "一宮市開明字城堀20",
        "lat": 35.321401,
        "lng": 136.77258
    },
    {
        "code": "B123210003992",
        "type": 16001,
        "name": "大徳小学校",
        "address": "一宮市西五城字荒子中切26-1",
        "lat": 35.296709,
        "lng": 136.746777
    },
    {
        "code": "B123210004009",
        "type": 16001,
        "name": "黒田小学校",
        "address": "一宮市木曽川町黒田字古城26-2",
        "lat": 35.344698,
        "lng": 136.780596
    },
    {
        "code": "B123210004018",
        "type": 16001,
        "name": "木曽川西小学校",
        "address": "一宮市木曽川町玉ﾉ井字道路寺7-3",
        "lat": 35.340141,
        "lng": 136.764191
    },
    {
        "code": "B123210004027",
        "type": 16001,
        "name": "木曽川東小学校",
        "address": "一宮市木曽川町黒田八ﾉ通り141-1",
        "lat": 35.341357,
        "lng": 136.79036
    },
    {
        "code": "C123210001545",
        "type": 16002,
        "name": "北部中学校",
        "address": "一宮市貴船1-6-10",
        "lat": 35.311792,
        "lng": 136.807965
    },
    {
        "code": "C123210001554",
        "type": 16002,
        "name": "中部中学校",
        "address": "一宮市八幡4-1-111",
        "lat": 35.306569,
        "lng": 136.789328
    },
    {
        "code": "C123210001563",
        "type": 16002,
        "name": "南部中学校",
        "address": "一宮市浅野字土井ﾉ内1-1",
        "lat": 35.298433,
        "lng": 136.82549
    },
    {
        "code": "C123210001572",
        "type": 16002,
        "name": "葉栗中学校",
        "address": "一宮市高田字清水100",
        "lat": 35.3399,
        "lng": 136.805881
    },
    {
        "code": "C123210001581",
        "type": 16002,
        "name": "西成中学校",
        "address": "一宮市西大海道字柏木15",
        "lat": 35.319597,
        "lng": 136.830935
    },
    {
        "code": "C123210001590",
        "type": 16002,
        "name": "丹陽中学校",
        "address": "一宮市丹陽町三ﾂ井字鬼ヶ島6",
        "lat": 35.283046,
        "lng": 136.835574
    },
    {
        "code": "C123210001607",
        "type": 16002,
        "name": "浅井中学校",
        "address": "一宮市浅井町前野字郷西145",
        "lat": 35.343789,
        "lng": 136.824324
    },
    {
        "code": "C123210001616",
        "type": 16002,
        "name": "北方中学校",
        "address": "一宮市北方町北方字宮浦42",
        "lat": 35.360564,
        "lng": 136.780773
    },
    {
        "code": "C123210001625",
        "type": 16002,
        "name": "大和中学校",
        "address": "一宮市大和町苅安賀上東出80",
        "lat": 35.288294,
        "lng": 136.78569
    },
    {
        "code": "C123210001634",
        "type": 16002,
        "name": "今伊勢中学校",
        "address": "一宮市今伊勢町宮後字郷中茶原52",
        "lat": 35.319179,
        "lng": 136.786439
    },
    {
        "code": "C123210001643",
        "type": 16002,
        "name": "奥中学校",
        "address": "一宮市奥町字上平池55",
        "lat": 35.325762,
        "lng": 136.764497
    },
    {
        "code": "C123210001652",
        "type": 16002,
        "name": "萩原中学校",
        "address": "一宮市萩原町串作字河室浦1",
        "lat": 35.277711,
        "lng": 136.767859
    },
    {
        "code": "C123210001661",
        "type": 16002,
        "name": "千秋中学校",
        "address": "一宮市千秋町佐野字高須2982",
        "lat": 35.301377,
        "lng": 136.862182
    },
    {
        "code": "C123210001670",
        "type": 16002,
        "name": "西成東部中学校",
        "address": "一宮市定水寺字五反田10",
        "lat": 35.311653,
        "lng": 136.836322
    },
    {
        "code": "C123210001689",
        "type": 16002,
        "name": "大和南中学校",
        "address": "一宮市大和町南高井字蓮原2-1",
        "lat": 35.273018,
        "lng": 136.783191
    },
    {
        "code": "C123210001698",
        "type": 16002,
        "name": "尾西第一中学校",
        "address": "一宮市三条字宮西50",
        "lat": 35.300181,
        "lng": 136.753776
    },
    {
        "code": "C123210001705",
        "type": 16002,
        "name": "尾西第二中学校",
        "address": "一宮市明地字油屋前30",
        "lat": 35.278323,
        "lng": 136.74264
    },
    {
        "code": "C123210001714",
        "type": 16002,
        "name": "尾西第三中学校",
        "address": "一宮市開明字村上54",
        "lat": 35.317345,
        "lng": 136.759053
    },
    {
        "code": "C123210001723",
        "type": 16002,
        "name": "木曽川中学校",
        "address": "一宮市木曽川町里小牧字北青木25",
        "lat": 35.3437,
        "lng": 136.768732
    },
    {
        "code": "C123310000143",
        "type": 16002,
        "name": "大成中学校",
        "address": "一宮市千秋町小山字大福田1878-2",
        "lat": 35.292057,
        "lng": 136.848412
    },
    {
        "code": "D123210000492",
        "type": 16004,
        "name": "一宮高等学校",
        "address": "一宮市北園通6-9",
        "lat": 35.29621,
        "lng": 136.809159
    },
    {
        "code": "D123210000508",
        "type": 16004,
        "name": "一宮商業高等学校",
        "address": "一宮市文京2-1-7",
        "lat": 35.313514,
        "lng": 136.804465
    },
    {
        "code": "D123210000517",
        "type": 16004,
        "name": "一宮工科高等学校",
        "address": "一宮市千秋町佐野辻田2112",
        "lat": 35.300239,
        "lng": 136.852683
    },
    {
        "code": "D123210000526",
        "type": 16004,
        "name": "木曽川高等学校",
        "address": "一宮市開明樋西11-1",
        "lat": 35.320567,
        "lng": 136.756414
    },
    {
        "code": "D123210000535",
        "type": 16004,
        "name": "一宮起工科高等学校",
        "address": "一宮市小信中島郷南2",
        "lat": 35.305856,
        "lng": 136.746274
    },
    {
        "code": "D123210000553",
        "type": 16004,
        "name": "一宮西高等学校",
        "address": "一宮市萩原町串作字河田1",
        "lat": 35.279767,
        "lng": 136.766942
    },
    {
        "code": "D123210000571",
        "type": 16004,
        "name": "一宮北高等学校",
        "address": "一宮市笹野字氏神東1",
        "lat": 35.3494,
        "lng": 136.81177
    },
    {
        "code": "D123210000580",
        "type": 16004,
        "name": "尾西高等学校",
        "address": "一宮市上祖父江字小稲葉18",
        "lat": 35.272768,
        "lng": 136.717699
    },
    {
        "code": "D123210000606",
        "type": 16004,
        "name": "一宮南高等学校",
        "address": "一宮市千秋町町屋字平松6-1",
        "lat": 35.293045,
        "lng": 136.856516
    },
    {
        "code": "D123210000615",
        "type": 16004,
        "name": "一宮興道高等学校",
        "address": "一宮市大和町於保字十二1-1",
        "lat": 35.269991,
        "lng": 136.793273
    },
    {
        "code": "D123310000294",
        "type": 16004,
        "name": "修文女子高等学校",
        "address": "一宮市日光町6-1",
        "lat": 35.301792,
        "lng": 136.781051
    },
    {
        "code": "D123310000418",
        "type": 16004,
        "name": "大成高等学校",
        "address": "一宮市千秋町小山字大福田1878-2",
        "lat": 35.292712,
        "lng": 136.848739
    },
    {
        "code": "E123210000060",
        "type": 16012,
        "name": "一宮聾学校",
        "address": "一宮市大和町苅安賀字上西之杁30",
        "lat": 35.288655,
        "lng": 136.776524
    },
    {
        "code": "E123210000088",
        "type": 16012,
        "name": "一宮東特別支援学校",
        "address": "一宮市丹羽字中山1151-1",
        "lat": 35.32493,
        "lng": 136.82263
    },
    {
        "code": "E123210000266",
        "type": 16012,
        "name": "一宮特別支援学校",
        "address": "一宮市杉山字氏神廻1",
        "lat": 35.349289,
        "lng": 136.80927
    },
    {
        "code": "F123310106899",
        "type": 16007,
        "name": "修文大学",
        "address": "一宮市日光町6",
        "lat": 35.30115,
        "lng": 136.782216
    },
    {
        "code": "F123310106915",
        "type": 16007,
        "name": "一宮研伸大学",
        "address": "一宮市常願通5-4-1",
        "lat": 35.316837,
        "lng": 136.810964
    },
    {
        "code": "F223310107067",
        "type": 16006,
        "name": "修文大学短期大学部",
        "address": "一宮市日光町6",
        "lat": 35.301153,
        "lng": 136.782218
    },
    {
        "code": "H223310000258",
        "type": 16015,
        "name": "愛知県一宮自動車学校",
        "address": "一宮市島村字下老光寺120",
        "lat": 35.334337,
        "lng": 136.815125
    },
    {
        "code": "H223310000267",
        "type": 16015,
        "name": "一宮中央高等珠算学校",
        "address": "一宮市柳戸町1-52",
        "lat": 35.295818,
        "lng": 136.805538
    },
    {
        "code": "H223310000276",
        "type": 16015,
        "name": "矢野ドレスメーカー女学院",
        "address": "一宮市大和町馬引荒木11",
        "lat": 35.305225,
        "lng": 136.780893
    },
    {
        "code": "H223310000285",
        "type": 16015,
        "name": "萩原高等珠算学校",
        "address": "一宮市萩原町萩原字河原崎101",
        "lat": 35.279736,
        "lng": 136.756882
    },
    {
        "code": "H223310000436",
        "type": 16015,
        "name": "三条高等珠算学校",
        "address": "一宮市3条字郷南東25-1",
        "lat": 35.305089,
        "lng": 136.760453
    },
    {
        "code": "H223310000472",
        "type": 16015,
        "name": "東元珠算学校",
        "address": "一宮市木曽川町黒田字古城14-1",
        "lat": 35.343422,
        "lng": 136.78044
    }
]