[
    {
        "code": "A123310002378",
        "type": 16011,
        "name": "豊川幼稚園",
        "address": "豊川市幸町124",
        "lat": 34.824423,
        "lng": 137.389152
    },
    {
        "code": "A123310002387",
        "type": 16011,
        "name": "愛知双葉幼稚園",
        "address": "豊川市下野川町2-10",
        "lat": 34.82077,
        "lng": 137.365045
    },
    {
        "code": "A123310002396",
        "type": 16011,
        "name": "西明寺幼稚園",
        "address": "豊川市八幡町寺前1",
        "lat": 34.843921,
        "lng": 137.327745
    },
    {
        "code": "A123310002403",
        "type": 16011,
        "name": "光明寺幼稚園",
        "address": "豊川市西豊町1-69",
        "lat": 34.82701,
        "lng": 137.397351
    },
    {
        "code": "A123310002412",
        "type": 16011,
        "name": "花井幼稚園",
        "address": "豊川市新宿町1-95-3",
        "lat": 34.818435,
        "lng": 137.39125
    },
    {
        "code": "A223310001056",
        "type": 16013,
        "name": "豊川東幼稚園",
        "address": "豊川市末広通3-29",
        "lat": 34.831692,
        "lng": 137.395282
    },
    {
        "code": "A223310001065",
        "type": 16013,
        "name": "美園こども園",
        "address": "豊川市美園2-11-37",
        "lat": 34.807965,
        "lng": 137.348964
    },
    {
        "code": "B123210004713",
        "type": 16001,
        "name": "豊川小学校",
        "address": "豊川市北浦町31-1",
        "lat": 34.822507,
        "lng": 137.393035
    },
    {
        "code": "B123210004722",
        "type": 16001,
        "name": "東部小学校",
        "address": "豊川市三谷原町石坪1-1",
        "lat": 34.823674,
        "lng": 137.413477
    },
    {
        "code": "B123210004731",
        "type": 16001,
        "name": "桜木小学校",
        "address": "豊川市小桜町17",
        "lat": 34.831228,
        "lng": 137.390701
    },
    {
        "code": "B123210004740",
        "type": 16001,
        "name": "三蔵子小学校",
        "address": "豊川市三蔵子町宮前32",
        "lat": 34.840505,
        "lng": 137.383201
    },
    {
        "code": "B123210004759",
        "type": 16001,
        "name": "千両小学校",
        "address": "豊川市千両町数谷原18-2",
        "lat": 34.857725,
        "lng": 137.37484
    },
    {
        "code": "B123210004768",
        "type": 16001,
        "name": "牛久保小学校",
        "address": "豊川市牛久保町大手10-2",
        "lat": 34.809535,
        "lng": 137.380509
    },
    {
        "code": "B123210004777",
        "type": 16001,
        "name": "中部小学校",
        "address": "豊川市中部町1-1",
        "lat": 34.821395,
        "lng": 137.370648
    },
    {
        "code": "B123210004786",
        "type": 16001,
        "name": "八南小学校",
        "address": "豊川市野口町豊角8-1",
        "lat": 34.839003,
        "lng": 137.350259
    },
    {
        "code": "B123210004795",
        "type": 16001,
        "name": "平尾小学校",
        "address": "豊川市平尾町上貝津2-5",
        "lat": 34.851474,
        "lng": 137.344315
    },
    {
        "code": "B123210004802",
        "type": 16001,
        "name": "国府小学校",
        "address": "豊川市国府町寒若寺6-1",
        "lat": 34.831836,
        "lng": 137.324512
    },
    {
        "code": "B123210004811",
        "type": 16001,
        "name": "桜町小学校",
        "address": "豊川市桜町2-7-45",
        "lat": 34.817033,
        "lng": 137.350539
    },
    {
        "code": "B123210004820",
        "type": 16001,
        "name": "御油小学校",
        "address": "豊川市御油町膳ﾉ棚1-4",
        "lat": 34.84589,
        "lng": 137.313151
    },
    {
        "code": "B123210004839",
        "type": 16001,
        "name": "天王小学校",
        "address": "豊川市牛久保町天王下14-1",
        "lat": 34.812119,
        "lng": 137.389759
    },
    {
        "code": "B123210004848",
        "type": 16001,
        "name": "代田小学校",
        "address": "豊川市代田町1-20-2",
        "lat": 34.82495,
        "lng": 137.360232
    },
    {
        "code": "B123210004857",
        "type": 16001,
        "name": "金屋小学校",
        "address": "豊川市金屋西町1-1",
        "lat": 34.826228,
        "lng": 137.381064
    },
    {
        "code": "B123210004866",
        "type": 16001,
        "name": "豊小学校",
        "address": "豊川市東豊町4-60",
        "lat": 34.829543,
        "lng": 137.406185
    },
    {
        "code": "B123210004875",
        "type": 16001,
        "name": "萩小学校",
        "address": "豊川市萩町岩田9-2",
        "lat": 34.8741,
        "lng": 137.330593
    },
    {
        "code": "B123210004884",
        "type": 16001,
        "name": "長沢小学校",
        "address": "豊川市長沢町午新88",
        "lat": 34.868289,
        "lng": 137.290161
    },
    {
        "code": "B123210004893",
        "type": 16001,
        "name": "赤坂小学校",
        "address": "豊川市赤坂町東山140",
        "lat": 34.856441,
        "lng": 137.31535
    },
    {
        "code": "B123210004900",
        "type": 16001,
        "name": "一宮東部小学校",
        "address": "豊川市上長山町東水神平44-2",
        "lat": 34.865391,
        "lng": 137.43416
    },
    {
        "code": "B123210004919",
        "type": 16001,
        "name": "一宮西部小学校",
        "address": "豊川市一宮町緑1",
        "lat": 34.849941,
        "lng": 137.415265
    },
    {
        "code": "B123210004928",
        "type": 16001,
        "name": "一宮南部小学校",
        "address": "豊川市豊津町新地4",
        "lat": 34.853934,
        "lng": 137.436113
    },
    {
        "code": "B123210004937",
        "type": 16001,
        "name": "小坂井東小学校",
        "address": "豊川市小坂井町西浦87",
        "lat": 34.8012,
        "lng": 137.361211
    },
    {
        "code": "B123210004946",
        "type": 16001,
        "name": "小坂井西小学校",
        "address": "豊川市伊奈町縫殿55-1",
        "lat": 34.796901,
        "lng": 137.349411
    },
    {
        "code": "B123210004955",
        "type": 16001,
        "name": "御津北部小学校",
        "address": "豊川市御津町広石字神子田54-1",
        "lat": 34.825512,
        "lng": 137.315131
    },
    {
        "code": "B123210004964",
        "type": 16001,
        "name": "御津南部小学校",
        "address": "豊川市御津町御馬加美15",
        "lat": 34.809557,
        "lng": 137.319053
    },
    {
        "code": "C123210002027",
        "type": 16002,
        "name": "東部中学校",
        "address": "豊川市西豊町2-191",
        "lat": 34.829229,
        "lng": 137.397673
    },
    {
        "code": "C123210002036",
        "type": 16002,
        "name": "南部中学校",
        "address": "豊川市光明町2-42",
        "lat": 34.816757,
        "lng": 137.371342
    },
    {
        "code": "C123210002045",
        "type": 16002,
        "name": "中部中学校",
        "address": "豊川市市田町西浦41",
        "lat": 34.841476,
        "lng": 137.352981
    },
    {
        "code": "C123210002054",
        "type": 16002,
        "name": "西部中学校",
        "address": "豊川市国府町岡本24-2",
        "lat": 34.833475,
        "lng": 137.320623
    },
    {
        "code": "C123210002063",
        "type": 16002,
        "name": "代田中学校",
        "address": "豊川市代田町1-20-1",
        "lat": 34.825978,
        "lng": 137.361037
    },
    {
        "code": "C123210002072",
        "type": 16002,
        "name": "金屋中学校",
        "address": "豊川市金屋西町1-2",
        "lat": 34.82695,
        "lng": 137.38123
    },
    {
        "code": "C123210002081",
        "type": 16002,
        "name": "音羽中学校",
        "address": "豊川市赤坂町西縄手66",
        "lat": 34.861443,
        "lng": 137.303485
    },
    {
        "code": "C123210002090",
        "type": 16002,
        "name": "一宮中学校",
        "address": "豊川市一宮町上新切33-247",
        "lat": 34.860877,
        "lng": 137.424346
    },
    {
        "code": "C123210002107",
        "type": 16002,
        "name": "小坂井中学校",
        "address": "豊川市伊奈町古当103",
        "lat": 34.802257,
        "lng": 137.356539
    },
    {
        "code": "C123210002116",
        "type": 16002,
        "name": "御津中学校",
        "address": "豊川市御津町泙野字山下20",
        "lat": 34.816976,
        "lng": 137.313736
    },
    {
        "code": "D123210001384",
        "type": 16004,
        "name": "宝陵高等学校",
        "address": "豊川市大木町鑓水445",
        "lat": 34.859184,
        "lng": 137.414825
    },
    {
        "code": "D123210001393",
        "type": 16004,
        "name": "御津高等学校",
        "address": "豊川市御津町豊沢字松ﾉ下1",
        "lat": 34.8318,
        "lng": 137.314357
    },
    {
        "code": "D123210001437",
        "type": 16004,
        "name": "国府高等学校",
        "address": "豊川市国府町下坊入10-1",
        "lat": 34.830198,
        "lng": 137.329095
    },
    {
        "code": "D123210001446",
        "type": 16004,
        "name": "豊川工科高等学校",
        "address": "豊川市新道町1-3",
        "lat": 34.823506,
        "lng": 137.365204
    },
    {
        "code": "D123210001491",
        "type": 16004,
        "name": "小坂井高等学校",
        "address": "豊川市小坂井町欠田100-1",
        "lat": 34.79562,
        "lng": 137.372733
    },
    {
        "code": "D123310000551",
        "type": 16004,
        "name": "豊川高等学校",
        "address": "豊川市末広通1-37",
        "lat": 34.82555,
        "lng": 137.386607
    },
    {
        "code": "E123210000122",
        "type": 16012,
        "name": "豊川特別支援学校",
        "address": "豊川市平尾町門田77",
        "lat": 34.850196,
        "lng": 137.337066
    },
    {
        "code": "E123210000131",
        "type": 16012,
        "name": "豊川特別支援学校本宮校舎",
        "address": "豊川市大木町鑓水445",
        "lat": 34.859134,
        "lng": 137.414434
    },
    {
        "code": "H123310000981",
        "type": 16016,
        "name": "中部福祉保育医療専門学校",
        "address": "豊川市馬場町上石畑61",
        "lat": 34.818324,
        "lng": 137.399043
    },
    {
        "code": "H223310000329",
        "type": 16015,
        "name": "豊川珠算実務学校",
        "address": "豊川市桜木通1-17-2",
        "lat": 34.827118,
        "lng": 137.394802
    }
]