[
    {
        "code": "A123310002467",
        "type": 16011,
        "name": "暁星幼稚園",
        "address": "刈谷市東陽町4-37",
        "lat": 34.988002,
        "lng": 137.001457
    },
    {
        "code": "A123310002476",
        "type": 16011,
        "name": "刈谷大和幼稚園",
        "address": "刈谷市一里山町中本山116",
        "lat": 35.03033,
        "lng": 137.04078
    },
    {
        "code": "A223210000077",
        "type": 16013,
        "name": "刈谷幼児園",
        "address": "刈谷市司町3-15",
        "lat": 34.987235,
        "lng": 136.986644
    },
    {
        "code": "A223210000086",
        "type": 16013,
        "name": "小高原幼児園",
        "address": "刈谷市原崎町1-101",
        "lat": 35.000247,
        "lng": 137.002466
    },
    {
        "code": "A223210000095",
        "type": 16013,
        "name": "衣浦幼児園",
        "address": "刈谷市天王町3-24",
        "lat": 34.977789,
        "lng": 136.988397
    },
    {
        "code": "A223210000102",
        "type": 16013,
        "name": "住吉幼児園",
        "address": "刈谷市神田町2-3-8",
        "lat": 34.987488,
        "lng": 137.011717
    },
    {
        "code": "A223210000111",
        "type": 16013,
        "name": "かりがね幼児園",
        "address": "刈谷市恩田町4-156-2",
        "lat": 35.010539,
        "lng": 137.019422
    },
    {
        "code": "A223210000120",
        "type": 16013,
        "name": "平成幼児園",
        "address": "刈谷市一ﾂ木町5-16-1",
        "lat": 35.012486,
        "lng": 137.029066
    },
    {
        "code": "A223210000139",
        "type": 16013,
        "name": "富士松南幼児園",
        "address": "刈谷市今川町山脇58",
        "lat": 35.025257,
        "lng": 137.014234
    },
    {
        "code": "A223210000148",
        "type": 16013,
        "name": "富士松北幼児園",
        "address": "刈谷市東境町飯島33",
        "lat": 35.037489,
        "lng": 137.031547
    },
    {
        "code": "A223210000157",
        "type": 16013,
        "name": "小垣江幼児園",
        "address": "刈谷市小垣江町西王地28-1",
        "lat": 34.963064,
        "lng": 136.996644
    },
    {
        "code": "A223210000166",
        "type": 16013,
        "name": "双葉幼児園",
        "address": "刈谷市半城土中町3-13-2",
        "lat": 34.97584,
        "lng": 137.021361
    },
    {
        "code": "A223210000175",
        "type": 16013,
        "name": "日高幼児園",
        "address": "刈谷市日高町1-201",
        "lat": 35.004369,
        "lng": 136.994852
    },
    {
        "code": "A223210000193",
        "type": 16013,
        "name": "東刈谷幼児園",
        "address": "刈谷市東刈谷町3-8",
        "lat": 34.973441,
        "lng": 137.037835
    },
    {
        "code": "A223210000200",
        "type": 16013,
        "name": "小垣江東幼児園",
        "address": "刈谷市小垣江町上沢渡33",
        "lat": 34.960073,
        "lng": 137.01407
    },
    {
        "code": "A223210000219",
        "type": 16013,
        "name": "井ケ谷幼児園",
        "address": "刈谷市井ｹ谷町下前田54",
        "lat": 35.054816,
        "lng": 137.042641
    },
    {
        "code": "A223210000228",
        "type": 16013,
        "name": "朝日幼児園",
        "address": "刈谷市野田町新上納301",
        "lat": 34.970721,
        "lng": 137.030468
    },
    {
        "code": "B123210005124",
        "type": 16001,
        "name": "亀城小学校",
        "address": "刈谷市城町1-25-1",
        "lat": 34.988196,
        "lng": 136.986819
    },
    {
        "code": "B123210005133",
        "type": 16001,
        "name": "小高原小学校",
        "address": "刈谷市原崎町1-101",
        "lat": 35.000167,
        "lng": 137.003651
    },
    {
        "code": "B123210005142",
        "type": 16001,
        "name": "衣浦小学校",
        "address": "刈谷市天王町3-27",
        "lat": 34.977559,
        "lng": 136.989402
    },
    {
        "code": "B123210005151",
        "type": 16001,
        "name": "富士松南小学校",
        "address": "刈谷市今川町山脇1",
        "lat": 35.026026,
        "lng": 137.012956
    },
    {
        "code": "B123210005160",
        "type": 16001,
        "name": "富士松北小学校",
        "address": "刈谷市東境町焼田10-5",
        "lat": 35.046137,
        "lng": 137.04073
    },
    {
        "code": "B123210005179",
        "type": 16001,
        "name": "小垣江小学校",
        "address": "刈谷市小垣江町西王地1-1",
        "lat": 34.963839,
        "lng": 136.997902
    },
    {
        "code": "B123210005188",
        "type": 16001,
        "name": "双葉小学校",
        "address": "刈谷市半城土中町3-12-2",
        "lat": 34.975865,
        "lng": 137.020011
    },
    {
        "code": "B123210005197",
        "type": 16001,
        "name": "住吉小学校",
        "address": "刈谷市住吉町3-70",
        "lat": 34.984919,
        "lng": 137.007623
    },
    {
        "code": "B123210005204",
        "type": 16001,
        "name": "かりがね小学校",
        "address": "刈谷市築地町2-15-1",
        "lat": 35.013882,
        "lng": 137.018176
    },
    {
        "code": "B123210005213",
        "type": 16001,
        "name": "東刈谷小学校",
        "address": "刈谷市東刈谷町3-8",
        "lat": 34.973893,
        "lng": 137.038315
    },
    {
        "code": "B123210005222",
        "type": 16001,
        "name": "日高小学校",
        "address": "刈谷市日高町1-201",
        "lat": 35.004472,
        "lng": 136.994874
    },
    {
        "code": "B123210005231",
        "type": 16001,
        "name": "富士松東小学校",
        "address": "刈谷市東境町堀池71",
        "lat": 35.033501,
        "lng": 137.036636
    },
    {
        "code": "B123210005240",
        "type": 16001,
        "name": "朝日小学校",
        "address": "刈谷市野田町陣戸池151",
        "lat": 34.970182,
        "lng": 137.031608
    },
    {
        "code": "B123210005259",
        "type": 16001,
        "name": "小垣江東小学校",
        "address": "刈谷市小垣江町白沢36",
        "lat": 34.95809,
        "lng": 137.008151
    },
    {
        "code": "B123210005268",
        "type": 16001,
        "name": "平成小学校",
        "address": "刈谷市一ﾂ木町3-18-1",
        "lat": 35.008429,
        "lng": 137.028885
    },
    {
        "code": "C123210002214",
        "type": 16002,
        "name": "刈谷南中学校",
        "address": "刈谷市住吉町2-1",
        "lat": 34.985975,
        "lng": 137.0104
    },
    {
        "code": "C123210002223",
        "type": 16002,
        "name": "刈谷東中学校",
        "address": "刈谷市山池町1-201",
        "lat": 34.998346,
        "lng": 136.994941
    },
    {
        "code": "C123210002232",
        "type": 16002,
        "name": "富士松中学校",
        "address": "刈谷市今川町花岡114",
        "lat": 35.030915,
        "lng": 137.028149
    },
    {
        "code": "C123210002241",
        "type": 16002,
        "name": "依佐美中学校",
        "address": "刈谷市小垣江町上沢渡5-1",
        "lat": 34.961367,
        "lng": 137.014789
    },
    {
        "code": "C123210002250",
        "type": 16002,
        "name": "雁が音中学校",
        "address": "刈谷市築地町3-9-1",
        "lat": 35.016683,
        "lng": 137.012897
    },
    {
        "code": "C123210002269",
        "type": 16002,
        "name": "朝日中学校",
        "address": "刈谷市野田町陣戸池152",
        "lat": 34.969053,
        "lng": 137.029557
    },
    {
        "code": "D123110000029",
        "type": 16004,
        "name": "愛知教育大学附属高等学校",
        "address": "刈谷市井ｹ谷町広沢1",
        "lat": 35.050053,
        "lng": 137.052395
    },
    {
        "code": "D123210001017",
        "type": 16004,
        "name": "刈谷高等学校",
        "address": "刈谷市寿町5-101",
        "lat": 34.983864,
        "lng": 136.99854
    },
    {
        "code": "D123210001026",
        "type": 16004,
        "name": "刈谷工科高等学校",
        "address": "刈谷市矢場町2-210",
        "lat": 34.997306,
        "lng": 136.998901
    },
    {
        "code": "D123210001035",
        "type": 16004,
        "name": "刈谷北高等学校",
        "address": "刈谷市寺横町1-67",
        "lat": 34.990807,
        "lng": 136.994402
    },
    {
        "code": "D123210001106",
        "type": 16004,
        "name": "刈谷東高等学校",
        "address": "刈谷市半城土町三ﾂ又20",
        "lat": 34.983753,
        "lng": 137.018455
    },
    {
        "code": "E123210000382",
        "type": 16012,
        "name": "刈谷特別支援学校",
        "address": "刈谷市小垣江町白沢36",
        "lat": 34.958137,
        "lng": 137.007806
    },
    {
        "code": "F123110106447",
        "type": 16007,
        "name": "愛知教育大学",
        "address": "刈谷市井ｹ谷町広沢1",
        "lat": 35.053053,
        "lng": 137.04959
    },
    {
        "code": "H223310000356",
        "type": 16015,
        "name": "富士松高等珠算学校",
        "address": "刈谷市今岡町上手掛50-3",
        "lat": 35.025441,
        "lng": 137.023726
    }
]