[
    {
        "code": "A123310002528",
        "type": 16011,
        "name": "安城学園愛知学泉短期大学附属幼稚園",
        "address": "安城市小堤町4-25",
        "lat": 34.955447,
        "lng": 137.081294
    },
    {
        "code": "A123310002537",
        "type": 16011,
        "name": "愛知学泉大学附属幼稚園",
        "address": "安城市安城町栗の木41-1",
        "lat": 34.947717,
        "lng": 137.084972
    },
    {
        "code": "A123310002546",
        "type": 16011,
        "name": "石橋幼稚園",
        "address": "安城市里町足取3",
        "lat": 34.996514,
        "lng": 137.098171
    },
    {
        "code": "A123310002555",
        "type": 16011,
        "name": "ともえ幼稚園",
        "address": "安城市今本町1-6-30",
        "lat": 34.991717,
        "lng": 137.084321
    },
    {
        "code": "A123310002564",
        "type": 16011,
        "name": "二本木幼稚園",
        "address": "安城市美園町2-4-5",
        "lat": 34.977029,
        "lng": 137.051066
    },
    {
        "code": "A123310002573",
        "type": 16011,
        "name": "愛知学泉大学付属桜井幼稚園",
        "address": "安城市桜井町稲荷東20-3",
        "lat": 34.915597,
        "lng": 137.082873
    },
    {
        "code": "A223310001378",
        "type": 16013,
        "name": "てらべクリエイティブこども園",
        "address": "安城市百石町1-22-12",
        "lat": 34.954986,
        "lng": 137.076122
    },
    {
        "code": "A223310001387",
        "type": 16013,
        "name": "根崎こども園",
        "address": "安城市根崎町西根64-1",
        "lat": 34.899809,
        "lng": 137.032487
    },
    {
        "code": "A223310001396",
        "type": 16013,
        "name": "慈恵幼稚園",
        "address": "安城市西別所町中新田18",
        "lat": 34.966263,
        "lng": 137.112163
    },
    {
        "code": "A223310001403",
        "type": 16013,
        "name": "子宝保育園",
        "address": "安城市今池町1-24-18",
        "lat": 34.988351,
        "lng": 137.081416
    },
    {
        "code": "A223310001412",
        "type": 16013,
        "name": "第二慈恵幼稚園",
        "address": "安城市高棚町芦池223-2",
        "lat": 34.957576,
        "lng": 137.039465
    },
    {
        "code": "A223310001920",
        "type": 16013,
        "name": "安城こども園",
        "address": "安城市相生町18-7",
        "lat": 34.954322,
        "lng": 137.085624
    },
    {
        "code": "A223310001939",
        "type": 16013,
        "name": "さくのこども園",
        "address": "安城市篠目町4-22-21",
        "lat": 34.981671,
        "lng": 137.077039
    },
    {
        "code": "A223310001948",
        "type": 16013,
        "name": "安城北部こども園",
        "address": "安城市大東町25-40",
        "lat": 34.968565,
        "lng": 137.085399
    },
    {
        "code": "A223310001957",
        "type": 16013,
        "name": "東栄こども園",
        "address": "安城市東栄町3-809-9",
        "lat": 34.987135,
        "lng": 137.092251
    },
    {
        "code": "B123210006025",
        "type": 16001,
        "name": "安城中部小学校",
        "address": "安城市大東町12-8",
        "lat": 34.965479,
        "lng": 137.08481
    },
    {
        "code": "B123210006034",
        "type": 16001,
        "name": "安城南部小学校",
        "address": "安城市安城町城堀48",
        "lat": 34.94576,
        "lng": 137.095448
    },
    {
        "code": "B123210006043",
        "type": 16001,
        "name": "安城西部小学校",
        "address": "安城市福釜町猿町128",
        "lat": 34.944759,
        "lng": 137.058396
    },
    {
        "code": "B123210006052",
        "type": 16001,
        "name": "安城東部小学校",
        "address": "安城市大岡町前畑72-1",
        "lat": 34.957203,
        "lng": 137.107308
    },
    {
        "code": "B123210006061",
        "type": 16001,
        "name": "安城北部小学校",
        "address": "安城市今本町8-9-9",
        "lat": 34.993403,
        "lng": 137.086349
    },
    {
        "code": "B123210006070",
        "type": 16001,
        "name": "錦町小学校",
        "address": "安城市錦町9-39",
        "lat": 34.953258,
        "lng": 137.083144
    },
    {
        "code": "B123210006089",
        "type": 16001,
        "name": "高棚小学校",
        "address": "安城市高棚町蛭田44",
        "lat": 34.944786,
        "lng": 137.027733
    },
    {
        "code": "B123210006098",
        "type": 16001,
        "name": "明和小学校",
        "address": "安城市東端町明和66",
        "lat": 34.903708,
        "lng": 137.027512
    },
    {
        "code": "B123210006105",
        "type": 16001,
        "name": "志貴小学校",
        "address": "安城市柿碕町御用地45",
        "lat": 34.980395,
        "lng": 137.115946
    },
    {
        "code": "B123210006114",
        "type": 16001,
        "name": "桜井小学校",
        "address": "安城市小川町清水道6-1",
        "lat": 34.907982,
        "lng": 137.08692
    },
    {
        "code": "B123210006123",
        "type": 16001,
        "name": "作野小学校",
        "address": "安城市篠目町4-22-1",
        "lat": 34.98177,
        "lng": 137.075991
    },
    {
        "code": "B123210006132",
        "type": 16001,
        "name": "祥南小学校",
        "address": "安城市安城町庚申11",
        "lat": 34.939121,
        "lng": 137.0847
    },
    {
        "code": "B123210006141",
        "type": 16001,
        "name": "丈山小学校",
        "address": "安城市和泉町南本郷1",
        "lat": 34.91879,
        "lng": 137.045982
    },
    {
        "code": "B123210006150",
        "type": 16001,
        "name": "二本木小学校",
        "address": "安城市緑町1-23-1",
        "lat": 34.972949,
        "lng": 137.051091
    },
    {
        "code": "B123210006169",
        "type": 16001,
        "name": "里町小学校",
        "address": "安城市里町足取1-5",
        "lat": 34.997531,
        "lng": 137.097948
    },
    {
        "code": "B123210006178",
        "type": 16001,
        "name": "桜町小学校",
        "address": "安城市桜町15-5",
        "lat": 34.960618,
        "lng": 137.080144
    },
    {
        "code": "B123210006187",
        "type": 16001,
        "name": "桜林小学校",
        "address": "安城市桜井町中狭間35-1",
        "lat": 34.92329,
        "lng": 137.09656
    },
    {
        "code": "B123210006196",
        "type": 16001,
        "name": "新田小学校",
        "address": "安城市新田町新栄100",
        "lat": 34.968645,
        "lng": 137.094809
    },
    {
        "code": "B123210006203",
        "type": 16001,
        "name": "今池小学校",
        "address": "安城市今池町2-1-52",
        "lat": 34.98231,
        "lng": 137.085588
    },
    {
        "code": "B123210006212",
        "type": 16001,
        "name": "三河安城小学校",
        "address": "安城市箕輪町昭和47",
        "lat": 34.959811,
        "lng": 137.064661
    },
    {
        "code": "B123210006221",
        "type": 16001,
        "name": "梨の里小学校",
        "address": "安城市篠目町溝川38",
        "lat": 34.975266,
        "lng": 137.065316
    },
    {
        "code": "C123210002553",
        "type": 16002,
        "name": "安城南中学校",
        "address": "安城市城南町2-7-2",
        "lat": 34.948509,
        "lng": 137.0767
    },
    {
        "code": "C123210002562",
        "type": 16002,
        "name": "安城北中学校",
        "address": "安城市新田町小山西18",
        "lat": 34.970228,
        "lng": 137.087282
    },
    {
        "code": "C123210002571",
        "type": 16002,
        "name": "明祥中学校",
        "address": "安城市東端町住吉1-12",
        "lat": 34.90641,
        "lng": 137.026492
    },
    {
        "code": "C123210002580",
        "type": 16002,
        "name": "安城西中学校",
        "address": "安城市福釜町中根43",
        "lat": 34.950193,
        "lng": 137.049414
    },
    {
        "code": "C123210002599",
        "type": 16002,
        "name": "桜井中学校",
        "address": "安城市小川町的場丘1-1",
        "lat": 34.912958,
        "lng": 137.089645
    },
    {
        "code": "C123210002606",
        "type": 16002,
        "name": "東山中学校",
        "address": "安城市里町東山1",
        "lat": 34.994281,
        "lng": 137.100281
    },
    {
        "code": "C123210002615",
        "type": 16002,
        "name": "安祥中学校",
        "address": "安城市安城町天草23",
        "lat": 34.94301,
        "lng": 137.088838
    },
    {
        "code": "C123210002624",
        "type": 16002,
        "name": "篠目中学校",
        "address": "安城市篠目町竜田151",
        "lat": 34.982507,
        "lng": 137.066175
    },
    {
        "code": "D123210001071",
        "type": 16004,
        "name": "安城高等学校",
        "address": "安城市赤松町大北103",
        "lat": 34.947453,
        "lng": 137.070173
    },
    {
        "code": "D123210001080",
        "type": 16004,
        "name": "安城農林高等学校",
        "address": "安城市池浦町茶筅木1",
        "lat": 34.968367,
        "lng": 137.07895
    },
    {
        "code": "D123210001124",
        "type": 16004,
        "name": "安城東高等学校",
        "address": "安城市北山崎町大土塚10",
        "lat": 34.965424,
        "lng": 137.102836
    },
    {
        "code": "D123210001133",
        "type": 16004,
        "name": "安城南高等学校",
        "address": "安城市桜井町門原1",
        "lat": 34.919763,
        "lng": 137.073924
    },
    {
        "code": "D123310000454",
        "type": 16004,
        "name": "安城学園高等学校",
        "address": "安城市小堤町4-25",
        "lat": 34.955008,
        "lng": 137.080755
    },
    {
        "code": "E123210000140",
        "type": 16012,
        "name": "安城特別支援学校",
        "address": "安城市桜井町伝左20",
        "lat": 34.918485,
        "lng": 137.081729
    },
    {
        "code": "H123310001043",
        "type": 16016,
        "name": "安城生活福祉高等専修学校",
        "address": "安城市相生町5-9",
        "lat": 34.954631,
        "lng": 137.089013
    },
    {
        "code": "H123310001052",
        "type": 16016,
        "name": "更生看護専門学校",
        "address": "安城市安城町東広畔47-1",
        "lat": 34.938407,
        "lng": 137.079006
    },
    {
        "code": "H123310001061",
        "type": 16016,
        "name": "慈恵歯科医療ファッション専門学校",
        "address": "安城市相生町204",
        "lat": 34.954197,
        "lng": 137.088352
    },
    {
        "code": "H123310001070",
        "type": 16016,
        "name": "大岡学園ファッション文化専門学校",
        "address": "安城市大東町11-28",
        "lat": 34.963732,
        "lng": 137.084902
    },
    {
        "code": "H123310001089",
        "type": 16016,
        "name": "安城碧海看護専門学校",
        "address": "安城市安城町広美42",
        "lat": 34.943826,
        "lng": 137.077813
    },
    {
        "code": "H223310000383",
        "type": 16015,
        "name": "安城高等珠算学校",
        "address": "安城市朝日町1-6",
        "lat": 34.959097,
        "lng": 137.089054
    }
]