[
    {
        "code": "A123210000498",
        "type": 16011,
        "name": "第一幼稚園",
        "address": "小牧市中央6-101",
        "lat": 35.285767,
        "lng": 136.931548
    },
    {
        "code": "A123310002733",
        "type": 16011,
        "name": "小牧美鳥学園美鳥幼稚園",
        "address": "小牧市岩崎1928-1",
        "lat": 35.31185,
        "lng": 136.931837
    },
    {
        "code": "A123310002742",
        "type": 16011,
        "name": "小牧幼稚園",
        "address": "小牧市中央2-200",
        "lat": 35.2871,
        "lng": 136.928472
    },
    {
        "code": "A123310002751",
        "type": 16011,
        "name": "市之久田幼稚園",
        "address": "小牧市市之久田1-345",
        "lat": 35.270804,
        "lng": 136.919663
    },
    {
        "code": "A123310002760",
        "type": 16011,
        "name": "名北ゼンヌ幼稚園",
        "address": "小牧市大字林字西山1831-2",
        "lat": 35.321445,
        "lng": 136.973341
    },
    {
        "code": "A123310002779",
        "type": 16011,
        "name": "小牧美鳥学園美鳥第二幼稚園",
        "address": "小牧市小牧原1-43",
        "lat": 35.306731,
        "lng": 136.92671
    },
    {
        "code": "A123310002788",
        "type": 16011,
        "name": "福厳寺学園太陽幼稚園",
        "address": "小牧市大字大草5223-1",
        "lat": 35.288601,
        "lng": 136.985773
    },
    {
        "code": "A123310002797",
        "type": 16011,
        "name": "あおぞら幼稚園",
        "address": "小牧市桃ヶ丘2-23",
        "lat": 35.298627,
        "lng": 136.976772
    },
    {
        "code": "A123310002804",
        "type": 16011,
        "name": "桃花台ひまわり幼稚園",
        "address": "小牧市篠岡1-44",
        "lat": 35.302902,
        "lng": 136.985203
    },
    {
        "code": "A223310001476",
        "type": 16013,
        "name": "旭ヶ丘第二こども園",
        "address": "小牧市光ｹ丘3-51",
        "lat": 35.303092,
        "lng": 136.993727
    },
    {
        "code": "A223310001485",
        "type": 16013,
        "name": "とやまこども園",
        "address": "小牧市大字南外山421",
        "lat": 35.271868,
        "lng": 136.929673
    },
    {
        "code": "B123210006908",
        "type": 16001,
        "name": "小牧小学校",
        "address": "小牧市小牧3-17",
        "lat": 35.291324,
        "lng": 136.922817
    },
    {
        "code": "B123210006917",
        "type": 16001,
        "name": "村中小学校",
        "address": "小牧市大字村中1045",
        "lat": 35.306766,
        "lng": 136.906734
    },
    {
        "code": "B123210006926",
        "type": 16001,
        "name": "小牧南小学校",
        "address": "小牧市若草町82",
        "lat": 35.279853,
        "lng": 136.923984
    },
    {
        "code": "B123210006935",
        "type": 16001,
        "name": "三ツ渕小学校",
        "address": "小牧市大字三ﾂ渕480",
        "lat": 35.29199,
        "lng": 136.893181
    },
    {
        "code": "B123210006944",
        "type": 16001,
        "name": "味岡小学校",
        "address": "小牧市小松寺5-150",
        "lat": 35.307434,
        "lng": 136.941176
    },
    {
        "code": "B123210006953",
        "type": 16001,
        "name": "篠岡小学校",
        "address": "小牧市篠岡2-25",
        "lat": 35.303991,
        "lng": 136.982228
    },
    {
        "code": "B123210006962",
        "type": 16001,
        "name": "北里小学校",
        "address": "小牧市下小針中島2-50",
        "lat": 35.27052,
        "lng": 136.905208
    },
    {
        "code": "B123210006971",
        "type": 16001,
        "name": "米野小学校",
        "address": "小牧市中央5-339",
        "lat": 35.285297,
        "lng": 136.937288
    },
    {
        "code": "B123210006980",
        "type": 16001,
        "name": "一色小学校",
        "address": "小牧市大字久保一色3500",
        "lat": 35.316877,
        "lng": 136.932176
    },
    {
        "code": "B123210006999",
        "type": 16001,
        "name": "小木小学校",
        "address": "小牧市小木西2-1",
        "lat": 35.278102,
        "lng": 136.893209
    },
    {
        "code": "B123210007006",
        "type": 16001,
        "name": "小牧原小学校",
        "address": "小牧市小牧原新田1125",
        "lat": 35.300962,
        "lng": 136.922261
    },
    {
        "code": "B123210007015",
        "type": 16001,
        "name": "本庄小学校",
        "address": "小牧市大字本庄2597-40",
        "lat": 35.312045,
        "lng": 136.953258
    },
    {
        "code": "B123210007024",
        "type": 16001,
        "name": "桃ヶ丘小学校",
        "address": "小牧市桃ヶ丘2-3",
        "lat": 35.298075,
        "lng": 136.977312
    },
    {
        "code": "B123210007033",
        "type": 16001,
        "name": "陶小学校",
        "address": "小牧市大字上末3450-282",
        "lat": 35.293853,
        "lng": 136.964924
    },
    {
        "code": "B123210007042",
        "type": 16001,
        "name": "光ヶ丘小学校",
        "address": "小牧市光ｹ丘3-50",
        "lat": 35.303075,
        "lng": 136.992699
    },
    {
        "code": "B123210007051",
        "type": 16001,
        "name": "大城小学校",
        "address": "小牧市城山3-8",
        "lat": 35.293465,
        "lng": 136.989395
    },
    {
        "code": "C123210002928",
        "type": 16002,
        "name": "小牧中学校",
        "address": "小牧市堀の内4-30",
        "lat": 35.287269,
        "lng": 136.912179
    },
    {
        "code": "C123210002937",
        "type": 16002,
        "name": "味岡中学校",
        "address": "小牧市小松寺4-1",
        "lat": 35.308401,
        "lng": 136.944098
    },
    {
        "code": "C123210002946",
        "type": 16002,
        "name": "篠岡中学校",
        "address": "小牧市篠岡2-28",
        "lat": 35.305036,
        "lng": 136.982336
    },
    {
        "code": "C123210002955",
        "type": 16002,
        "name": "北里中学校",
        "address": "小牧市下小針中島2-170",
        "lat": 35.26927,
        "lng": 136.903403
    },
    {
        "code": "C123210002964",
        "type": 16002,
        "name": "応時中学校",
        "address": "小牧市応時1-130",
        "lat": 35.28403,
        "lng": 136.933172
    },
    {
        "code": "C123210002973",
        "type": 16002,
        "name": "岩崎中学校",
        "address": "小牧市大字岩崎2588",
        "lat": 35.311044,
        "lng": 136.92276
    },
    {
        "code": "C123210002982",
        "type": 16002,
        "name": "桃陵中学校",
        "address": "小牧市桃ヶ丘2-1",
        "lat": 35.297297,
        "lng": 136.979117
    },
    {
        "code": "C123210002991",
        "type": 16002,
        "name": "小牧西中学校",
        "address": "小牧市大字西之島2200",
        "lat": 35.291101,
        "lng": 136.89693
    },
    {
        "code": "C123210003008",
        "type": 16002,
        "name": "光ヶ丘中学校",
        "address": "小牧市光ヶ丘3-52",
        "lat": 35.302269,
        "lng": 136.993644
    },
    {
        "code": "D123210000394",
        "type": 16004,
        "name": "小牧高等学校",
        "address": "小牧市小牧1-321",
        "lat": 35.292879,
        "lng": 136.918678
    },
    {
        "code": "D123210000438",
        "type": 16004,
        "name": "小牧工科高等学校",
        "address": "小牧市久保一色3737-1",
        "lat": 35.319987,
        "lng": 136.927787
    },
    {
        "code": "D123210000483",
        "type": 16004,
        "name": "小牧南高等学校",
        "address": "小牧市小木東2-183",
        "lat": 35.276269,
        "lng": 136.90193
    },
    {
        "code": "D123310000392",
        "type": 16004,
        "name": "誉高等学校",
        "address": "小牧市本庄郷浦2613-2",
        "lat": 35.31499,
        "lng": 136.95984
    },
    {
        "code": "E123210000284",
        "type": 16012,
        "name": "小牧特別支援学校",
        "address": "小牧市大字久保一色1129-2",
        "lat": 35.3171,
        "lng": 136.940064
    },
    {
        "code": "F123310106700",
        "type": 16007,
        "name": "名古屋造形大学",
        "address": "小牧市大字大草字年上坂6004",
        "lat": 35.296965,
        "lng": 137.003504
    },
    {
        "code": "F123310106764",
        "type": 16007,
        "name": "愛知文教大学",
        "address": "小牧市大字大草字年上坂5969-3",
        "lat": 35.300393,
        "lng": 137.007822
    },
    {
        "code": "H123310001123",
        "type": 16016,
        "name": "愛知中央美容専門学校",
        "address": "小牧市高根2-1",
        "lat": 35.29467,
        "lng": 136.97884
    },
    {
        "code": "H223310000445",
        "type": 16015,
        "name": "小牧珠算学校",
        "address": "小牧市小牧4-321",
        "lat": 35.286386,
        "lng": 136.923392
    }
]