[
    {
        "code": "A123310002671",
        "type": 16011,
        "name": "江南幼稚園",
        "address": "江南市大間町南大間11-1",
        "lat": 35.332627,
        "lng": 136.861629
    },
    {
        "code": "A123310002680",
        "type": 16011,
        "name": "すみれ幼稚園",
        "address": "江南市飛高町夫見添63",
        "lat": 35.346079,
        "lng": 136.867186
    },
    {
        "code": "A123310002699",
        "type": 16011,
        "name": "愛知江南短期大学付属幼稚園",
        "address": "江南市慈光堂町南192",
        "lat": 35.36135,
        "lng": 136.880465
    },
    {
        "code": "A223310001467",
        "type": 16013,
        "name": "江南こども園グレイス",
        "address": "江南市後飛保町神明野46",
        "lat": 35.347892,
        "lng": 136.849602
    },
    {
        "code": "B123210006800",
        "type": 16001,
        "name": "古知野東小学校",
        "address": "江南市宮後町船渡58",
        "lat": 35.343346,
        "lng": 136.881457
    },
    {
        "code": "B123210006819",
        "type": 16001,
        "name": "古知野西小学校",
        "address": "江南市東野町郷前西88",
        "lat": 35.333374,
        "lng": 136.850349
    },
    {
        "code": "B123210006828",
        "type": 16001,
        "name": "古知野南小学校",
        "address": "江南市古知野町大塔72",
        "lat": 35.334847,
        "lng": 136.867042
    },
    {
        "code": "B123210006837",
        "type": 16001,
        "name": "古知野北小学校",
        "address": "江南市和田町宮145",
        "lat": 35.355622,
        "lng": 136.886123
    },
    {
        "code": "B123210006846",
        "type": 16001,
        "name": "布袋小学校",
        "address": "江南市布袋下山町南167",
        "lat": 35.314987,
        "lng": 136.870931
    },
    {
        "code": "B123210006855",
        "type": 16001,
        "name": "布袋北小学校",
        "address": "江南市今市場町秋津220",
        "lat": 35.330208,
        "lng": 136.883041
    },
    {
        "code": "B123210006864",
        "type": 16001,
        "name": "宮田小学校",
        "address": "江南市後飛保町両家125",
        "lat": 35.352345,
        "lng": 136.848988
    },
    {
        "code": "B123210006873",
        "type": 16001,
        "name": "草井小学校",
        "address": "江南市小杁町長者毛西1",
        "lat": 35.363361,
        "lng": 136.871894
    },
    {
        "code": "B123210006882",
        "type": 16001,
        "name": "藤里小学校",
        "address": "江南市村久野町藤里1",
        "lat": 35.358455,
        "lng": 136.858737
    },
    {
        "code": "B123210006891",
        "type": 16001,
        "name": "門弟山小学校",
        "address": "江南市村久野町門弟山272",
        "lat": 35.34878,
        "lng": 136.863888
    },
    {
        "code": "C123210002875",
        "type": 16002,
        "name": "古知野中学校",
        "address": "江南市高屋町遠場148",
        "lat": 35.341596,
        "lng": 136.877624
    },
    {
        "code": "C123210002884",
        "type": 16002,
        "name": "布袋中学校",
        "address": "江南市北山町西7",
        "lat": 35.32007,
        "lng": 136.875792
    },
    {
        "code": "C123210002893",
        "type": 16002,
        "name": "宮田中学校",
        "address": "江南市後飛保町前川210",
        "lat": 35.350123,
        "lng": 136.851738
    },
    {
        "code": "C123210002900",
        "type": 16002,
        "name": "北部中学校",
        "address": "江南市村久野町平松245",
        "lat": 35.360178,
        "lng": 136.880345
    },
    {
        "code": "C123210002919",
        "type": 16002,
        "name": "西部中学校",
        "address": "江南市上奈良町観音寺60",
        "lat": 35.324997,
        "lng": 136.85554
    },
    {
        "code": "C123310000205",
        "type": 16002,
        "name": "滝中学校",
        "address": "江南市東野町米野1",
        "lat": 35.33563,
        "lng": 136.857395
    },
    {
        "code": "D123210000401",
        "type": 16004,
        "name": "尾北高等学校",
        "address": "江南市北山町西4",
        "lat": 35.32057,
        "lng": 136.874792
    },
    {
        "code": "D123210000410",
        "type": 16004,
        "name": "古知野高等学校",
        "address": "江南市古知野町高瀬1",
        "lat": 35.344679,
        "lng": 136.866514
    },
    {
        "code": "D123210000474",
        "type": 16004,
        "name": "江南高等学校",
        "address": "江南市北野町川石25-2",
        "lat": 35.334736,
        "lng": 136.877652
    },
    {
        "code": "D123310000347",
        "type": 16004,
        "name": "滝高等学校",
        "address": "江南市東野町米野1",
        "lat": 35.334761,
        "lng": 136.856174
    },
    {
        "code": "F223310107110",
        "type": 16006,
        "name": "愛知江南短期大学",
        "address": "江南市高屋町大松原172",
        "lat": 35.356511,
        "lng": 136.880595
    },
    {
        "code": "H123310001114",
        "type": 16016,
        "name": "愛北看護専門学校",
        "address": "江南市高屋町大松原137-7",
        "lat": 35.354759,
        "lng": 136.879285
    },
    {
        "code": "H223310000427",
        "type": 16015,
        "name": "愛知実務珠算学校",
        "address": "江南市島宮町水堀113",
        "lat": 35.334119,
        "lng": 136.849097
    }
]