[
    {
        "code": "A123310002840",
        "type": 16011,
        "name": "中村学園上野台幼稚園",
        "address": "東海市富木島西長口70",
        "lat": 35.01724,
        "lng": 136.931912
    },
    {
        "code": "A123310002859",
        "type": 16011,
        "name": "葵名和幼稚園",
        "address": "東海市名和町一枚畑35",
        "lat": 35.049256,
        "lng": 136.926037
    },
    {
        "code": "A123310002868",
        "type": 16011,
        "name": "雨尾幼稚園",
        "address": "東海市大田町西ﾉ脇29-13",
        "lat": 35.01266,
        "lng": 136.898103
    },
    {
        "code": "A123310002877",
        "type": 16011,
        "name": "東海めぐみ幼稚園",
        "address": "東海市荒尾町神田15-3",
        "lat": 35.036232,
        "lng": 136.903657
    },
    {
        "code": "A223310001519",
        "type": 16013,
        "name": "幼保連携型認定こども園さくらんぼの夢",
        "address": "東海市名和町一枚畑15-39",
        "lat": 35.048876,
        "lng": 136.925948
    },
    {
        "code": "A223310001528",
        "type": 16013,
        "name": "明佳幼稚園",
        "address": "東海市加木屋町北平井54",
        "lat": 34.991473,
        "lng": 136.908588
    },
    {
        "code": "B123210007426",
        "type": 16001,
        "name": "緑陽小学校",
        "address": "東海市名和町石谷80",
        "lat": 35.059963,
        "lng": 136.917269
    },
    {
        "code": "B123210007435",
        "type": 16001,
        "name": "名和小学校",
        "address": "東海市名和町山東10",
        "lat": 35.052186,
        "lng": 136.914075
    },
    {
        "code": "B123210007444",
        "type": 16001,
        "name": "渡内小学校",
        "address": "東海市荒尾町義呂1-1",
        "lat": 35.036855,
        "lng": 136.91863
    },
    {
        "code": "B123210007453",
        "type": 16001,
        "name": "平洲小学校",
        "address": "東海市荒尾町片坂1",
        "lat": 35.030078,
        "lng": 136.909658
    },
    {
        "code": "B123210007462",
        "type": 16001,
        "name": "明倫小学校",
        "address": "東海市荒尾町土取1-1",
        "lat": 35.028828,
        "lng": 136.91713
    },
    {
        "code": "B123210007471",
        "type": 16001,
        "name": "富木島小学校",
        "address": "東海市富木島町手代44",
        "lat": 35.015385,
        "lng": 136.922019
    },
    {
        "code": "B123210007480",
        "type": 16001,
        "name": "船島小学校",
        "address": "東海市冨木島町船島1-1",
        "lat": 35.012941,
        "lng": 136.913381
    },
    {
        "code": "B123210007499",
        "type": 16001,
        "name": "大田小学校",
        "address": "東海市大田町細田23",
        "lat": 35.01844,
        "lng": 136.901299
    },
    {
        "code": "B123210007505",
        "type": 16001,
        "name": "横須賀小学校",
        "address": "東海市高横須賀町大塚36",
        "lat": 35.012274,
        "lng": 136.890717
    },
    {
        "code": "B123210007514",
        "type": 16001,
        "name": "加木屋小学校",
        "address": "東海市加木屋町編笠9",
        "lat": 34.99722,
        "lng": 136.902939
    },
    {
        "code": "B123210007523",
        "type": 16001,
        "name": "三ツ池小学校",
        "address": "東海市加木屋町鎌吉良根9",
        "lat": 34.994415,
        "lng": 136.912382
    },
    {
        "code": "B123210007532",
        "type": 16001,
        "name": "加木屋南小学校",
        "address": "東海市加木屋町泡池2",
        "lat": 34.980972,
        "lng": 136.914299
    },
    {
        "code": "C123210003160",
        "type": 16002,
        "name": "名和中学校",
        "address": "東海市名和町中首羅1-1",
        "lat": 35.056491,
        "lng": 136.924212
    },
    {
        "code": "C123210003179",
        "type": 16002,
        "name": "上野中学校",
        "address": "東海市名和町奥平戸28",
        "lat": 35.043521,
        "lng": 136.910186
    },
    {
        "code": "C123210003188",
        "type": 16002,
        "name": "平洲中学校",
        "address": "東海市富貴ﾉ台5-181",
        "lat": 35.028855,
        "lng": 136.906576
    },
    {
        "code": "C123210003197",
        "type": 16002,
        "name": "富木島中学校",
        "address": "東海市富木島町向ｲ27",
        "lat": 35.018968,
        "lng": 136.916519
    },
    {
        "code": "C123210003204",
        "type": 16002,
        "name": "横須賀中学校",
        "address": "東海市高横須賀町猫狭間2",
        "lat": 35.003638,
        "lng": 136.900663
    },
    {
        "code": "C123210003213",
        "type": 16002,
        "name": "加木屋中学校",
        "address": "東海市加木屋町西御嶽18-1",
        "lat": 34.988582,
        "lng": 136.900356
    },
    {
        "code": "D123210000777",
        "type": 16004,
        "name": "横須賀高等学校",
        "address": "東海市高横須賀町広脇1",
        "lat": 35.007358,
        "lng": 136.898522
    },
    {
        "code": "D123210000802",
        "type": 16004,
        "name": "東海商業高等学校",
        "address": "東海市大田町曽根1",
        "lat": 35.017301,
        "lng": 136.902438
    },
    {
        "code": "D123210000839",
        "type": 16004,
        "name": "東海南高等学校",
        "address": "東海市加木屋町社山55",
        "lat": 34.990888,
        "lng": 136.901884
    },
    {
        "code": "F123310106755",
        "type": 16007,
        "name": "星城大学",
        "address": "東海市富貴ﾉ台2-172",
        "lat": 35.033365,
        "lng": 136.901199
    }
]