[
    {
        "code": "A123310002948",
        "type": 16011,
        "name": "はなの木幼稚園",
        "address": "知立市昭和5-9",
        "lat": 34.990572,
        "lng": 137.062479
    },
    {
        "code": "A123310002957",
        "type": 16011,
        "name": "知立幼稚園",
        "address": "知立市山屋敷町富士塚1-97",
        "lat": 35.009518,
        "lng": 137.055829
    },
    {
        "code": "A123310002966",
        "type": 16011,
        "name": "桜木幼稚園",
        "address": "知立市中町花山15-3",
        "lat": 35.00984,
        "lng": 137.046733
    },
    {
        "code": "A123310002975",
        "type": 16011,
        "name": "長篠幼稚園",
        "address": "知立市長篠町新田東23-2",
        "lat": 34.998791,
        "lng": 137.049966
    },
    {
        "code": "A223310001895",
        "type": 16013,
        "name": "猿渡保育園",
        "address": "知立市弘法町弘法山4-1",
        "lat": 34.995158,
        "lng": 137.043919
    },
    {
        "code": "B123210007738",
        "type": 16001,
        "name": "市立知立小学校",
        "address": "知立市中町花山70",
        "lat": 35.009279,
        "lng": 137.044952
    },
    {
        "code": "B123210007747",
        "type": 16001,
        "name": "市立猿渡小学校",
        "address": "知立市上重原町小針115",
        "lat": 34.995224,
        "lng": 137.042008
    },
    {
        "code": "B123210007756",
        "type": 16001,
        "name": "市立来迎寺小学校",
        "address": "知立市来迎寺町外山5-1",
        "lat": 35.002502,
        "lng": 137.068672
    },
    {
        "code": "B123210007765",
        "type": 16001,
        "name": "市立知立東小学校",
        "address": "知立市昭和9-1",
        "lat": 34.992614,
        "lng": 137.064117
    },
    {
        "code": "B123210007774",
        "type": 16001,
        "name": "市立知立西小学校",
        "address": "知立市鳥居1-13-2",
        "lat": 35.003059,
        "lng": 137.034559
    },
    {
        "code": "B123210007783",
        "type": 16001,
        "name": "市立八ツ田小学校",
        "address": "知立市八ﾂ田町川畔45",
        "lat": 34.994268,
        "lng": 137.058802
    },
    {
        "code": "B123210007792",
        "type": 16001,
        "name": "市立知立南小学校",
        "address": "知立市新林町新林55-1",
        "lat": 34.985947,
        "lng": 137.048063
    },
    {
        "code": "C123210003311",
        "type": 16002,
        "name": "市立知立中学校",
        "address": "知立市広見2-4",
        "lat": 35.001613,
        "lng": 137.049119
    },
    {
        "code": "C123210003320",
        "type": 16002,
        "name": "市立竜北中学校",
        "address": "知立市山屋敷町東山2-2",
        "lat": 35.007307,
        "lng": 137.055951
    },
    {
        "code": "C123210003339",
        "type": 16002,
        "name": "市立知立南中学校",
        "address": "知立市新林町本林20-1",
        "lat": 34.987642,
        "lng": 137.049952
    },
    {
        "code": "D123210001053",
        "type": 16004,
        "name": "知立高等学校",
        "address": "知立市弘法2-5-8",
        "lat": 34.998169,
        "lng": 137.042287
    },
    {
        "code": "D123210001142",
        "type": 16004,
        "name": "知立東高等学校",
        "address": "知立市長篠町大山18-6",
        "lat": 34.996252,
        "lng": 137.051813
    },
    {
        "code": "H123310001141",
        "type": 16016,
        "name": "山本学園情報文化専門学校",
        "address": "知立市池端1-13",
        "lat": 35.005469,
        "lng": 137.039789
    },
    {
        "code": "H123310001150",
        "type": 16016,
        "name": "中部ファッション専門学校",
        "address": "知立市池端1-13",
        "lat": 35.005329,
        "lng": 137.039716
    },
    {
        "code": "H123310001169",
        "type": 16016,
        "name": "中部製菓専門学校",
        "address": "知立市池端1-8",
        "lat": 35.005104,
        "lng": 137.039656
    }
]