[
    {
        "code": "A202310001417",
        "type": 16013,
        "name": "めぐみ子ども園",
        "address": "西津軽郡深浦町関栃沢84-9",
        "lat": 40.745133,
        "lng": 140.097417
    },
    {
        "code": "B102210001668",
        "type": 16001,
        "name": "修道小学校",
        "address": "西津軽郡深浦町関字栃沢85-1",
        "lat": 40.745439,
        "lng": 140.096809
    },
    {
        "code": "B102210001677",
        "type": 16001,
        "name": "深浦小学校",
        "address": "西津軽郡深浦町深浦字寅平62-6",
        "lat": 40.640445,
        "lng": 139.927664
    },
    {
        "code": "B102210001686",
        "type": 16001,
        "name": "いわさき小学校",
        "address": "西津軽郡深浦町正道尻小礒13-2",
        "lat": 40.577125,
        "lng": 139.932022
    },
    {
        "code": "C102210000881",
        "type": 16002,
        "name": "深浦中学校",
        "address": "西津軽郡深浦町深浦字蓙野60",
        "lat": 40.651555,
        "lng": 139.935996
    },
    {
        "code": "C102210000890",
        "type": 16002,
        "name": "大戸瀬中学校",
        "address": "西津軽郡深浦町北金ヶ沢字榊原上野208-23",
        "lat": 40.7524,
        "lng": 140.079199
    },
    {
        "code": "C102210000907",
        "type": 16002,
        "name": "岩崎中学校",
        "address": "西津軽郡深浦町正道尻小礒13-2",
        "lat": 40.577761,
        "lng": 139.932199
    },
    {
        "code": "D102210000488",
        "type": 16004,
        "name": "木造高等学校深浦校舎",
        "address": "西津軽郡深浦町広戸字家野上95-157",
        "lat": 40.660825,
        "lng": 139.941317
    }
]