[
    {
        "code": "A223310000119",
        "type": 16013,
        "name": "弥富はばたき幼稚園",
        "address": "弥富市森津7-26",
        "lat": 35.095842,
        "lng": 136.738791
    },
    {
        "code": "B123210008666",
        "type": 16001,
        "name": "十四山東部小学校",
        "address": "弥富市神戸2-4",
        "lat": 35.101367,
        "lng": 136.770305
    },
    {
        "code": "B123210008675",
        "type": 16001,
        "name": "十四山西部小学校",
        "address": "弥富市六條町大山94",
        "lat": 35.106445,
        "lng": 136.752484
    },
    {
        "code": "B123210008684",
        "type": 16001,
        "name": "弥生小学校",
        "address": "弥富市鯏浦町下与太142",
        "lat": 35.121243,
        "lng": 136.721871
    },
    {
        "code": "B123210008693",
        "type": 16001,
        "name": "桜小学校",
        "address": "弥富市前ヶ須町南本田425",
        "lat": 35.109699,
        "lng": 136.723435
    },
    {
        "code": "B123210008700",
        "type": 16001,
        "name": "栄南小学校",
        "address": "弥富市狐地2-163",
        "lat": 35.068298,
        "lng": 136.768646
    },
    {
        "code": "B123210008719",
        "type": 16001,
        "name": "大藤小学校",
        "address": "弥富市芝井十4-1175",
        "lat": 35.084468,
        "lng": 136.749905
    },
    {
        "code": "B123210008728",
        "type": 16001,
        "name": "白鳥小学校",
        "address": "弥富市前ｹ平2-1896-3",
        "lat": 35.125447,
        "lng": 136.746959
    },
    {
        "code": "B123210008737",
        "type": 16001,
        "name": "日の出小学校",
        "address": "弥富市平島町西新田181",
        "lat": 35.104652,
        "lng": 136.733244
    },
    {
        "code": "C123210003703",
        "type": 16002,
        "name": "十四山中学校",
        "address": "弥富市鳥ヶ地1-176",
        "lat": 35.100976,
        "lng": 136.759271
    },
    {
        "code": "C123210003712",
        "type": 16002,
        "name": "弥富中学校",
        "address": "弥富市鎌島7-52-2",
        "lat": 35.093529,
        "lng": 136.747069
    },
    {
        "code": "C123210003721",
        "type": 16002,
        "name": "弥富北中学校",
        "address": "弥富市鎌倉町62",
        "lat": 35.119464,
        "lng": 136.735932
    },
    {
        "code": "D123210000713",
        "type": 16004,
        "name": "海翔高等学校",
        "address": "弥富市六條町大崎22",
        "lat": 35.102235,
        "lng": 136.755951
    },
    {
        "code": "D123310000383",
        "type": 16004,
        "name": "愛知黎明高等学校",
        "address": "弥富市稲吉2-52",
        "lat": 35.078958,
        "lng": 136.75837
    }
]