[
    {
        "code": "A123310003144",
        "type": 16011,
        "name": "さつき幼稚園",
        "address": "長久手市岩作東島106",
        "lat": 35.182214,
        "lng": 137.051661
    },
    {
        "code": "A123310003153",
        "type": 16011,
        "name": "愛知たいよう幼稚園",
        "address": "長久手市蟹原1601",
        "lat": 35.166988,
        "lng": 137.03338
    },
    {
        "code": "A123310003162",
        "type": 16011,
        "name": "自然幼稚園",
        "address": "長久手市根嶽29-7",
        "lat": 35.164785,
        "lng": 137.026417
    },
    {
        "code": "B123210008942",
        "type": 16001,
        "name": "長久手小学校",
        "address": "長久手市岩作中縄手40-1",
        "lat": 35.181648,
        "lng": 137.048142
    },
    {
        "code": "B123210008951",
        "type": 16001,
        "name": "西小学校",
        "address": "長久手市打越901",
        "lat": 35.175842,
        "lng": 137.032339
    },
    {
        "code": "B123210008960",
        "type": 16001,
        "name": "東小学校",
        "address": "長久手市前熊前山174",
        "lat": 35.177951,
        "lng": 137.066764
    },
    {
        "code": "B123210008979",
        "type": 16001,
        "name": "北小学校",
        "address": "長久手市池田77",
        "lat": 35.187126,
        "lng": 137.034201
    },
    {
        "code": "B123210008988",
        "type": 16001,
        "name": "南小学校",
        "address": "長久手市喜婦嶽702",
        "lat": 35.168771,
        "lng": 137.04171
    },
    {
        "code": "B123210008997",
        "type": 16001,
        "name": "市が洞小学校",
        "address": "長久手市市が洞1-1203",
        "lat": 35.164813,
        "lng": 137.028937
    },
    {
        "code": "C123210003829",
        "type": 16002,
        "name": "長久手中学校",
        "address": "長久手市岩作平子38",
        "lat": 35.179204,
        "lng": 137.051808
    },
    {
        "code": "C123210003838",
        "type": 16002,
        "name": "南中学校",
        "address": "長久手市長配2-1901",
        "lat": 35.165788,
        "lng": 137.040699
    },
    {
        "code": "C123210003847",
        "type": 16002,
        "name": "北中学校",
        "address": "長久手市東原80-1",
        "lat": 35.189974,
        "lng": 137.036991
    },
    {
        "code": "D123210000189",
        "type": 16004,
        "name": "長久手高等学校",
        "address": "長久手市岩作高山38",
        "lat": 35.191813,
        "lng": 137.042504
    },
    {
        "code": "D123310000409",
        "type": 16004,
        "name": "栄徳高等学校",
        "address": "長久手市岩作三ヶ峯1-32",
        "lat": 35.16915,
        "lng": 137.062113
    },
    {
        "code": "F123210106472",
        "type": 16007,
        "name": "芸術大学",
        "address": "長久手市岩作三ｹ峯1-114",
        "lat": 35.167674,
        "lng": 137.0691
    },
    {
        "code": "F123210106481",
        "type": 16007,
        "name": "愛知県立大学",
        "address": "長久手市茨ｹ廻間1522-3",
        "lat": 35.182102,
        "lng": 137.086847
    },
    {
        "code": "F123310106844",
        "type": 16007,
        "name": "愛知医科大学",
        "address": "長久手市岩作雁又1-1",
        "lat": 35.19149,
        "lng": 137.048076
    },
    {
        "code": "F123310106853",
        "type": 16007,
        "name": "愛知淑徳大学",
        "address": "長久手市片平2-9",
        "lat": 35.157323,
        "lng": 137.031772
    },
    {
        "code": "H123310001187",
        "type": 16016,
        "name": "愛知保健看護大学校",
        "address": "長久手市根嶽1216",
        "lat": 35.164408,
        "lng": 137.026962
    }
]