[
    {
        "code": "A123310003368",
        "type": 16011,
        "name": "大治いずみ幼稚園",
        "address": "海部郡大治町大字砂子字高越1716",
        "lat": 35.161841,
        "lng": 136.82247
    },
    {
        "code": "A123310003377",
        "type": 16011,
        "name": "ずいよう幼稚園",
        "address": "海部郡大治町北間島宮西35",
        "lat": 35.176286,
        "lng": 136.827302
    },
    {
        "code": "A223310000128",
        "type": 16013,
        "name": "大治幼稚園",
        "address": "海部郡大治町大字西條字土井ﾉ池35-2",
        "lat": 35.172853,
        "lng": 136.812249
    },
    {
        "code": "B123210009166",
        "type": 16001,
        "name": "大治小学校",
        "address": "海部郡大治町堀之内南二反畑606",
        "lat": 35.175751,
        "lng": 136.821565
    },
    {
        "code": "B123210009175",
        "type": 16001,
        "name": "大治南小学校",
        "address": "海部郡大治町砂子字勇八前320",
        "lat": 35.166226,
        "lng": 136.819275
    },
    {
        "code": "B123210009184",
        "type": 16001,
        "name": "大治西小学校",
        "address": "海部郡大治町西條字松下100",
        "lat": 35.180915,
        "lng": 136.811995
    },
    {
        "code": "C123210003927",
        "type": 16002,
        "name": "大治中学校",
        "address": "海部郡大治町堀之内半之返791",
        "lat": 35.176359,
        "lng": 136.826056
    },
    {
        "code": "H223310000490",
        "type": 16015,
        "name": "大治高等速算学校",
        "address": "海部郡大治町大字堀之内字郷中308",
        "lat": 35.17567,
        "lng": 136.822542
    }
]