[
    {
        "code": "A123310003448",
        "type": 16011,
        "name": "幸田あけぼの第一幼稚園",
        "address": "額田郡幸田町大字大草字長根野58-1",
        "lat": 34.870551,
        "lng": 137.177029
    },
    {
        "code": "A123310003457",
        "type": 16011,
        "name": "幸田あけぼの第二幼稚園",
        "address": "額田郡幸田町大字深溝字小杉山57",
        "lat": 34.847516,
        "lng": 137.170516
    },
    {
        "code": "A123310003466",
        "type": 16011,
        "name": "白菊学園たつみ第二幼稚園",
        "address": "額田郡幸田町大字坂崎字上田11-4",
        "lat": 34.906526,
        "lng": 137.170545
    },
    {
        "code": "A223310001779",
        "type": 16013,
        "name": "幸田みやこ認定こども園",
        "address": "額田郡幸田町大字六栗字呉服1-1",
        "lat": 34.854009,
        "lng": 137.161984
    },
    {
        "code": "B123210009512",
        "type": 16001,
        "name": "坂崎小学校",
        "address": "額田郡幸田町坂崎揚り山31",
        "lat": 34.892712,
        "lng": 137.176914
    },
    {
        "code": "B123210009521",
        "type": 16001,
        "name": "幸田小学校",
        "address": "額田郡幸田町大草三ﾂ石18",
        "lat": 34.878769,
        "lng": 137.172665
    },
    {
        "code": "B123210009530",
        "type": 16001,
        "name": "中央小学校",
        "address": "額田郡幸田町横落北門1",
        "lat": 34.869327,
        "lng": 137.171693
    },
    {
        "code": "B123210009549",
        "type": 16001,
        "name": "荻谷小学校",
        "address": "額田郡幸田町芦谷東山1",
        "lat": 34.860352,
        "lng": 137.173548
    },
    {
        "code": "B123210009558",
        "type": 16001,
        "name": "深溝小学校",
        "address": "額田郡幸田町深溝字南道祖神11",
        "lat": 34.834581,
        "lng": 137.175223
    },
    {
        "code": "B123210009567",
        "type": 16001,
        "name": "豊坂小学校",
        "address": "額田郡幸田町大字野場鶏島55",
        "lat": 34.865684,
        "lng": 137.154011
    },
    {
        "code": "C123210004089",
        "type": 16002,
        "name": "幸田中学校",
        "address": "額田郡幸田町菱池黒方19",
        "lat": 34.866355,
        "lng": 137.167749
    },
    {
        "code": "C123210004098",
        "type": 16002,
        "name": "南部中学校",
        "address": "額田郡幸田町大字深溝字舟山5-5",
        "lat": 34.84108,
        "lng": 137.168223
    },
    {
        "code": "C123210004105",
        "type": 16002,
        "name": "北部中学校",
        "address": "額田郡幸田町大字相見字越丸36",
        "lat": 34.888051,
        "lng": 137.165594
    },
    {
        "code": "D123210000973",
        "type": 16004,
        "name": "幸田高等学校",
        "address": "額田郡幸田町大字高力字神山78",
        "lat": 34.882158,
        "lng": 137.168666
    }
]