[
    {
        "code": "A102310000721",
        "type": 16011,
        "name": "ひなづる幼稚園",
        "address": "北津軽郡鶴田町鶴田字中泉4",
        "lat": 40.758057,
        "lng": 140.437037
    },
    {
        "code": "A202310001471",
        "type": 16013,
        "name": "つるた乳幼児園",
        "address": "北津軽郡鶴田町鶴田字相原68-2",
        "lat": 40.762359,
        "lng": 140.43404
    },
    {
        "code": "A202310001480",
        "type": 16013,
        "name": "ＮＯＧＩこども園",
        "address": "北津軽郡鶴田町野木字東松虫3-2",
        "lat": 40.745205,
        "lng": 140.419047
    },
    {
        "code": "A202310001499",
        "type": 16013,
        "name": "認定こども園はやせ",
        "address": "北津軽郡鶴田町鶴田字早瀬60-4",
        "lat": 40.752785,
        "lng": 140.427985
    },
    {
        "code": "B102210002024",
        "type": 16001,
        "name": "鶴田小学校",
        "address": "北津軽郡鶴田町鶴田字鷹ﾉ尾11-2",
        "lat": 40.762392,
        "lng": 140.430115
    },
    {
        "code": "C102210001103",
        "type": 16002,
        "name": "鶴田中学校",
        "address": "北津軽郡鶴田町鶴田字渡舟80-1",
        "lat": 40.751905,
        "lng": 140.425313
    },
    {
        "code": "D102210000530",
        "type": 16004,
        "name": "鶴田高等学校",
        "address": "北津軽郡鶴田町鶴田字小泉369-1",
        "lat": 40.75406,
        "lng": 140.439559
    }
]