[
    {
        "code": "A102310000758",
        "type": 16011,
        "name": "小松ケ丘幼稚園",
        "address": "上北郡六戸町小松ヶ丘1-77-393",
        "lat": 40.66026,
        "lng": 141.333296
    },
    {
        "code": "A202310001596",
        "type": 16013,
        "name": "さつき保育園",
        "address": "上北郡六戸町犬落瀬字千刈田19-11",
        "lat": 40.604285,
        "lng": 141.319851
    },
    {
        "code": "A202310001603",
        "type": 16013,
        "name": "ひのでこども園",
        "address": "上北郡六戸町折茂字前田140-1",
        "lat": 40.604789,
        "lng": 141.294613
    },
    {
        "code": "A202310002309",
        "type": 16013,
        "name": "こども園えがお",
        "address": "上北郡六戸町小松ヶ丘4-77-1636",
        "lat": 40.661837,
        "lng": 141.337241
    },
    {
        "code": "A202310002336",
        "type": 16013,
        "name": "こども園おひさま",
        "address": "上北郡六戸町犬落瀬字下久保174-1244",
        "lat": 40.632111,
        "lng": 141.320238
    },
    {
        "code": "B102210002159",
        "type": 16001,
        "name": "六戸小学校",
        "address": "上北郡六戸町犬落瀬字明土63",
        "lat": 40.600488,
        "lng": 141.324769
    },
    {
        "code": "B102210002168",
        "type": 16001,
        "name": "開知小学校",
        "address": "上北郡六戸町犬落瀬字権現沢14-159",
        "lat": 40.642427,
        "lng": 141.299769
    },
    {
        "code": "B102210002177",
        "type": 16001,
        "name": "大曲小学校",
        "address": "上北郡六戸町犬落瀬字柳沢91-86",
        "lat": 40.644372,
        "lng": 141.336155
    },
    {
        "code": "C102210001185",
        "type": 16002,
        "name": "六戸中学校",
        "address": "上北郡六戸町犬落瀬字柴山2-90",
        "lat": 40.612709,
        "lng": 141.326713
    },
    {
        "code": "C102210001194",
        "type": 16002,
        "name": "七百中学校",
        "address": "上北郡六戸町犬落瀬字権現沢54-41",
        "lat": 40.646871,
        "lng": 141.301436
    },
    {
        "code": "D102210000497",
        "type": 16004,
        "name": "六戸高等学校",
        "address": "上北郡六戸町犬落瀬字坪毛沢25-163",
        "lat": 40.617708,
        "lng": 141.329212
    }
]