[
    {
        "code": "A124220400018",
        "type": 16011,
        "name": "伊勢寺幼稚園",
        "address": "松阪市伊勢寺町304",
        "lat": 34.572464,
        "lng": 136.482594
    },
    {
        "code": "A124220400027",
        "type": 16011,
        "name": "阿坂幼稚園",
        "address": "松阪市小阿坂町3325",
        "lat": 34.590516,
        "lng": 136.472889
    },
    {
        "code": "A124220400036",
        "type": 16011,
        "name": "西黒部幼稚園",
        "address": "松阪市西黒部町713-1",
        "lat": 34.58573,
        "lng": 136.574119
    },
    {
        "code": "A124220400045",
        "type": 16011,
        "name": "機殿幼稚園",
        "address": "松阪市六根町19-3",
        "lat": 34.569268,
        "lng": 136.600277
    },
    {
        "code": "A124220400054",
        "type": 16011,
        "name": "朝見幼稚園",
        "address": "松阪市大宮田町195",
        "lat": 34.570303,
        "lng": 136.574174
    },
    {
        "code": "A124220400063",
        "type": 16011,
        "name": "てい水幼稚園",
        "address": "松阪市豊原町1120",
        "lat": 34.54777,
        "lng": 136.582785
    },
    {
        "code": "A124220400072",
        "type": 16011,
        "name": "漕代幼稚園",
        "address": "松阪市目田町207",
        "lat": 34.538796,
        "lng": 136.58811
    },
    {
        "code": "A124220400081",
        "type": 16011,
        "name": "松尾幼稚園",
        "address": "松阪市丹生寺633",
        "lat": 34.550211,
        "lng": 136.493555
    },
    {
        "code": "A124220400090",
        "type": 16011,
        "name": "花岡幼稚園",
        "address": "松阪市大黒田町635-1",
        "lat": 34.561716,
        "lng": 136.522032
    },
    {
        "code": "A124220400107",
        "type": 16011,
        "name": "山室幼稚園",
        "address": "松阪市山室町1807",
        "lat": 34.5359,
        "lng": 136.51322
    },
    {
        "code": "A124220400116",
        "type": 16011,
        "name": "射和幼稚園",
        "address": "松阪市庄町737",
        "lat": 34.503354,
        "lng": 136.503275
    },
    {
        "code": "A124220400125",
        "type": 16011,
        "name": "大石幼稚園",
        "address": "松阪市大石町64-1",
        "lat": 34.483493,
        "lng": 136.427232
    },
    {
        "code": "A124220400134",
        "type": 16011,
        "name": "鎌田幼稚園",
        "address": "松阪市鎌田町805",
        "lat": 34.58677,
        "lng": 136.534717
    },
    {
        "code": "A124220400143",
        "type": 16011,
        "name": "港幼稚園",
        "address": "松阪市荒木町16",
        "lat": 34.592656,
        "lng": 136.537527
    },
    {
        "code": "A124220400152",
        "type": 16011,
        "name": "松江幼稚園",
        "address": "松阪市川井町366-1",
        "lat": 34.581296,
        "lng": 136.516052
    },
    {
        "code": "A124220400161",
        "type": 16011,
        "name": "豊地幼稚園",
        "address": "松阪市嬉野下之庄町327-1",
        "lat": 34.621802,
        "lng": 136.460485
    },
    {
        "code": "A124220400170",
        "type": 16011,
        "name": "中原幼稚園",
        "address": "松阪市嬉野田村町399-2",
        "lat": 34.608847,
        "lng": 136.485743
    },
    {
        "code": "A124220400189",
        "type": 16011,
        "name": "中川幼稚園",
        "address": "松阪市嬉野中川町1854",
        "lat": 34.635647,
        "lng": 136.471914
    },
    {
        "code": "A124220400198",
        "type": 16011,
        "name": "豊田幼稚園",
        "address": "松阪市嬉野川北町1346-8",
        "lat": 34.63147,
        "lng": 136.496478
    },
    {
        "code": "A124220400205",
        "type": 16011,
        "name": "三雲南幼稚園",
        "address": "松阪市小津町577-3",
        "lat": 34.614133,
        "lng": 136.511196
    },
    {
        "code": "A124220400214",
        "type": 16011,
        "name": "三雲北幼稚園",
        "address": "松阪市肥留町551",
        "lat": 34.639064,
        "lng": 136.512636
    },
    {
        "code": "A124320405011",
        "type": 16011,
        "name": "梅村幼稚園",
        "address": "松阪市久保町1843-10",
        "lat": 34.546697,
        "lng": 136.536752
    },
    {
        "code": "A124320405020",
        "type": 16011,
        "name": "まつさか幼稚園",
        "address": "松阪市中央町468",
        "lat": 34.582046,
        "lng": 136.54245
    },
    {
        "code": "B124220420012",
        "type": 16001,
        "name": "第一小学校",
        "address": "松阪市殿町1349-1",
        "lat": 34.575621,
        "lng": 136.529042
    },
    {
        "code": "B124220420021",
        "type": 16001,
        "name": "第一小学校市民病院分校",
        "address": "松阪市殿町1550",
        "lat": 34.577528,
        "lng": 136.526267
    },
    {
        "code": "B124220420030",
        "type": 16001,
        "name": "第二小学校",
        "address": "松阪市垣鼻町633",
        "lat": 34.567066,
        "lng": 136.538125
    },
    {
        "code": "B124220420049",
        "type": 16001,
        "name": "第三小学校",
        "address": "松阪市西之庄町150",
        "lat": 34.58137,
        "lng": 136.524654
    },
    {
        "code": "B124220420058",
        "type": 16001,
        "name": "第四小学校",
        "address": "松阪市鎌田町428-4",
        "lat": 34.583232,
        "lng": 136.539041
    },
    {
        "code": "B124220420067",
        "type": 16001,
        "name": "第五小学校",
        "address": "松阪市久保町276",
        "lat": 34.562123,
        "lng": 136.540347
    },
    {
        "code": "B124220420076",
        "type": 16001,
        "name": "幸小学校",
        "address": "松阪市殿町1198-2",
        "lat": 34.57226,
        "lng": 136.524154
    },
    {
        "code": "B124220420085",
        "type": 16001,
        "name": "松江小学校",
        "address": "松阪市川井町380-1",
        "lat": 34.581802,
        "lng": 136.516825
    },
    {
        "code": "B124220420094",
        "type": 16001,
        "name": "伊勢寺小学校",
        "address": "松阪市伊勢寺町26",
        "lat": 34.571897,
        "lng": 136.482797
    },
    {
        "code": "B124220420101",
        "type": 16001,
        "name": "阿坂小学校",
        "address": "松阪市小阿坂町3325",
        "lat": 34.589868,
        "lng": 136.471993
    },
    {
        "code": "B124220420110",
        "type": 16001,
        "name": "松ケ崎小学校",
        "address": "松阪市松崎浦町751-2",
        "lat": 34.611034,
        "lng": 136.522681
    },
    {
        "code": "B124220420129",
        "type": 16001,
        "name": "港小学校",
        "address": "松阪市荒木町16",
        "lat": 34.592481,
        "lng": 136.537569
    },
    {
        "code": "B124220420138",
        "type": 16001,
        "name": "東黒部小学校",
        "address": "松阪市垣内田町6-1",
        "lat": 34.588871,
        "lng": 136.598313
    },
    {
        "code": "B124220420147",
        "type": 16001,
        "name": "西黒部小学校",
        "address": "松阪市西黒部町713-1",
        "lat": 34.586455,
        "lng": 136.574343
    },
    {
        "code": "B124220420156",
        "type": 16001,
        "name": "機殿小学校",
        "address": "松阪市六根町16-1",
        "lat": 34.568741,
        "lng": 136.600216
    },
    {
        "code": "B124220420165",
        "type": 16001,
        "name": "朝見小学校",
        "address": "松阪市大宮田町195",
        "lat": 34.571206,
        "lng": 136.574566
    },
    {
        "code": "B124220420174",
        "type": 16001,
        "name": "てい水小学校",
        "address": "松阪市豊原町1120",
        "lat": 34.547459,
        "lng": 136.58251
    },
    {
        "code": "B124220420183",
        "type": 16001,
        "name": "漕代小学校",
        "address": "松阪市目田町207",
        "lat": 34.538793,
        "lng": 136.588149
    },
    {
        "code": "B124220420192",
        "type": 16001,
        "name": "花岡小学校",
        "address": "松阪市大黒田町757",
        "lat": 34.559983,
        "lng": 136.52221
    },
    {
        "code": "B124220420209",
        "type": 16001,
        "name": "松尾小学校",
        "address": "松阪市丹生寺町566",
        "lat": 34.549678,
        "lng": 136.492463
    },
    {
        "code": "B124220420218",
        "type": 16001,
        "name": "大河内小学校",
        "address": "松阪市矢津町1775",
        "lat": 34.531569,
        "lng": 136.475215
    },
    {
        "code": "B124220420227",
        "type": 16001,
        "name": "南小学校",
        "address": "松阪市小片野町945",
        "lat": 34.481852,
        "lng": 136.440942
    },
    {
        "code": "B124220420236",
        "type": 16001,
        "name": "射和小学校",
        "address": "松阪市射和町557-1",
        "lat": 34.508934,
        "lng": 136.539043
    },
    {
        "code": "B124220420245",
        "type": 16001,
        "name": "山室山小学校",
        "address": "松阪市光町1",
        "lat": 34.548846,
        "lng": 136.517599
    },
    {
        "code": "B124220420254",
        "type": 16001,
        "name": "徳和小学校",
        "address": "松阪市上川町197-4",
        "lat": 34.547519,
        "lng": 136.550271
    },
    {
        "code": "B124220420263",
        "type": 16001,
        "name": "豊地小学校",
        "address": "松阪市嬉野堀之内町229",
        "lat": 34.621121,
        "lng": 136.459312
    },
    {
        "code": "B124220420272",
        "type": 16001,
        "name": "中川小学校",
        "address": "松阪市嬉野中川町1057",
        "lat": 34.635919,
        "lng": 136.472982
    },
    {
        "code": "B124220420281",
        "type": 16001,
        "name": "豊田小学校",
        "address": "松阪市嬉野川北町1338-2",
        "lat": 34.631233,
        "lng": 136.497002
    },
    {
        "code": "B124220420290",
        "type": 16001,
        "name": "中原小学校",
        "address": "松阪市嬉野田村町44",
        "lat": 34.610271,
        "lng": 136.486457
    },
    {
        "code": "B124220420307",
        "type": 16001,
        "name": "天白小学校",
        "address": "松阪市曽原町774",
        "lat": 34.622337,
        "lng": 136.518485
    },
    {
        "code": "B124220420316",
        "type": 16001,
        "name": "鵲小学校",
        "address": "松阪市笠松町279",
        "lat": 34.635009,
        "lng": 136.526833
    },
    {
        "code": "B124220420325",
        "type": 16001,
        "name": "小野江小学校",
        "address": "松阪市小野江町355",
        "lat": 34.643775,
        "lng": 136.510086
    },
    {
        "code": "B124220420334",
        "type": 16001,
        "name": "米ノ庄小学校",
        "address": "松阪市市場庄町20",
        "lat": 34.601201,
        "lng": 136.508915
    },
    {
        "code": "B124220420343",
        "type": 16001,
        "name": "仁柿小学校",
        "address": "松阪市飯南町上仁柿194",
        "lat": 34.480726,
        "lng": 136.370553
    },
    {
        "code": "B124220420352",
        "type": 16001,
        "name": "有間野小学校",
        "address": "松阪市飯南町有間野1064",
        "lat": 34.436242,
        "lng": 136.351805
    },
    {
        "code": "B124220420361",
        "type": 16001,
        "name": "柿野小学校",
        "address": "松阪市飯南町深野3688",
        "lat": 34.474086,
        "lng": 136.405461
    },
    {
        "code": "B124220420370",
        "type": 16001,
        "name": "粥見小学校",
        "address": "松阪市飯南町粥見3969",
        "lat": 34.449957,
        "lng": 136.391547
    },
    {
        "code": "B124220420389",
        "type": 16001,
        "name": "香肌小学校",
        "address": "松阪市飯高町森1810-2",
        "lat": 34.386592,
        "lng": 136.222426
    },
    {
        "code": "B124220420398",
        "type": 16001,
        "name": "宮前小学校",
        "address": "松阪市飯高町宮前1022",
        "lat": 34.434506,
        "lng": 136.334815
    },
    {
        "code": "B124220420405",
        "type": 16001,
        "name": "波瀬小学校",
        "address": "松阪市飯高町波瀬675",
        "lat": 34.422524,
        "lng": 136.151193
    },
    {
        "code": "B124220420414",
        "type": 16001,
        "name": "川俣小学校",
        "address": "松阪市飯高町粟野481",
        "lat": 34.420096,
        "lng": 136.250108
    },
    {
        "code": "C124220430018",
        "type": 16002,
        "name": "殿町中学校",
        "address": "松阪市殿町1508-1",
        "lat": 34.575232,
        "lng": 136.523737
    },
    {
        "code": "C124220430027",
        "type": 16002,
        "name": "殿町中学校市民病院分校",
        "address": "松阪市殿町1550",
        "lat": 34.577509,
        "lng": 136.526265
    },
    {
        "code": "C124220430036",
        "type": 16002,
        "name": "鎌田中学校",
        "address": "松阪市鎌田町656",
        "lat": 34.584037,
        "lng": 136.539902
    },
    {
        "code": "C124220430045",
        "type": 16002,
        "name": "久保中学校",
        "address": "松阪市垣鼻町1790-1",
        "lat": 34.564844,
        "lng": 136.536848
    },
    {
        "code": "C124220430054",
        "type": 16002,
        "name": "東部中学校",
        "address": "松阪市魚見町884",
        "lat": 34.565123,
        "lng": 136.589898
    },
    {
        "code": "C124220430063",
        "type": 16002,
        "name": "中部中学校",
        "address": "松阪市立野町1344",
        "lat": 34.547401,
        "lng": 136.50985
    },
    {
        "code": "C124220430072",
        "type": 16002,
        "name": "大江中学校",
        "address": "松阪市小片野町228",
        "lat": 34.482324,
        "lng": 136.449747
    },
    {
        "code": "C124220430081",
        "type": 16002,
        "name": "西中学校",
        "address": "松阪市曲町4-8",
        "lat": 34.576619,
        "lng": 136.498739
    },
    {
        "code": "C124220430090",
        "type": 16002,
        "name": "嬉野中学校",
        "address": "松阪市嬉野下之庄町1725",
        "lat": 34.619515,
        "lng": 136.472201
    },
    {
        "code": "C124220430107",
        "type": 16002,
        "name": "三雲中学校",
        "address": "松阪市中道町345",
        "lat": 34.619299,
        "lng": 136.514139
    },
    {
        "code": "C124220430116",
        "type": 16002,
        "name": "飯南中学校",
        "address": "松阪市飯南町粥見566",
        "lat": 34.461718,
        "lng": 136.402679
    },
    {
        "code": "C124220430125",
        "type": 16002,
        "name": "飯高中学校",
        "address": "松阪市飯高町宮前927",
        "lat": 34.434506,
        "lng": 136.33335
    },
    {
        "code": "C124320435011",
        "type": 16002,
        "name": "三重中学校",
        "address": "松阪市久保町1232",
        "lat": 34.548637,
        "lng": 136.539879
    },
    {
        "code": "D124210050338",
        "type": 16004,
        "name": "松阪高等学校",
        "address": "松阪市垣鼻町1664",
        "lat": 34.562567,
        "lng": 136.53857
    },
    {
        "code": "D124210050347",
        "type": 16004,
        "name": "松阪工業高等学校",
        "address": "松阪市殿町1417",
        "lat": 34.572371,
        "lng": 136.526709
    },
    {
        "code": "D124210050356",
        "type": 16004,
        "name": "松阪商業高等学校",
        "address": "松阪市豊原町1600",
        "lat": 34.546792,
        "lng": 136.569317
    },
    {
        "code": "D124210050365",
        "type": 16004,
        "name": "飯南高等学校",
        "address": "松阪市飯南町粥見5480-1",
        "lat": 34.447266,
        "lng": 136.372799
    },
    {
        "code": "D124310055091",
        "type": 16004,
        "name": "三重高等学校",
        "address": "松阪市久保町1232",
        "lat": 34.548263,
        "lng": 136.538848
    },
    {
        "code": "E124210070117",
        "type": 16012,
        "name": "松阪あゆみ特別支援学校",
        "address": "松阪市久保町1846-195",
        "lat": 34.543844,
        "lng": 136.538592
    },
    {
        "code": "H124220480016",
        "type": 16016,
        "name": "三重県農業大学校",
        "address": "松阪市嬉野川北町530",
        "lat": 34.632494,
        "lng": 136.488748
    },
    {
        "code": "H124320485019",
        "type": 16016,
        "name": "松阪看護専門学校",
        "address": "松阪市鎌田町145-4",
        "lat": 34.58162,
        "lng": 136.531842
    },
    {
        "code": "H224320495016",
        "type": 16015,
        "name": "パリス文化服装学院",
        "address": "松阪市本町2086",
        "lat": 34.579041,
        "lng": 136.532187
    },
    {
        "code": "H224320495025",
        "type": 16015,
        "name": "向陽台総合学院",
        "address": "松阪市春日町2-82",
        "lat": 34.564755,
        "lng": 136.530934
    }
]