[
    {
        "code": "A124220900013",
        "type": 16011,
        "name": "尾鷲幼稚園",
        "address": "尾鷲市中村町4-11",
        "lat": 34.073045,
        "lng": 136.195065
    },
    {
        "code": "B124220920017",
        "type": 16001,
        "name": "尾鷲小学校",
        "address": "尾鷲市中村町4-58",
        "lat": 34.073001,
        "lng": 136.194612
    },
    {
        "code": "B124220920026",
        "type": 16001,
        "name": "宮之上小学校",
        "address": "尾鷲市宮ﾉ上町6-48",
        "lat": 34.078855,
        "lng": 136.193575
    },
    {
        "code": "B124220920035",
        "type": 16001,
        "name": "矢浜小学校",
        "address": "尾鷲市矢浜2-3-52",
        "lat": 34.064474,
        "lng": 136.197639
    },
    {
        "code": "B124220920044",
        "type": 16001,
        "name": "向井小学校",
        "address": "尾鷲市大字向井134-12",
        "lat": 34.058198,
        "lng": 136.214693
    },
    {
        "code": "B124220920053",
        "type": 16001,
        "name": "須賀利小学校",
        "address": "尾鷲市須賀利町107",
        "lat": 34.101972,
        "lng": 136.264494
    },
    {
        "code": "B124220920062",
        "type": 16001,
        "name": "九鬼小学校",
        "address": "尾鷲市九鬼町374-1",
        "lat": 34.014574,
        "lng": 136.256224
    },
    {
        "code": "B124220920099",
        "type": 16001,
        "name": "賀田小学校",
        "address": "尾鷲市賀田町319",
        "lat": 33.977484,
        "lng": 136.189003
    },
    {
        "code": "B124220920106",
        "type": 16001,
        "name": "梶賀小学校",
        "address": "尾鷲市梶賀町333",
        "lat": 33.964191,
        "lng": 136.218873
    },
    {
        "code": "C124220930013",
        "type": 16002,
        "name": "尾鷲中学校",
        "address": "尾鷲市矢浜2-16-7",
        "lat": 34.06203,
        "lng": 136.198195
    },
    {
        "code": "C124220930022",
        "type": 16002,
        "name": "須賀利中学校",
        "address": "尾鷲市須賀利町387",
        "lat": 34.101988,
        "lng": 136.264467
    },
    {
        "code": "C124220930031",
        "type": 16002,
        "name": "北輪内中学校",
        "address": "尾鷲市三木里町205",
        "lat": 34.003482,
        "lng": 136.212805
    },
    {
        "code": "C124220930040",
        "type": 16002,
        "name": "輪内中学校",
        "address": "尾鷲市賀田町572",
        "lat": 33.974567,
        "lng": 136.184142
    },
    {
        "code": "D124210050551",
        "type": 16004,
        "name": "尾鷲高等学校",
        "address": "尾鷲市古戸野町3-12",
        "lat": 34.068946,
        "lng": 136.187223
    },
    {
        "code": "E124210070180",
        "type": 16012,
        "name": "東紀州くろしお学園おわせ分校",
        "address": "尾鷲市光ｹ丘28-61",
        "lat": 34.064368,
        "lng": 136.17448
    }
]