[
    {
        "code": "B124221420010",
        "type": 16001,
        "name": "阿下喜小学校",
        "address": "いなべ市北勢町阿下喜2562-1",
        "lat": 35.156088,
        "lng": 136.524721
    },
    {
        "code": "B124221420029",
        "type": 16001,
        "name": "治田小学校",
        "address": "いなべ市北勢町東村30-1",
        "lat": 35.132001,
        "lng": 136.511588
    },
    {
        "code": "B124221420038",
        "type": 16001,
        "name": "十社小学校",
        "address": "いなべ市北勢町畑毛634",
        "lat": 35.183081,
        "lng": 136.524867
    },
    {
        "code": "B124221420047",
        "type": 16001,
        "name": "山郷小学校",
        "address": "いなべ市北勢町大辻新田276",
        "lat": 35.149665,
        "lng": 136.541809
    },
    {
        "code": "B124221420056",
        "type": 16001,
        "name": "員弁西小学校",
        "address": "いなべ市員弁町笠田新田607",
        "lat": 35.115145,
        "lng": 136.554638
    },
    {
        "code": "B124221420065",
        "type": 16001,
        "name": "員弁東小学校",
        "address": "いなべ市員弁町大泉1201",
        "lat": 35.099091,
        "lng": 136.568082
    },
    {
        "code": "B124221420074",
        "type": 16001,
        "name": "笠間小学校",
        "address": "いなべ市大安町門前561",
        "lat": 35.082918,
        "lng": 136.552601
    },
    {
        "code": "B124221420083",
        "type": 16001,
        "name": "三里小学校",
        "address": "いなべ市大安町平塚1247",
        "lat": 35.102621,
        "lng": 136.535073
    },
    {
        "code": "B124221420092",
        "type": 16001,
        "name": "石榑小学校",
        "address": "いなべ市大安町石榑南611",
        "lat": 35.105354,
        "lng": 136.503923
    },
    {
        "code": "B124221420109",
        "type": 16001,
        "name": "丹生川小学校",
        "address": "いなべ市大安町丹生川中1189",
        "lat": 35.123018,
        "lng": 136.520816
    },
    {
        "code": "B124221420118",
        "type": 16001,
        "name": "藤原小学校",
        "address": "いなべ市藤原町市場491",
        "lat": 35.172729,
        "lng": 136.490893
    },
    {
        "code": "C124221430016",
        "type": 16002,
        "name": "北勢中学校",
        "address": "いなべ市北勢町阿下喜2480",
        "lat": 35.154742,
        "lng": 136.52599
    },
    {
        "code": "C124221430025",
        "type": 16002,
        "name": "員弁中学校",
        "address": "いなべ市員弁町大泉新田1739",
        "lat": 35.108438,
        "lng": 136.565588
    },
    {
        "code": "C124221430034",
        "type": 16002,
        "name": "大安中学校",
        "address": "いなべ市大安町石榑東2977",
        "lat": 35.099496,
        "lng": 136.537367
    },
    {
        "code": "C124221430043",
        "type": 16002,
        "name": "藤原中学校",
        "address": "いなべ市藤原町市場491",
        "lat": 35.172492,
        "lng": 136.491717
    },
    {
        "code": "D124210050052",
        "type": 16004,
        "name": "いなべ総合学園高等学校",
        "address": "いなべ市員弁町御薗632",
        "lat": 35.105009,
        "lng": 136.552307
    }
]