[
    {
        "code": "A124221600014",
        "type": 16011,
        "name": "桃青の丘幼稚園",
        "address": "伊賀市上野丸之内177-1",
        "lat": 34.770653,
        "lng": 136.132016
    },
    {
        "code": "A124321605017",
        "type": 16011,
        "name": "白鳳幼稚園",
        "address": "伊賀市上野伊予町1067-1",
        "lat": 34.76511,
        "lng": 136.136315
    },
    {
        "code": "A224321615014",
        "type": 16013,
        "name": "青山よさみ幼稚園",
        "address": "伊賀市柏尾1397-14",
        "lat": 34.659916,
        "lng": 136.205036
    },
    {
        "code": "B124221620018",
        "type": 16001,
        "name": "上野東小学校",
        "address": "伊賀市緑ｹ丘中町4352",
        "lat": 34.759896,
        "lng": 136.145381
    },
    {
        "code": "B124221620027",
        "type": 16001,
        "name": "上野西小学校",
        "address": "伊賀市上野丸之内112",
        "lat": 34.768506,
        "lng": 136.128494
    },
    {
        "code": "B124221620036",
        "type": 16001,
        "name": "久米小学校",
        "address": "伊賀市久米町544",
        "lat": 34.755119,
        "lng": 136.130383
    },
    {
        "code": "B124221620045",
        "type": 16001,
        "name": "上野北小学校",
        "address": "伊賀市西高倉3146",
        "lat": 34.787026,
        "lng": 136.106951
    },
    {
        "code": "B124221620054",
        "type": 16001,
        "name": "府中小学校",
        "address": "伊賀市東条88",
        "lat": 34.792379,
        "lng": 136.15431
    },
    {
        "code": "B124221620063",
        "type": 16001,
        "name": "中瀬小学校",
        "address": "伊賀市西明寺105",
        "lat": 34.77359,
        "lng": 136.154825
    },
    {
        "code": "B124221620072",
        "type": 16001,
        "name": "友生小学校",
        "address": "伊賀市ゆめが丘2-11",
        "lat": 34.736898,
        "lng": 136.164269
    },
    {
        "code": "B124221620081",
        "type": 16001,
        "name": "依那古小学校",
        "address": "伊賀市沖265",
        "lat": 34.720484,
        "lng": 136.15241
    },
    {
        "code": "B124221620090",
        "type": 16001,
        "name": "比自岐小学校",
        "address": "伊賀市比自岐512",
        "lat": 34.708655,
        "lng": 136.185408
    },
    {
        "code": "B124221620107",
        "type": 16001,
        "name": "神戸小学校",
        "address": "伊賀市上神戸40",
        "lat": 34.687709,
        "lng": 136.153578
    },
    {
        "code": "B124221620116",
        "type": 16001,
        "name": "成和東小学校",
        "address": "伊賀市猪田1350",
        "lat": 34.72726,
        "lng": 136.130634
    },
    {
        "code": "B124221620125",
        "type": 16001,
        "name": "成和西小学校",
        "address": "伊賀市大内624",
        "lat": 34.737203,
        "lng": 136.102802
    },
    {
        "code": "B124221620134",
        "type": 16001,
        "name": "三訪小学校",
        "address": "伊賀市三田1652",
        "lat": 34.792504,
        "lng": 136.128701
    },
    {
        "code": "B124221620143",
        "type": 16001,
        "name": "柘植小学校",
        "address": "伊賀市柘植町2343",
        "lat": 34.842224,
        "lng": 136.245483
    },
    {
        "code": "B124221620152",
        "type": 16001,
        "name": "西柘植小学校",
        "address": "伊賀市大字新堂160",
        "lat": 34.820087,
        "lng": 136.210848
    },
    {
        "code": "B124221620161",
        "type": 16001,
        "name": "壬生野小学校",
        "address": "伊賀市川東1786-3",
        "lat": 34.797256,
        "lng": 136.21007
    },
    {
        "code": "B124221620170",
        "type": 16001,
        "name": "島ヶ原小学校",
        "address": "伊賀市島ヶ原514-2",
        "lat": 34.778012,
        "lng": 136.056855
    },
    {
        "code": "B124221620198",
        "type": 16001,
        "name": "阿山小学校",
        "address": "伊賀市馬場1045",
        "lat": 34.827161,
        "lng": 136.177287
    },
    {
        "code": "B124221620205",
        "type": 16001,
        "name": "大山田小学校",
        "address": "伊賀市平田25",
        "lat": 34.768036,
        "lng": 136.211265
    },
    {
        "code": "B124221620214",
        "type": 16001,
        "name": "青山小学校",
        "address": "伊賀市阿保1789",
        "lat": 34.665018,
        "lng": 136.184493
    },
    {
        "code": "C124221630014",
        "type": 16002,
        "name": "崇広中学校",
        "address": "伊賀市上野丸之内78",
        "lat": 34.768534,
        "lng": 136.124721
    },
    {
        "code": "C124221630023",
        "type": 16002,
        "name": "緑ケ丘中学校",
        "address": "伊賀市緑ｹ丘本町4153",
        "lat": 34.7589,
        "lng": 136.143079
    },
    {
        "code": "C124221630032",
        "type": 16002,
        "name": "城東中学校",
        "address": "伊賀市印代450",
        "lat": 34.786452,
        "lng": 136.145431
    },
    {
        "code": "C124221630041",
        "type": 16002,
        "name": "上野南中学校",
        "address": "伊賀市森寺1488",
        "lat": 34.707979,
        "lng": 136.141721
    },
    {
        "code": "C124221630050",
        "type": 16002,
        "name": "柘植中学校",
        "address": "伊賀市柘植町1881",
        "lat": 34.83978,
        "lng": 136.238262
    },
    {
        "code": "C124221630069",
        "type": 16002,
        "name": "霊峰中学校",
        "address": "伊賀市新堂160",
        "lat": 34.820504,
        "lng": 136.211792
    },
    {
        "code": "C124221630078",
        "type": 16002,
        "name": "島ヶ原中学校",
        "address": "伊賀市島ヶ原514-2",
        "lat": 34.777993,
        "lng": 136.056855
    },
    {
        "code": "C124221630087",
        "type": 16002,
        "name": "阿山中学校",
        "address": "伊賀市千貝10",
        "lat": 34.836445,
        "lng": 136.169545
    },
    {
        "code": "C124221630096",
        "type": 16002,
        "name": "大山田中学校",
        "address": "伊賀市平田655",
        "lat": 34.763981,
        "lng": 136.22107
    },
    {
        "code": "C124221630103",
        "type": 16002,
        "name": "青山中学校",
        "address": "伊賀市阿保1870",
        "lat": 34.663518,
        "lng": 136.185243
    },
    {
        "code": "C124321635017",
        "type": 16002,
        "name": "桜丘中学校",
        "address": "伊賀市下神戸2756",
        "lat": 34.683432,
        "lng": 136.180576
    },
    {
        "code": "D124210050506",
        "type": 16004,
        "name": "上野高等学校",
        "address": "伊賀市上野丸之内107",
        "lat": 34.7681,
        "lng": 136.126674
    },
    {
        "code": "D124210050515",
        "type": 16004,
        "name": "伊賀白鳳高等学校",
        "address": "伊賀市緑ヶ丘西町2270-1",
        "lat": 34.756397,
        "lng": 136.141326
    },
    {
        "code": "D124210050524",
        "type": 16004,
        "name": "あけぼの学園高等学校",
        "address": "伊賀市川東412",
        "lat": 34.811032,
        "lng": 136.20532
    },
    {
        "code": "D124310055126",
        "type": 16004,
        "name": "愛農学園農業高等学校",
        "address": "伊賀市別府690",
        "lat": 34.667268,
        "lng": 136.187215
    },
    {
        "code": "D124310055135",
        "type": 16004,
        "name": "桜丘高等学校",
        "address": "伊賀市下神戸2756",
        "lat": 34.683488,
        "lng": 136.180326
    },
    {
        "code": "D124310059060",
        "type": 16004,
        "name": "神村学園高等部伊賀分校",
        "address": "伊賀市北山1373",
        "lat": 34.688943,
        "lng": 136.215634
    },
    {
        "code": "H124321685015",
        "type": 16016,
        "name": "岡波看護専門学校",
        "address": "伊賀市上野桑町1734",
        "lat": 34.756604,
        "lng": 136.137295
    },
    {
        "code": "H224321695012",
        "type": 16015,
        "name": "昇英塾桐ヶ丘校",
        "address": "伊賀市桐ヶ丘5-37",
        "lat": 34.662777,
        "lng": 136.193342
    },
    {
        "code": "H224321695021",
        "type": 16015,
        "name": "昇英塾伊賀上野城下町校",
        "address": "伊賀市上野丸之内19-6",
        "lat": 34.766993,
        "lng": 136.127402
    }
]