[
    {
        "code": "A124232400013",
        "type": 16011,
        "name": "三和幼稚園",
        "address": "員弁郡東員町長深690",
        "lat": 35.064116,
        "lng": 136.578087
    },
    {
        "code": "A124232400022",
        "type": 16011,
        "name": "稲部幼稚園",
        "address": "員弁郡東員町大字大木1075",
        "lat": 35.082564,
        "lng": 136.57532
    },
    {
        "code": "A124232400031",
        "type": 16011,
        "name": "神田幼稚園",
        "address": "員弁郡東員町六杷野新田111",
        "lat": 35.079215,
        "lng": 136.592169
    },
    {
        "code": "A124232400040",
        "type": 16011,
        "name": "笹尾西幼稚園",
        "address": "員弁郡東員町笹尾西2-31-1",
        "lat": 35.100555,
        "lng": 136.59508
    },
    {
        "code": "A124232400059",
        "type": 16011,
        "name": "笹尾東幼稚園",
        "address": "員弁郡東員町笹尾東4-28",
        "lat": 35.101633,
        "lng": 136.602612
    },
    {
        "code": "A124232400068",
        "type": 16011,
        "name": "城山幼稚園",
        "address": "員弁郡東員町城山1-44",
        "lat": 35.091811,
        "lng": 136.604981
    },
    {
        "code": "B124232420017",
        "type": 16001,
        "name": "三和小学校",
        "address": "員弁郡東員町長深700",
        "lat": 35.064566,
        "lng": 136.578553
    },
    {
        "code": "B124232420026",
        "type": 16001,
        "name": "稲部小学校",
        "address": "員弁郡東員町大木944",
        "lat": 35.083231,
        "lng": 136.57447
    },
    {
        "code": "B124232420035",
        "type": 16001,
        "name": "神田小学校",
        "address": "員弁郡東員町六把野新田100",
        "lat": 35.07837,
        "lng": 136.592857
    },
    {
        "code": "B124232420044",
        "type": 16001,
        "name": "笹尾西小学校",
        "address": "員弁郡東員町笹尾西2-1-1",
        "lat": 35.099869,
        "lng": 136.59258
    },
    {
        "code": "B124232420053",
        "type": 16001,
        "name": "笹尾東小学校",
        "address": "員弁郡東員町笹尾東4-28",
        "lat": 35.102035,
        "lng": 136.603051
    },
    {
        "code": "B124232420062",
        "type": 16001,
        "name": "城山小学校",
        "address": "員弁郡東員町城山1-48",
        "lat": 35.090814,
        "lng": 136.605495
    },
    {
        "code": "C124232430013",
        "type": 16002,
        "name": "東員第一中学校",
        "address": "員弁郡東員町六把野新田557",
        "lat": 35.079454,
        "lng": 136.60044
    },
    {
        "code": "C124232430022",
        "type": 16002,
        "name": "東員第二中学校",
        "address": "員弁郡東員町城山2-1",
        "lat": 35.100452,
        "lng": 136.603579
    }
]