[
    {
        "code": "A124234100012",
        "type": 16011,
        "name": "菰野幼稚園",
        "address": "三重郡菰野町菰野1485",
        "lat": 35.01269,
        "lng": 136.510168
    },
    {
        "code": "A124234100021",
        "type": 16011,
        "name": "千種幼稚園",
        "address": "三重郡菰野町大字音羽2240",
        "lat": 35.028263,
        "lng": 136.503718
    },
    {
        "code": "A124234100030",
        "type": 16011,
        "name": "朝上幼稚園",
        "address": "三重郡菰野町田光3306-2",
        "lat": 35.069872,
        "lng": 136.511815
    },
    {
        "code": "A124234100049",
        "type": 16011,
        "name": "鵜川原幼稚園",
        "address": "三重郡菰野町大字大強原829-1",
        "lat": 35.026495,
        "lng": 136.53701
    },
    {
        "code": "A124234100058",
        "type": 16011,
        "name": "竹永幼稚園",
        "address": "三重郡菰野町大字永井59",
        "lat": 35.051783,
        "lng": 136.524691
    },
    {
        "code": "B124234120016",
        "type": 16001,
        "name": "菰野小学校",
        "address": "三重郡菰野町菰野1490",
        "lat": 35.012321,
        "lng": 136.509338
    },
    {
        "code": "B124234120025",
        "type": 16001,
        "name": "千種小学校",
        "address": "三重郡菰野町千草3861",
        "lat": 35.029791,
        "lng": 136.502588
    },
    {
        "code": "B124234120034",
        "type": 16001,
        "name": "朝上小学校",
        "address": "三重郡菰野町田光66",
        "lat": 35.069314,
        "lng": 136.508004
    },
    {
        "code": "B124234120043",
        "type": 16001,
        "name": "鵜川原小学校",
        "address": "三重郡菰野町大強原913",
        "lat": 35.027292,
        "lng": 136.538002
    },
    {
        "code": "B124234120052",
        "type": 16001,
        "name": "竹永小学校",
        "address": "三重郡菰野町竹成2593-5",
        "lat": 35.050933,
        "lng": 136.521256
    },
    {
        "code": "C124234130012",
        "type": 16002,
        "name": "菰野中学校",
        "address": "三重郡菰野町菰野1192",
        "lat": 35.015626,
        "lng": 136.516726
    },
    {
        "code": "C124234130021",
        "type": 16002,
        "name": "八風中学校",
        "address": "三重郡菰野町田光3808-18",
        "lat": 35.068981,
        "lng": 136.51092
    },
    {
        "code": "D124210050178",
        "type": 16004,
        "name": "菰野高等学校",
        "address": "三重郡菰野町大字福村870",
        "lat": 35.015043,
        "lng": 136.519253
    },
    {
        "code": "H124334185013",
        "type": 16016,
        "name": "聖十字看護専門学校",
        "address": "三重郡菰野町大字宿野字八岡1346",
        "lat": 35.004824,
        "lng": 136.521339
    }
]