[
    {
        "code": "A102310000847",
        "type": 16011,
        "name": "あかね幼稚園",
        "address": "三戸郡南部町下名久井字宗前17-7",
        "lat": 40.434826,
        "lng": 141.339542
    },
    {
        "code": "A202310002345",
        "type": 16013,
        "name": "チェリーこども園",
        "address": "三戸郡南部町下名久井字八森16-1",
        "lat": 40.437187,
        "lng": 141.343378
    },
    {
        "code": "A202310002354",
        "type": 16013,
        "name": "なんぶこども園",
        "address": "三戸郡南部町沖田面字下村30-3",
        "lat": 40.415798,
        "lng": 141.291865
    },
    {
        "code": "A202310002363",
        "type": 16013,
        "name": "福地こども園",
        "address": "三戸郡南部町福田字源次郎平19-1",
        "lat": 40.461548,
        "lng": 141.382982
    },
    {
        "code": "B102210002514",
        "type": 16001,
        "name": "剣吉小学校",
        "address": "三戸郡南部町剣吉字大館10-1",
        "lat": 40.445786,
        "lng": 141.340677
    },
    {
        "code": "B102210002523",
        "type": 16001,
        "name": "名久井小学校",
        "address": "三戸郡南部町平字広場8",
        "lat": 40.423011,
        "lng": 141.331996
    },
    {
        "code": "B102210002532",
        "type": 16001,
        "name": "名川南小学校",
        "address": "三戸郡南部町鳥谷字太田3",
        "lat": 40.377523,
        "lng": 141.363089
    },
    {
        "code": "B102210002541",
        "type": 16001,
        "name": "南部小学校",
        "address": "三戸郡南部町沖田面字久保10-1",
        "lat": 40.414755,
        "lng": 141.285996
    },
    {
        "code": "B102210002550",
        "type": 16001,
        "name": "向小学校",
        "address": "三戸郡南部町大向字飛鳥20-2",
        "lat": 40.402178,
        "lng": 141.272281
    },
    {
        "code": "B102210002621",
        "type": 16001,
        "name": "福田小学校",
        "address": "三戸郡南部町福田字源次郎平7-1",
        "lat": 40.460785,
        "lng": 141.38199
    },
    {
        "code": "B102210002630",
        "type": 16001,
        "name": "杉沢小学校",
        "address": "三戸郡南部町杉沢字杉沢6-4",
        "lat": 40.452175,
        "lng": 141.415877
    },
    {
        "code": "B102210002649",
        "type": 16001,
        "name": "福地小学校",
        "address": "三戸郡南部町苫米地寺ﾉ後15-1",
        "lat": 40.471368,
        "lng": 141.377163
    },
    {
        "code": "C102210001434",
        "type": 16002,
        "name": "名川中学校",
        "address": "三戸郡南部町下名久井字白山81",
        "lat": 40.425215,
        "lng": 141.332182
    },
    {
        "code": "C102210001443",
        "type": 16002,
        "name": "南部中学校",
        "address": "三戸郡南部町沖田面字沖中101",
        "lat": 40.41571,
        "lng": 141.281749
    },
    {
        "code": "C102210001470",
        "type": 16002,
        "name": "福地中学校",
        "address": "三戸郡南部町福田字板橋1-2",
        "lat": 40.453285,
        "lng": 141.38199
    },
    {
        "code": "C102210001489",
        "type": 16002,
        "name": "杉沢中学校",
        "address": "三戸郡南部町杉沢字木戸口27-1",
        "lat": 40.454397,
        "lng": 141.416432
    },
    {
        "code": "D102210000291",
        "type": 16004,
        "name": "名久井農業高等学校",
        "address": "三戸郡南部町下名久井字下諏訪平1",
        "lat": 40.435231,
        "lng": 141.345883
    }
]