[
    {
        "code": "A125220900012",
        "type": 16011,
        "name": "伴谷幼稚園",
        "address": "甲賀市水口町伴中山3743",
        "lat": 34.996549,
        "lng": 136.15815
    },
    {
        "code": "A125220900021",
        "type": 16011,
        "name": "土山幼稚園",
        "address": "甲賀市土山町南土山甲417",
        "lat": 34.933484,
        "lng": 136.281005
    },
    {
        "code": "A125220900030",
        "type": 16011,
        "name": "大原幼稚園",
        "address": "甲賀市甲賀町大久保952",
        "lat": 34.911154,
        "lng": 136.232707
    },
    {
        "code": "A125220900049",
        "type": 16011,
        "name": "油日幼稚園",
        "address": "甲賀市甲賀町上野1320",
        "lat": 34.889585,
        "lng": 136.227566
    },
    {
        "code": "A125220900058",
        "type": 16011,
        "name": "信楽幼稚園",
        "address": "甲賀市信楽町江田969",
        "lat": 34.871149,
        "lng": 136.053352
    },
    {
        "code": "A125320900010",
        "type": 16011,
        "name": "水口幼稚園",
        "address": "甲賀市水口町城東3-21",
        "lat": 34.972055,
        "lng": 136.168722
    },
    {
        "code": "A125320900029",
        "type": 16011,
        "name": "甲南幼稚園",
        "address": "甲賀市甲南町野田604",
        "lat": 34.923788,
        "lng": 136.166118
    },
    {
        "code": "A225320900019",
        "type": 16013,
        "name": "貴生川認定こども園",
        "address": "甲賀市水口町三大寺2100",
        "lat": 34.949957,
        "lng": 136.145794
    },
    {
        "code": "B125220900010",
        "type": 16001,
        "name": "伴谷小学校",
        "address": "甲賀市水口町伴中山2252",
        "lat": 35.000932,
        "lng": 136.157037
    },
    {
        "code": "B125220900029",
        "type": 16001,
        "name": "柏木小学校",
        "address": "甲賀市水口町北脇1132",
        "lat": 34.977063,
        "lng": 136.149275
    },
    {
        "code": "B125220900038",
        "type": 16001,
        "name": "水口小学校",
        "address": "甲賀市水口町本町1-2-1",
        "lat": 34.969902,
        "lng": 136.177056
    },
    {
        "code": "B125220900047",
        "type": 16001,
        "name": "貴生川小学校",
        "address": "甲賀市水口町三大寺437",
        "lat": 34.94868,
        "lng": 136.146737
    },
    {
        "code": "B125220900056",
        "type": 16001,
        "name": "綾野小学校",
        "address": "甲賀市水口町綾野3-6",
        "lat": 34.974937,
        "lng": 136.169439
    },
    {
        "code": "B125220900065",
        "type": 16001,
        "name": "伴谷東小学校",
        "address": "甲賀市水口町山774",
        "lat": 34.9949,
        "lng": 136.178569
    },
    {
        "code": "B125220900074",
        "type": 16001,
        "name": "大野小学校",
        "address": "甲賀市土山町大野949",
        "lat": 34.944212,
        "lng": 136.238526
    },
    {
        "code": "B125220900083",
        "type": 16001,
        "name": "土山小学校",
        "address": "甲賀市土山町北土山1462",
        "lat": 34.93549,
        "lng": 136.28525
    },
    {
        "code": "B125220900092",
        "type": 16001,
        "name": "大原小学校",
        "address": "甲賀市甲賀町大久保1000",
        "lat": 34.908842,
        "lng": 136.23174
    },
    {
        "code": "B125220900109",
        "type": 16001,
        "name": "油日小学校",
        "address": "甲賀市甲賀町上野1322",
        "lat": 34.890312,
        "lng": 136.227347
    },
    {
        "code": "B125220900118",
        "type": 16001,
        "name": "佐山小学校",
        "address": "甲賀市甲賀町小佐治2922",
        "lat": 34.936443,
        "lng": 136.210354
    },
    {
        "code": "B125220900127",
        "type": 16001,
        "name": "甲南第一小学校",
        "address": "甲賀市甲南町深川1728-1",
        "lat": 34.92949,
        "lng": 136.169681
    },
    {
        "code": "B125220900136",
        "type": 16001,
        "name": "甲南第二小学校",
        "address": "甲賀市甲南町杉谷2046",
        "lat": 34.921658,
        "lng": 136.155266
    },
    {
        "code": "B125220900145",
        "type": 16001,
        "name": "甲南第三小学校",
        "address": "甲賀市甲南町野川840",
        "lat": 34.887079,
        "lng": 136.188181
    },
    {
        "code": "B125220900154",
        "type": 16001,
        "name": "甲南中部小学校",
        "address": "甲賀市甲南町竜法師1137",
        "lat": 34.911492,
        "lng": 136.172237
    },
    {
        "code": "B125220900163",
        "type": 16001,
        "name": "希望ヶ丘小学校",
        "address": "甲賀市甲南町希望ヶ丘3-34",
        "lat": 34.949071,
        "lng": 136.17232
    },
    {
        "code": "B125220900172",
        "type": 16001,
        "name": "雲井小学校",
        "address": "甲賀市信楽町牧868",
        "lat": 34.911704,
        "lng": 136.082583
    },
    {
        "code": "B125220900181",
        "type": 16001,
        "name": "小原小学校",
        "address": "甲賀市信楽町柞原899",
        "lat": 34.854243,
        "lng": 136.02756
    },
    {
        "code": "B125220900190",
        "type": 16001,
        "name": "朝宮小学校",
        "address": "甲賀市信楽町下朝宮268",
        "lat": 34.8532,
        "lng": 135.973951
    },
    {
        "code": "B125220900207",
        "type": 16001,
        "name": "多羅尾小学校",
        "address": "甲賀市信楽町多羅尾2012",
        "lat": 34.811105,
        "lng": 136.035032
    },
    {
        "code": "B125220900216",
        "type": 16001,
        "name": "信楽小学校",
        "address": "甲賀市信楽町江田969",
        "lat": 34.871864,
        "lng": 136.052459
    },
    {
        "code": "C125220900018",
        "type": 16002,
        "name": "水口中学校",
        "address": "甲賀市水口町水口5900",
        "lat": 34.966561,
        "lng": 136.159235
    },
    {
        "code": "C125220900027",
        "type": 16002,
        "name": "城山中学校",
        "address": "甲賀市水口町水口610-17",
        "lat": 34.971899,
        "lng": 136.185063
    },
    {
        "code": "C125220900036",
        "type": 16002,
        "name": "土山中学校",
        "address": "甲賀市土山町北土山414",
        "lat": 34.930456,
        "lng": 136.296137
    },
    {
        "code": "C125220900045",
        "type": 16002,
        "name": "甲賀中学校",
        "address": "甲賀市甲賀町相模128",
        "lat": 34.903331,
        "lng": 136.218167
    },
    {
        "code": "C125220900054",
        "type": 16002,
        "name": "甲南中学校",
        "address": "甲賀市甲南町寺庄841",
        "lat": 34.921297,
        "lng": 136.180035
    },
    {
        "code": "C125220900063",
        "type": 16002,
        "name": "信楽中学校",
        "address": "甲賀市信楽町江田950",
        "lat": 34.869737,
        "lng": 136.053729
    },
    {
        "code": "C125299900030",
        "type": 16002,
        "name": "水口東中学校",
        "address": "甲賀市水口町古城が丘7-1",
        "lat": 34.973505,
        "lng": 136.184916
    },
    {
        "code": "D125220900016",
        "type": 16004,
        "name": "水口高等学校",
        "address": "甲賀市水口町梅が丘3-1",
        "lat": 34.970727,
        "lng": 136.167047
    },
    {
        "code": "D125220900025",
        "type": 16004,
        "name": "水口東高等学校",
        "address": "甲賀市水口町古城が丘7-1",
        "lat": 34.974069,
        "lng": 136.184867
    },
    {
        "code": "D125220900034",
        "type": 16004,
        "name": "甲南高等学校",
        "address": "甲賀市甲南町寺庄427",
        "lat": 34.919474,
        "lng": 136.184088
    },
    {
        "code": "D125220900043",
        "type": 16004,
        "name": "信楽高等学校",
        "address": "甲賀市信楽町長野317-1",
        "lat": 34.872601,
        "lng": 136.054705
    },
    {
        "code": "D225320900013",
        "type": 16003,
        "name": "ＭＩＨＯ美学院中等教育学校",
        "address": "甲賀市信楽町畑369",
        "lat": 34.88952,
        "lng": 136.000687
    },
    {
        "code": "E125220900013",
        "type": 16012,
        "name": "甲南高等養護学校",
        "address": "甲賀市甲南町寺庄427",
        "lat": 34.919073,
        "lng": 136.183559
    },
    {
        "code": "H125320900015",
        "type": 16016,
        "name": "向陽台水口専門学校",
        "address": "甲賀市水口町新町1-5-31",
        "lat": 34.973852,
        "lng": 136.176674
    },
    {
        "code": "H125320900024",
        "type": 16016,
        "name": "ルネス紅葉スポーツ柔整専門学校",
        "address": "甲賀市甲賀町鳥居野1085",
        "lat": 34.904803,
        "lng": 136.225991
    },
    {
        "code": "H125320900033",
        "type": 16016,
        "name": "甲賀看護専門学校",
        "address": "甲賀市水口町北内貴280-2",
        "lat": 34.956123,
        "lng": 136.162306
    }
]