[
    {
        "code": "A125110000014",
        "type": 16011,
        "name": "滋賀大学教育学部附属幼稚園",
        "address": "大津市昭和町10-3",
        "lat": 34.999117,
        "lng": 135.886979
    },
    {
        "code": "A125220100029",
        "type": 16011,
        "name": "真野幼稚園",
        "address": "大津市真野4-6-27",
        "lat": 35.133299,
        "lng": 135.912229
    },
    {
        "code": "A125220100038",
        "type": 16011,
        "name": "堅田幼稚園",
        "address": "大津市本堅田3-7-17",
        "lat": 35.113756,
        "lng": 135.916062
    },
    {
        "code": "A125220100047",
        "type": 16011,
        "name": "下阪本幼稚園",
        "address": "大津市下阪本4-15-12",
        "lat": 35.064945,
        "lng": 135.87642
    },
    {
        "code": "A125220100056",
        "type": 16011,
        "name": "志賀幼稚園",
        "address": "大津市勧学1-8-1",
        "lat": 35.034827,
        "lng": 135.857761
    },
    {
        "code": "A125220100065",
        "type": 16011,
        "name": "長等幼稚園",
        "address": "大津市三井寺町10-30",
        "lat": 35.011302,
        "lng": 135.856938
    },
    {
        "code": "A125220100074",
        "type": 16011,
        "name": "逢坂幼稚園",
        "address": "大津市音羽台6-2",
        "lat": 35.001992,
        "lng": 135.863809
    },
    {
        "code": "A125220100083",
        "type": 16011,
        "name": "大津幼稚園",
        "address": "大津市島の関1-50",
        "lat": 35.007549,
        "lng": 135.869325
    },
    {
        "code": "A125220100092",
        "type": 16011,
        "name": "平野幼稚園",
        "address": "大津市馬場1-5-28",
        "lat": 35.002731,
        "lng": 135.879983
    },
    {
        "code": "A125220100109",
        "type": 16011,
        "name": "膳所幼稚園",
        "address": "大津市中ﾉ庄2-6-5",
        "lat": 34.990637,
        "lng": 135.888327
    },
    {
        "code": "A125220100118",
        "type": 16011,
        "name": "晴嵐幼稚園",
        "address": "大津市鳥居川町15-22",
        "lat": 34.972873,
        "lng": 135.902844
    },
    {
        "code": "A125220100127",
        "type": 16011,
        "name": "石山幼稚園",
        "address": "大津市石山寺3-17-8",
        "lat": 34.954145,
        "lng": 135.907477
    },
    {
        "code": "A125220100136",
        "type": 16011,
        "name": "大石幼稚園",
        "address": "大津市大石中1-5-9",
        "lat": 34.910379,
        "lng": 135.912047
    },
    {
        "code": "A125220100145",
        "type": 16011,
        "name": "田上幼稚園",
        "address": "大津市関津6-19-8",
        "lat": 34.934211,
        "lng": 135.929692
    },
    {
        "code": "A125220100154",
        "type": 16011,
        "name": "上田上幼稚園",
        "address": "大津市平野1-18-20",
        "lat": 34.95969,
        "lng": 135.96077
    },
    {
        "code": "A125220100163",
        "type": 16011,
        "name": "瀬田南幼稚園",
        "address": "大津市三大寺1-3",
        "lat": 34.974293,
        "lng": 135.915418
    },
    {
        "code": "A125220100172",
        "type": 16011,
        "name": "瀬田幼稚園",
        "address": "大津市大江4-3-6",
        "lat": 34.982561,
        "lng": 135.92109
    },
    {
        "code": "A125220100181",
        "type": 16011,
        "name": "富士見幼稚園",
        "address": "大津市富士見台45-5",
        "lat": 34.979594,
        "lng": 135.883971
    },
    {
        "code": "A125220100190",
        "type": 16011,
        "name": "坂本幼稚園",
        "address": "大津市坂本6-1-12",
        "lat": 35.071915,
        "lng": 135.870807
    },
    {
        "code": "A125220100207",
        "type": 16011,
        "name": "唐崎幼稚園",
        "address": "大津市際川3-38-2",
        "lat": 35.043809,
        "lng": 135.865725
    },
    {
        "code": "A125220100216",
        "type": 16011,
        "name": "南郷幼稚園",
        "address": "大津市南郷3-15-1",
        "lat": 34.938643,
        "lng": 135.902275
    },
    {
        "code": "A125220100225",
        "type": 16011,
        "name": "瀬田東幼稚園",
        "address": "大津市一里山2-20-1",
        "lat": 34.984192,
        "lng": 135.929833
    },
    {
        "code": "A125220100234",
        "type": 16011,
        "name": "比叡平幼稚園",
        "address": "大津市比叡平1-45-3",
        "lat": 35.032621,
        "lng": 135.83424
    },
    {
        "code": "A125220100243",
        "type": 16011,
        "name": "瀬田北幼稚園",
        "address": "大津市大将軍1-14-1",
        "lat": 34.991138,
        "lng": 135.924134
    },
    {
        "code": "A125220100261",
        "type": 16011,
        "name": "仰木の里幼稚園",
        "address": "大津市仰木の里3-10-1",
        "lat": 35.105674,
        "lng": 135.887913
    },
    {
        "code": "A125220100270",
        "type": 16011,
        "name": "青山幼稚園",
        "address": "大津市青山3-16-2",
        "lat": 34.979594,
        "lng": 135.974285
    },
    {
        "code": "A125220100289",
        "type": 16011,
        "name": "仰木の里東幼稚園",
        "address": "大津市仰木の里東6-4-1",
        "lat": 35.109443,
        "lng": 135.899408
    },
    {
        "code": "A125220100298",
        "type": 16011,
        "name": "志賀北幼稚園",
        "address": "大津市荒川880",
        "lat": 35.206075,
        "lng": 135.928363
    },
    {
        "code": "A125220100305",
        "type": 16011,
        "name": "志賀南幼稚園",
        "address": "大津市和邇今宿482-1",
        "lat": 35.15388,
        "lng": 135.922695
    },
    {
        "code": "A125220100314",
        "type": 16011,
        "name": "伊香立・真野北幼稚園",
        "address": "大津市緑町16-2",
        "lat": 35.145575,
        "lng": 135.910179
    },
    {
        "code": "A125320100018",
        "type": 16011,
        "name": "聖愛幼稚園",
        "address": "大津市中庄1-2-1",
        "lat": 34.991,
        "lng": 135.891619
    },
    {
        "code": "A125320100027",
        "type": 16011,
        "name": "愛光幼稚園",
        "address": "大津市末広町6-6",
        "lat": 35.005341,
        "lng": 135.865451
    },
    {
        "code": "A125320100036",
        "type": 16011,
        "name": "比叡山幼稚園",
        "address": "大津市坂本4-8-31",
        "lat": 35.067825,
        "lng": 135.868255
    },
    {
        "code": "A125320100045",
        "type": 16011,
        "name": "清和幼稚園",
        "address": "大津市栄町18-5",
        "lat": 34.975362,
        "lng": 135.900534
    },
    {
        "code": "A125320100063",
        "type": 16011,
        "name": "滋賀短期大学附属幼稚園",
        "address": "大津市竜が丘24-3",
        "lat": 34.995795,
        "lng": 135.874703
    },
    {
        "code": "A125320100072",
        "type": 16011,
        "name": "聖母幼稚園",
        "address": "大津市馬場2-6-62",
        "lat": 35.001134,
        "lng": 135.880166
    },
    {
        "code": "A225320100017",
        "type": 16013,
        "name": "聖パウロこども園",
        "address": "大津市見世1-1-35",
        "lat": 35.038587,
        "lng": 135.861312
    },
    {
        "code": "A225320100026",
        "type": 16013,
        "name": "麗湖こども園",
        "address": "大津市花園町13-36",
        "lat": 35.138987,
        "lng": 135.916209
    },
    {
        "code": "A225320100035",
        "type": 16013,
        "name": "茶臼山こども園",
        "address": "大津市秋葉台31-40",
        "lat": 34.989407,
        "lng": 135.881313
    },
    {
        "code": "A225320100044",
        "type": 16013,
        "name": "本福寺こども園",
        "address": "大津市本堅田1-22-30",
        "lat": 35.111389,
        "lng": 135.919832
    },
    {
        "code": "A225320100053",
        "type": 16013,
        "name": "第二本福寺こども園",
        "address": "大津市本堅田6-14-11",
        "lat": 35.118009,
        "lng": 135.909163
    },
    {
        "code": "A225320100062",
        "type": 16013,
        "name": "大津さくらこども園",
        "address": "大津市春日町1-1",
        "lat": 35.003497,
        "lng": 135.863645
    },
    {
        "code": "A225320100071",
        "type": 16013,
        "name": "びわこきららこども園",
        "address": "大津市月輪5-4-1",
        "lat": 34.979199,
        "lng": 135.93858
    },
    {
        "code": "A225320100080",
        "type": 16013,
        "name": "保育の家しょうなん",
        "address": "大津市平津2-4-9",
        "lat": 34.95148,
        "lng": 135.904202
    },
    {
        "code": "A225320100099",
        "type": 16013,
        "name": "みどりこども園",
        "address": "大津市瀬田3-23-3",
        "lat": 34.966206,
        "lng": 135.909818
    },
    {
        "code": "A225320100106",
        "type": 16013,
        "name": "レイモンド瀬田こども園",
        "address": "大津市大江4-12-34",
        "lat": 34.981745,
        "lng": 135.924395
    },
    {
        "code": "A225320100115",
        "type": 16013,
        "name": "唐崎キンダースクール",
        "address": "大津市唐崎1-15-12",
        "lat": 35.050286,
        "lng": 135.872432
    },
    {
        "code": "A225320100124",
        "type": 16013,
        "name": "永興富士見こども園",
        "address": "大津市富士見台3-30",
        "lat": 34.985574,
        "lng": 135.887927
    },
    {
        "code": "A225320100133",
        "type": 16013,
        "name": "みつばちこども園",
        "address": "大津市観音寺10-25",
        "lat": 35.015532,
        "lng": 135.859426
    },
    {
        "code": "A225320100142",
        "type": 16013,
        "name": "大津京こども園",
        "address": "大津市桜野町1-19-7ﾐﾗｰｼﾞｭ大津京",
        "lat": 35.025265,
        "lng": 135.855317
    },
    {
        "code": "A225320100151",
        "type": 16013,
        "name": "石山寺こども園",
        "address": "大津市石山寺2-25-43",
        "lat": 34.959791,
        "lng": 135.907849
    },
    {
        "code": "A225320100160",
        "type": 16013,
        "name": "永興藤尾こども園",
        "address": "大津市茶戸町22-6",
        "lat": 34.994097,
        "lng": 135.829923
    },
    {
        "code": "A225320100179",
        "type": 16013,
        "name": "星の子こども園",
        "address": "大津市雄琴2-17-13",
        "lat": 35.091948,
        "lng": 135.892174
    },
    {
        "code": "A225320100188",
        "type": 16013,
        "name": "南郷こども園",
        "address": "大津市南郷2-47-7",
        "lat": 34.941796,
        "lng": 135.900656
    },
    {
        "code": "A225320100197",
        "type": 16013,
        "name": "学園前こども園",
        "address": "大津市一里山5-10-7",
        "lat": 34.977685,
        "lng": 135.93348
    },
    {
        "code": "A225320100204",
        "type": 16013,
        "name": "わかばこども園",
        "address": "大津市今堅田3-25-25",
        "lat": 35.129333,
        "lng": 135.927597
    },
    {
        "code": "A225320100213",
        "type": 16013,
        "name": "はぐくみの家仰木星の子",
        "address": "大津市仰木の里1-28-1",
        "lat": 35.102449,
        "lng": 135.887877
    },
    {
        "code": "A225320100222",
        "type": 16013,
        "name": "日吉台至明こども園",
        "address": "大津市日吉台3-33-2",
        "lat": 35.081846,
        "lng": 135.87622
    },
    {
        "code": "B125110000012",
        "type": 16001,
        "name": "滋賀大学教育学部附属小学校",
        "address": "大津市昭和町10-3",
        "lat": 34.999784,
        "lng": 135.886985
    },
    {
        "code": "B125220100018",
        "type": 16001,
        "name": "葛川小学校",
        "address": "大津市葛川中村町108-1",
        "lat": 35.234032,
        "lng": 135.86217
    },
    {
        "code": "B125220100027",
        "type": 16001,
        "name": "伊香立小学校",
        "address": "大津市伊香立生津町132-1",
        "lat": 35.141934,
        "lng": 135.871928
    },
    {
        "code": "B125220100036",
        "type": 16001,
        "name": "真野小学校",
        "address": "大津市真野4-6-17",
        "lat": 35.132435,
        "lng": 135.912896
    },
    {
        "code": "B125220100045",
        "type": 16001,
        "name": "堅田小学校",
        "address": "大津市本堅田3-6-1",
        "lat": 35.112993,
        "lng": 135.915951
    },
    {
        "code": "B125220100054",
        "type": 16001,
        "name": "仰木小学校",
        "address": "大津市仰木4-15-8",
        "lat": 35.108715,
        "lng": 135.882316
    },
    {
        "code": "B125220100063",
        "type": 16001,
        "name": "雄琴小学校",
        "address": "大津市雄琴2-16-1",
        "lat": 35.092523,
        "lng": 135.893343
    },
    {
        "code": "B125220100072",
        "type": 16001,
        "name": "坂本小学校",
        "address": "大津市坂本3-12-57",
        "lat": 35.068775,
        "lng": 135.872623
    },
    {
        "code": "B125220100081",
        "type": 16001,
        "name": "下阪本小学校",
        "address": "大津市下阪本4-10-1",
        "lat": 35.063415,
        "lng": 135.876956
    },
    {
        "code": "B125220100090",
        "type": 16001,
        "name": "志賀小学校",
        "address": "大津市南志賀1-5-1",
        "lat": 35.034585,
        "lng": 135.855376
    },
    {
        "code": "B125220100107",
        "type": 16001,
        "name": "藤尾小学校",
        "address": "大津市茶戸町10-1",
        "lat": 34.995005,
        "lng": 135.832906
    },
    {
        "code": "B125220100116",
        "type": 16001,
        "name": "長等小学校",
        "address": "大津市大門通5-1",
        "lat": 35.012754,
        "lng": 135.856376
    },
    {
        "code": "B125220100125",
        "type": 16001,
        "name": "逢坂小学校",
        "address": "大津市音羽台6-1",
        "lat": 35.001922,
        "lng": 135.864376
    },
    {
        "code": "B125220100134",
        "type": 16001,
        "name": "中央小学校",
        "address": "大津市島の関1-60",
        "lat": 35.007894,
        "lng": 135.868903
    },
    {
        "code": "B125220100143",
        "type": 16001,
        "name": "平野小学校",
        "address": "大津市馬場1-2-1",
        "lat": 35.001922,
        "lng": 135.881819
    },
    {
        "code": "B125220100152",
        "type": 16001,
        "name": "膳所小学校",
        "address": "大津市中庄2-8-37",
        "lat": 34.991757,
        "lng": 135.888735
    },
    {
        "code": "B125220100161",
        "type": 16001,
        "name": "晴嵐小学校",
        "address": "大津市光が丘町4-70",
        "lat": 34.972537,
        "lng": 135.897789
    },
    {
        "code": "B125220100170",
        "type": 16001,
        "name": "石山小学校",
        "address": "大津市石山寺3-11-20",
        "lat": 34.955789,
        "lng": 135.908815
    },
    {
        "code": "B125220100189",
        "type": 16001,
        "name": "大石小学校",
        "address": "大津市大石東7-4-1",
        "lat": 34.91121,
        "lng": 135.914955
    },
    {
        "code": "B125220100198",
        "type": 16001,
        "name": "田上小学校",
        "address": "大津市里5-8-1",
        "lat": 34.937791,
        "lng": 135.931786
    },
    {
        "code": "B125220100205",
        "type": 16001,
        "name": "上田上小学校",
        "address": "大津市平野1-18-5",
        "lat": 34.959658,
        "lng": 135.959987
    },
    {
        "code": "B125220100214",
        "type": 16001,
        "name": "瀬田小学校",
        "address": "大津市大江4-2-1",
        "lat": 34.981425,
        "lng": 135.920953
    },
    {
        "code": "B125220100223",
        "type": 16001,
        "name": "富士見小学校",
        "address": "大津市富士見台42-16",
        "lat": 34.979452,
        "lng": 135.883263
    },
    {
        "code": "B125220100232",
        "type": 16001,
        "name": "唐崎小学校",
        "address": "大津市際川4-7-1",
        "lat": 35.045334,
        "lng": 135.866986
    },
    {
        "code": "B125220100241",
        "type": 16001,
        "name": "瀬田南小学校",
        "address": "大津市三大寺1-1",
        "lat": 34.974787,
        "lng": 135.915009
    },
    {
        "code": "B125220100250",
        "type": 16001,
        "name": "比叡平小学校",
        "address": "大津市比叡平1-45-1",
        "lat": 35.032862,
        "lng": 135.834378
    },
    {
        "code": "B125220100269",
        "type": 16001,
        "name": "南郷小学校",
        "address": "大津市南郷1-15-9",
        "lat": 34.94029,
        "lng": 135.906927
    },
    {
        "code": "B125220100278",
        "type": 16001,
        "name": "瀬田東小学校",
        "address": "大津市一里山2-20-2",
        "lat": 34.983231,
        "lng": 135.930425
    },
    {
        "code": "B125220100287",
        "type": 16001,
        "name": "日吉台小学校",
        "address": "大津市日吉台3-33-3",
        "lat": 35.083135,
        "lng": 135.8764
    },
    {
        "code": "B125220100296",
        "type": 16001,
        "name": "瀬田北小学校",
        "address": "大津市大将軍1-14-5",
        "lat": 34.992119,
        "lng": 135.923675
    },
    {
        "code": "B125220100303",
        "type": 16001,
        "name": "真野北小学校",
        "address": "大津市緑町15-2",
        "lat": 35.144406,
        "lng": 135.908535
    },
    {
        "code": "B125220100312",
        "type": 16001,
        "name": "仰木の里小学校",
        "address": "大津市仰木の里4-4-1",
        "lat": 35.106743,
        "lng": 135.891704
    },
    {
        "code": "B125220100321",
        "type": 16001,
        "name": "青山小学校",
        "address": "大津市青山3-16-1",
        "lat": 34.98076,
        "lng": 135.974782
    },
    {
        "code": "B125220100330",
        "type": 16001,
        "name": "仰木の里東小学校",
        "address": "大津市仰木の里東6-1-1",
        "lat": 35.108937,
        "lng": 135.900619
    },
    {
        "code": "B125220100349",
        "type": 16001,
        "name": "和邇小学校",
        "address": "大津市和邇中190",
        "lat": 35.157877,
        "lng": 135.92045
    },
    {
        "code": "B125220100358",
        "type": 16001,
        "name": "木戸小学校",
        "address": "大津市荒川1000",
        "lat": 35.206233,
        "lng": 135.926452
    },
    {
        "code": "B125220100367",
        "type": 16001,
        "name": "小松小学校",
        "address": "大津市南小松1122",
        "lat": 35.236008,
        "lng": 135.956228
    },
    {
        "code": "B125220100376",
        "type": 16001,
        "name": "小野小学校",
        "address": "大津市水明1-34-2",
        "lat": 35.145989,
        "lng": 135.919423
    },
    {
        "code": "C125110000010",
        "type": 16002,
        "name": "滋賀大学教育学部附属中学校",
        "address": "大津市昭和町10-3",
        "lat": 34.999673,
        "lng": 135.885596
    },
    {
        "code": "C125220100016",
        "type": 16002,
        "name": "堅田中学校",
        "address": "大津市本堅田3-22-1",
        "lat": 35.114631,
        "lng": 135.918312
    },
    {
        "code": "C125220100025",
        "type": 16002,
        "name": "葛川中学校",
        "address": "大津市葛川中村町108-1",
        "lat": 35.233896,
        "lng": 135.862151
    },
    {
        "code": "C125220100034",
        "type": 16002,
        "name": "伊香立中学校",
        "address": "大津市伊香立下在地町414",
        "lat": 35.150044,
        "lng": 135.878705
    },
    {
        "code": "C125220100043",
        "type": 16002,
        "name": "日吉中学校",
        "address": "大津市下阪本6-38-26",
        "lat": 35.068692,
        "lng": 135.879039
    },
    {
        "code": "C125220100052",
        "type": 16002,
        "name": "皇子山中学校",
        "address": "大津市尾花川12-1",
        "lat": 35.020865,
        "lng": 135.859265
    },
    {
        "code": "C125220100061",
        "type": 16002,
        "name": "打出中学校",
        "address": "大津市本宮2-46-1",
        "lat": 34.99695,
        "lng": 135.872319
    },
    {
        "code": "C125220100070",
        "type": 16002,
        "name": "粟津中学校",
        "address": "大津市晴嵐1-20-20",
        "lat": 34.985285,
        "lng": 135.900317
    },
    {
        "code": "C125220100089",
        "type": 16002,
        "name": "石山中学校",
        "address": "大津市平津1-23-1",
        "lat": 34.947318,
        "lng": 135.908649
    },
    {
        "code": "C125220100098",
        "type": 16002,
        "name": "田上中学校",
        "address": "大津市新免1-1-12",
        "lat": 34.949929,
        "lng": 135.948812
    },
    {
        "code": "C125220100105",
        "type": 16002,
        "name": "瀬田中学校",
        "address": "大津市大江7-1-1",
        "lat": 34.977787,
        "lng": 135.928036
    },
    {
        "code": "C125220100114",
        "type": 16002,
        "name": "唐崎中学校",
        "address": "大津市唐崎2-9-1",
        "lat": 35.047972,
        "lng": 135.868041
    },
    {
        "code": "C125220100123",
        "type": 16002,
        "name": "北大路中学校",
        "address": "大津市北大路3-22-1",
        "lat": 34.970092,
        "lng": 135.886929
    },
    {
        "code": "C125220100132",
        "type": 16002,
        "name": "瀬田北中学校",
        "address": "大津市大将軍1-13-1",
        "lat": 34.99223,
        "lng": 135.925314
    },
    {
        "code": "C125220100141",
        "type": 16002,
        "name": "南郷中学校",
        "address": "大津市赤尾町57-1",
        "lat": 34.940512,
        "lng": 135.894845
    },
    {
        "code": "C125220100150",
        "type": 16002,
        "name": "真野中学校",
        "address": "大津市清風町24-1",
        "lat": 35.140989,
        "lng": 135.904952
    },
    {
        "code": "C125220100169",
        "type": 16002,
        "name": "仰木中学校",
        "address": "大津市仰木の里5-1-1",
        "lat": 35.10816,
        "lng": 135.890009
    },
    {
        "code": "C125220100178",
        "type": 16002,
        "name": "青山中学校",
        "address": "大津市青山8-24-1",
        "lat": 34.973678,
        "lng": 135.971783
    },
    {
        "code": "C125220100187",
        "type": 16002,
        "name": "志賀中学校",
        "address": "大津市南船路1029",
        "lat": 35.180402,
        "lng": 135.910119
    },
    {
        "code": "C125320100014",
        "type": 16002,
        "name": "比叡山中学校",
        "address": "大津市坂本4-5-31",
        "lat": 35.070497,
        "lng": 135.867485
    },
    {
        "code": "C125320100023",
        "type": 16002,
        "name": "幸福の科学学園関西中学校",
        "address": "大津市仰木の里東2-16-1",
        "lat": 35.104782,
        "lng": 135.900366
    },
    {
        "code": "D125220100014",
        "type": 16004,
        "name": "膳所高等学校",
        "address": "大津市膳所2-11-1",
        "lat": 34.996923,
        "lng": 135.890068
    },
    {
        "code": "D125220100023",
        "type": 16004,
        "name": "堅田高等学校",
        "address": "大津市本堅田3-9-1",
        "lat": 35.113458,
        "lng": 135.913699
    },
    {
        "code": "D125220100032",
        "type": 16004,
        "name": "東大津高等学校",
        "address": "大津市瀬田南大萱町1732-2",
        "lat": 34.971594,
        "lng": 135.945702
    },
    {
        "code": "D125220100041",
        "type": 16004,
        "name": "北大津高等学校",
        "address": "大津市仰木の里1-23-1",
        "lat": 35.10291,
        "lng": 135.892065
    },
    {
        "code": "D125220100050",
        "type": 16004,
        "name": "大津高等学校",
        "address": "大津市馬場1-1-1",
        "lat": 35.000811,
        "lng": 135.882346
    },
    {
        "code": "D125220100069",
        "type": 16004,
        "name": "石山高等学校",
        "address": "大津市国分1-15-1",
        "lat": 34.968648,
        "lng": 135.896928
    },
    {
        "code": "D125220100078",
        "type": 16004,
        "name": "瀬田工業高等学校",
        "address": "大津市神領3-18-1",
        "lat": 34.97076,
        "lng": 135.911871
    },
    {
        "code": "D125220100087",
        "type": 16004,
        "name": "大津商業高等学校",
        "address": "大津市御陵町2-1",
        "lat": 35.016754,
        "lng": 135.854238
    },
    {
        "code": "D125220100096",
        "type": 16004,
        "name": "大津清陵高等学校",
        "address": "大津市大平1-14-1",
        "lat": 34.952816,
        "lng": 135.892984
    },
    {
        "code": "D125220100103",
        "type": 16004,
        "name": "大津清陵高等学校馬場分校",
        "address": "大津市馬場1-1-1",
        "lat": 35.001016,
        "lng": 135.883003
    },
    {
        "code": "D125320100012",
        "type": 16004,
        "name": "比叡山高等学校",
        "address": "大津市坂本4-3-1",
        "lat": 35.06997,
        "lng": 135.864735
    },
    {
        "code": "D125320100021",
        "type": 16004,
        "name": "滋賀短期大学附属高等学校",
        "address": "大津市朝日が丘1-18-1",
        "lat": 34.999256,
        "lng": 135.869903
    },
    {
        "code": "D125320100030",
        "type": 16004,
        "name": "関西高等学校",
        "address": "大津市仰木の里東2-16-1",
        "lat": 35.104596,
        "lng": 135.900311
    },
    {
        "code": "E125110000015",
        "type": 16012,
        "name": "滋賀大学教育学部附属特別支援学校",
        "address": "大津市際川3-9-1",
        "lat": 35.04164,
        "lng": 135.864319
    },
    {
        "code": "E125220100011",
        "type": 16012,
        "name": "北大津養護学校",
        "address": "大津市伊香立向在地町25",
        "lat": 35.135212,
        "lng": 135.889204
    },
    {
        "code": "E125220100020",
        "type": 16012,
        "name": "北大津高等養護学校",
        "address": "大津市仰木の里1-23-1",
        "lat": 35.103034,
        "lng": 135.891311
    },
    {
        "code": "F125110107284",
        "type": 16007,
        "name": "滋賀大学",
        "address": "大津市平津2-5-1",
        "lat": 34.950242,
        "lng": 135.904633
    },
    {
        "code": "F125110107293",
        "type": 16007,
        "name": "滋賀医科大学",
        "address": "大津市瀬田月輪町",
        "lat": 34.973273,
        "lng": 135.948849
    },
    {
        "code": "F125310107315",
        "type": 16007,
        "name": "成安造形大学",
        "address": "大津市仰木の里東4-3-1",
        "lat": 35.109021,
        "lng": 135.902341
    },
    {
        "code": "F125310107342",
        "type": 16007,
        "name": "びわこ成蹊スポーツ大学",
        "address": "大津市北比良1204",
        "lat": 35.226858,
        "lng": 135.949684
    },
    {
        "code": "F225310107387",
        "type": 16006,
        "name": "滋賀短期大学",
        "address": "大津市竜が丘24-4",
        "lat": 34.995645,
        "lng": 135.874236
    },
    {
        "code": "H125320100013",
        "type": 16016,
        "name": "大津文化ビジネス高等専修学校",
        "address": "大津市馬場2-11-17",
        "lat": 34.999059,
        "lng": 135.882022
    },
    {
        "code": "H125320100022",
        "type": 16016,
        "name": "大津赤十字看護専門学校",
        "address": "大津市小関町5-23",
        "lat": 35.009027,
        "lng": 135.855624
    },
    {
        "code": "H125320100031",
        "type": 16016,
        "name": "近江時計眼鏡宝飾専門学校",
        "address": "大津市神宮町1-1",
        "lat": 35.030851,
        "lng": 135.853195
    },
    {
        "code": "H125320100040",
        "type": 16016,
        "name": "華頂看護専門学校",
        "address": "大津市大萱7-7-2",
        "lat": 34.994504,
        "lng": 135.915921
    },
    {
        "code": "H125320100059",
        "type": 16016,
        "name": "叡山学院",
        "address": "大津市坂本4-9-21",
        "lat": 35.068998,
        "lng": 135.868032
    },
    {
        "code": "H125320100068",
        "type": 16016,
        "name": "大津市医師会立看護専修学校",
        "address": "大津市園城寺町字常在寺233-5",
        "lat": 35.020034,
        "lng": 135.849831
    },
    {
        "code": "H125320100077",
        "type": 16016,
        "name": "滋賀県堅田看護専門学校",
        "address": "大津市真野1-12-30",
        "lat": 35.1232,
        "lng": 135.914696
    },
    {
        "code": "H125320100086",
        "type": 16016,
        "name": "華頂社会福祉専門学校",
        "address": "大津市大萱6-4-10",
        "lat": 34.993582,
        "lng": 135.914382
    },
    {
        "code": "H125320100095",
        "type": 16016,
        "name": "国際経営情報専門学校",
        "address": "大津市打出浜11-15",
        "lat": 35.003728,
        "lng": 135.879716
    },
    {
        "code": "H225320100012",
        "type": 16015,
        "name": "滋賀ビジネス学院",
        "address": "大津市三井寺町6-25",
        "lat": 34.999941,
        "lng": 135.881138
    },
    {
        "code": "H225320100021",
        "type": 16015,
        "name": "滋賀朝鮮初中級学校",
        "address": "大津市木下町2-24",
        "lat": 34.998957,
        "lng": 135.889312
    },
    {
        "code": "H225320100030",
        "type": 16015,
        "name": "日本フィンランド学校",
        "address": "大津市上田上新免町2-10-1",
        "lat": 34.945327,
        "lng": 135.95263
    }
]