[
    {
        "code": "A125220300018",
        "type": 16011,
        "name": "長浜幼稚園",
        "address": "長浜市朝日町5-14",
        "lat": 35.378323,
        "lng": 136.267301
    },
    {
        "code": "A125220300027",
        "type": 16011,
        "name": "神照幼稚園",
        "address": "長浜市新庄寺町480",
        "lat": 35.400987,
        "lng": 136.278876
    },
    {
        "code": "A125220300036",
        "type": 16011,
        "name": "南郷里幼稚園",
        "address": "長浜市新栄町626",
        "lat": 35.389575,
        "lng": 136.300889
    },
    {
        "code": "A125220300045",
        "type": 16011,
        "name": "わかば幼稚園",
        "address": "長浜市八幡東町520-1",
        "lat": 35.385386,
        "lng": 136.27785
    },
    {
        "code": "A125220300054",
        "type": 16011,
        "name": "北郷里幼稚園",
        "address": "長浜市春近町196-1",
        "lat": 35.399777,
        "lng": 136.321739
    },
    {
        "code": "A125220300063",
        "type": 16011,
        "name": "長浜南認定こども園",
        "address": "長浜市加田町2727",
        "lat": 35.359129,
        "lng": 136.301636
    },
    {
        "code": "A125220300072",
        "type": 16011,
        "name": "長浜北幼稚園",
        "address": "長浜市三ﾂ矢元町19-24",
        "lat": 35.38668,
        "lng": 136.265654
    },
    {
        "code": "A125220300081",
        "type": 16011,
        "name": "長浜西幼稚園",
        "address": "長浜市相撲町604-6",
        "lat": 35.389974,
        "lng": 136.253588
    },
    {
        "code": "A125220300090",
        "type": 16011,
        "name": "湖北幼稚園",
        "address": "長浜市湖北町速水909-2",
        "lat": 35.442595,
        "lng": 136.239471
    },
    {
        "code": "A225220300017",
        "type": 16013,
        "name": "六荘認定こども園",
        "address": "長浜市勝町491",
        "lat": 35.371063,
        "lng": 136.286346
    },
    {
        "code": "A225220300026",
        "type": 16013,
        "name": "あざい認定こども園",
        "address": "長浜市大依町1232",
        "lat": 35.432861,
        "lng": 136.310014
    },
    {
        "code": "A225220300035",
        "type": 16013,
        "name": "びわ認定こども園",
        "address": "長浜市八木浜町26-1",
        "lat": 35.403791,
        "lng": 136.226494
    },
    {
        "code": "A225220300044",
        "type": 16013,
        "name": "とらひめ認定こども園",
        "address": "長浜市五村371-1",
        "lat": 35.422917,
        "lng": 136.264552
    },
    {
        "code": "A225220300053",
        "type": 16013,
        "name": "たかつき認定こども園",
        "address": "長浜市高月町東柳野15-1",
        "lat": 35.46947,
        "lng": 136.223594
    },
    {
        "code": "A225220300062",
        "type": 16013,
        "name": "きのもと認定こども園",
        "address": "長浜市木之本町木之本698-2",
        "lat": 35.506147,
        "lng": 136.228694
    },
    {
        "code": "A225220300071",
        "type": 16013,
        "name": "よご認定こども園",
        "address": "長浜市余呉町東野363",
        "lat": 35.549837,
        "lng": 136.201643
    },
    {
        "code": "A225220300080",
        "type": 16013,
        "name": "にしあざい認定こども園",
        "address": "長浜市西浅井町塩津中2066",
        "lat": 35.525529,
        "lng": 136.157928
    },
    {
        "code": "A225320300015",
        "type": 16013,
        "name": "小谷こども園",
        "address": "長浜市小谷丁野町2481-1",
        "lat": 35.459452,
        "lng": 136.258387
    },
    {
        "code": "A225320300024",
        "type": 16013,
        "name": "レイモンド長浜こども園",
        "address": "長浜市南小足町324-3",
        "lat": 35.392658,
        "lng": 136.310979
    },
    {
        "code": "A225320300033",
        "type": 16013,
        "name": "レイモンド長浜南こども園",
        "address": "長浜市高橋町84",
        "lat": 35.366261,
        "lng": 136.283466
    },
    {
        "code": "A225320300042",
        "type": 16013,
        "name": "カトリック長浜こども園",
        "address": "長浜市南高田町47",
        "lat": 35.377934,
        "lng": 136.278933
    },
    {
        "code": "B125220300016",
        "type": 16001,
        "name": "長浜小学校",
        "address": "長浜市高田町9-9",
        "lat": 35.379664,
        "lng": 136.274275
    },
    {
        "code": "B125220300025",
        "type": 16001,
        "name": "長浜北小学校",
        "address": "長浜市八幡中山町1310",
        "lat": 35.390746,
        "lng": 136.26547
    },
    {
        "code": "B125220300034",
        "type": 16001,
        "name": "神照小学校",
        "address": "長浜市神照町311",
        "lat": 35.399051,
        "lng": 136.274747
    },
    {
        "code": "B125220300043",
        "type": 16001,
        "name": "南郷里小学校",
        "address": "長浜市南田附町352",
        "lat": 35.388553,
        "lng": 136.301633
    },
    {
        "code": "B125220300052",
        "type": 16001,
        "name": "北郷里小学校",
        "address": "長浜市春近町353",
        "lat": 35.400579,
        "lng": 136.321519
    },
    {
        "code": "B125220300061",
        "type": 16001,
        "name": "長浜南小学校",
        "address": "長浜市加田町1460",
        "lat": 35.36775,
        "lng": 136.302272
    },
    {
        "code": "B125220300070",
        "type": 16001,
        "name": "湯田小学校",
        "address": "長浜市内保町1051",
        "lat": 35.428664,
        "lng": 136.295054
    },
    {
        "code": "B125220300089",
        "type": 16001,
        "name": "田根小学校",
        "address": "長浜市野田町68",
        "lat": 35.456091,
        "lng": 136.299839
    },
    {
        "code": "B125220300098",
        "type": 16001,
        "name": "浅井小学校",
        "address": "長浜市当目町54",
        "lat": 35.434784,
        "lng": 136.3284
    },
    {
        "code": "B125220300105",
        "type": 16001,
        "name": "びわ南小学校",
        "address": "長浜市川道町3456",
        "lat": 35.405228,
        "lng": 136.239543
    },
    {
        "code": "B125220300114",
        "type": 16001,
        "name": "びわ北小学校",
        "address": "長浜市益田町56",
        "lat": 35.423324,
        "lng": 136.219868
    },
    {
        "code": "B125220300123",
        "type": 16001,
        "name": "小谷小学校",
        "address": "長浜市小谷丁野町524",
        "lat": 35.45799,
        "lng": 136.259148
    },
    {
        "code": "B125220300132",
        "type": 16001,
        "name": "速水小学校",
        "address": "長浜市湖北町速水2561-1",
        "lat": 35.442513,
        "lng": 136.235462
    },
    {
        "code": "B125220300141",
        "type": 16001,
        "name": "朝日小学校",
        "address": "長浜市湖北町山本1125",
        "lat": 35.44602,
        "lng": 136.212471
    },
    {
        "code": "B125220300150",
        "type": 16001,
        "name": "富永小学校",
        "address": "長浜市高月町井口160",
        "lat": 35.489642,
        "lng": 136.240042
    },
    {
        "code": "B125220300169",
        "type": 16001,
        "name": "高月小学校",
        "address": "長浜市高月町高月738",
        "lat": 35.472384,
        "lng": 136.232616
    },
    {
        "code": "B125220300178",
        "type": 16001,
        "name": "古保利小学校",
        "address": "長浜市高月町西柳野38",
        "lat": 35.46363,
        "lng": 136.21169
    },
    {
        "code": "B125220300187",
        "type": 16001,
        "name": "七郷小学校",
        "address": "長浜市高月町唐川248",
        "lat": 35.484883,
        "lng": 136.219415
    },
    {
        "code": "B125220300196",
        "type": 16001,
        "name": "高時小学校",
        "address": "長浜市木之本町石道1079-1",
        "lat": 35.502231,
        "lng": 136.251976
    },
    {
        "code": "B125220300203",
        "type": 16001,
        "name": "木之本小学校",
        "address": "長浜市木之本町木之本685-1",
        "lat": 35.505812,
        "lng": 136.22787
    },
    {
        "code": "B125220300212",
        "type": 16001,
        "name": "伊香具小学校",
        "address": "長浜市木之本町大音1114",
        "lat": 35.500305,
        "lng": 136.197944
    },
    {
        "code": "B125220300221",
        "type": 16001,
        "name": "塩津小学校",
        "address": "長浜市西浅井町塩津中41",
        "lat": 35.530786,
        "lng": 136.157154
    },
    {
        "code": "B125220300230",
        "type": 16001,
        "name": "永原小学校",
        "address": "長浜市西浅井町大浦167",
        "lat": 35.499198,
        "lng": 136.125648
    },
    {
        "code": "C125220300014",
        "type": 16002,
        "name": "長浜西中学校",
        "address": "長浜市高田町10-10",
        "lat": 35.380192,
        "lng": 136.276747
    },
    {
        "code": "C125220300023",
        "type": 16002,
        "name": "長浜北中学校",
        "address": "長浜市神照町910",
        "lat": 35.393496,
        "lng": 136.269192
    },
    {
        "code": "C125220300032",
        "type": 16002,
        "name": "長浜東中学校",
        "address": "長浜市堀部町763",
        "lat": 35.39208,
        "lng": 136.316437
    },
    {
        "code": "C125220300041",
        "type": 16002,
        "name": "長浜南中学校",
        "address": "長浜市永久寺町810",
        "lat": 35.373055,
        "lng": 136.296606
    },
    {
        "code": "C125220300050",
        "type": 16002,
        "name": "浅井中学校",
        "address": "長浜市内保町627",
        "lat": 35.431615,
        "lng": 136.298911
    },
    {
        "code": "C125220300069",
        "type": 16002,
        "name": "びわ中学校",
        "address": "長浜市弓削町460",
        "lat": 35.418074,
        "lng": 136.232855
    },
    {
        "code": "C125220300078",
        "type": 16002,
        "name": "湖北中学校",
        "address": "長浜市湖北町速水1191",
        "lat": 35.444196,
        "lng": 136.242511
    },
    {
        "code": "C125220300087",
        "type": 16002,
        "name": "高月中学校",
        "address": "長浜市高月町高月2491-1",
        "lat": 35.47002,
        "lng": 136.226938
    },
    {
        "code": "C125220300096",
        "type": 16002,
        "name": "木之本中学校",
        "address": "長浜市木之本町木之本682",
        "lat": 35.504589,
        "lng": 136.228788
    },
    {
        "code": "C125220300103",
        "type": 16002,
        "name": "西浅井中学校",
        "address": "長浜市西浅井町塩津中312",
        "lat": 35.524149,
        "lng": 136.15852
    },
    {
        "code": "C225220300013",
        "type": 16014,
        "name": "虎姫学園",
        "address": "長浜市五村88",
        "lat": 35.421174,
        "lng": 136.265096
    },
    {
        "code": "C225220300022",
        "type": 16014,
        "name": "余呉小中学校",
        "address": "長浜市余呉町中之郷777",
        "lat": 35.549798,
        "lng": 136.203198
    },
    {
        "code": "D125220300012",
        "type": 16004,
        "name": "長浜北高等学校",
        "address": "長浜市平方町270",
        "lat": 35.369952,
        "lng": 136.276991
    },
    {
        "code": "D125220300021",
        "type": 16004,
        "name": "虎姫高等学校",
        "address": "長浜市宮部町2410",
        "lat": 35.419782,
        "lng": 136.265588
    },
    {
        "code": "D125220300030",
        "type": 16004,
        "name": "伊香高等学校",
        "address": "長浜市木之本町木之本251",
        "lat": 35.508898,
        "lng": 136.229667
    },
    {
        "code": "D125220300049",
        "type": 16004,
        "name": "長浜農業高等学校",
        "address": "長浜市名越町600",
        "lat": 35.366139,
        "lng": 136.319881
    },
    {
        "code": "D125220300058",
        "type": 16004,
        "name": "長浜北星高等学校",
        "address": "長浜市地福寺町3-72",
        "lat": 35.377359,
        "lng": 136.276552
    },
    {
        "code": "E125220300019",
        "type": 16012,
        "name": "長浜養護学校",
        "address": "長浜市今町920",
        "lat": 35.412494,
        "lng": 136.299355
    },
    {
        "code": "E125220300028",
        "type": 16012,
        "name": "長浜北星高等養護学校",
        "address": "長浜市地福寺町3-72",
        "lat": 35.377863,
        "lng": 136.277694
    },
    {
        "code": "F125310107333",
        "type": 16007,
        "name": "長浜バイオ大学",
        "address": "長浜市田村町1266",
        "lat": 35.35567,
        "lng": 136.280701
    },
    {
        "code": "F225310107378",
        "type": 16006,
        "name": "滋賀文教短期大学",
        "address": "長浜市田村町335",
        "lat": 35.358195,
        "lng": 136.287107
    },
    {
        "code": "H125220300013",
        "type": 16016,
        "name": "滋賀県立看護専門学校",
        "address": "長浜市八幡東町525-1",
        "lat": 35.385955,
        "lng": 136.277505
    },
    {
        "code": "H225320300010",
        "type": 16015,
        "name": "飯田洋裁学園",
        "address": "長浜市元浜町13-5",
        "lat": 35.381258,
        "lng": 136.26784
    },
    {
        "code": "H225320300029",
        "type": 16015,
        "name": "長浜自動車学校",
        "address": "長浜市加田町950",
        "lat": 35.361276,
        "lng": 136.291912
    }
]