[
    {
        "code": "A125221400015",
        "type": 16011,
        "name": "山東幼稚園",
        "address": "米原市池下91",
        "lat": 35.373491,
        "lng": 136.36234
    },
    {
        "code": "A225221400014",
        "type": 16013,
        "name": "いぶき認定こども園",
        "address": "米原市春照1950",
        "lat": 35.381307,
        "lng": 136.384478
    },
    {
        "code": "A225221400023",
        "type": 16013,
        "name": "かなん認定こども園",
        "address": "米原市三吉343",
        "lat": 35.319203,
        "lng": 136.326389
    },
    {
        "code": "A225221400032",
        "type": 16013,
        "name": "おうみ認定こども園",
        "address": "米原市顔戸199-1",
        "lat": 35.338877,
        "lng": 136.309568
    },
    {
        "code": "A225221400041",
        "type": 16013,
        "name": "まいばら認定こども園",
        "address": "米原市下多良146-1",
        "lat": 35.318925,
        "lng": 136.286854
    },
    {
        "code": "A225321400012",
        "type": 16013,
        "name": "チャイルドハウス近江",
        "address": "米原市宇賀野290",
        "lat": 35.33958,
        "lng": 136.290487
    },
    {
        "code": "A225321400021",
        "type": 16013,
        "name": "長岡学園",
        "address": "米原市長岡1167-4",
        "lat": 35.362001,
        "lng": 136.368853
    },
    {
        "code": "A225321400030",
        "type": 16013,
        "name": "柏原認定こども園",
        "address": "米原市柏原2293-1",
        "lat": 35.341399,
        "lng": 136.398957
    },
    {
        "code": "B125221400013",
        "type": 16001,
        "name": "柏原小学校",
        "address": "米原市柏原2320",
        "lat": 35.339866,
        "lng": 136.401511
    },
    {
        "code": "B125221400022",
        "type": 16001,
        "name": "山東小学校",
        "address": "米原市大鹿546",
        "lat": 35.356974,
        "lng": 136.349628
    },
    {
        "code": "B125221400031",
        "type": 16001,
        "name": "大原小学校",
        "address": "米原市市場424",
        "lat": 35.383609,
        "lng": 136.353265
    },
    {
        "code": "B125221400040",
        "type": 16001,
        "name": "伊吹小学校",
        "address": "米原市上野991",
        "lat": 35.395191,
        "lng": 136.379511
    },
    {
        "code": "B125221400059",
        "type": 16001,
        "name": "春照小学校",
        "address": "米原市杉沢817",
        "lat": 35.374375,
        "lng": 136.386157
    },
    {
        "code": "B125221400068",
        "type": 16001,
        "name": "河南小学校",
        "address": "米原市枝折77",
        "lat": 35.324144,
        "lng": 136.346182
    },
    {
        "code": "B125221400077",
        "type": 16001,
        "name": "米原小学校",
        "address": "米原市入江307",
        "lat": 35.314006,
        "lng": 136.28058
    },
    {
        "code": "B125221400086",
        "type": 16001,
        "name": "坂田小学校",
        "address": "米原市宇賀野508",
        "lat": 35.33717,
        "lng": 136.289023
    },
    {
        "code": "B125221400095",
        "type": 16001,
        "name": "息長小学校",
        "address": "米原市能登瀬1339",
        "lat": 35.331922,
        "lng": 136.315493
    },
    {
        "code": "C125221400011",
        "type": 16002,
        "name": "柏原中学校",
        "address": "米原市清滝40-1",
        "lat": 35.343607,
        "lng": 136.39514
    },
    {
        "code": "C125221400020",
        "type": 16002,
        "name": "大東中学校",
        "address": "米原市池下1054",
        "lat": 35.377527,
        "lng": 136.358515
    },
    {
        "code": "C125221400039",
        "type": 16002,
        "name": "伊吹山中学校",
        "address": "米原市高番387",
        "lat": 35.380998,
        "lng": 136.378401
    },
    {
        "code": "C125221400048",
        "type": 16002,
        "name": "米原中学校",
        "address": "米原市入江313",
        "lat": 35.312923,
        "lng": 136.279802
    },
    {
        "code": "C125221400057",
        "type": 16002,
        "name": "河南中学校",
        "address": "米原市河南295",
        "lat": 35.320672,
        "lng": 136.33238
    },
    {
        "code": "C125221400066",
        "type": 16002,
        "name": "双葉中学校",
        "address": "米原市顔戸233",
        "lat": 35.337588,
        "lng": 136.309021
    },
    {
        "code": "D125221400019",
        "type": 16004,
        "name": "伊吹高等学校",
        "address": "米原市朝日302",
        "lat": 35.382859,
        "lng": 136.350543
    },
    {
        "code": "D125221400028",
        "type": 16004,
        "name": "米原高等学校",
        "address": "米原市西円寺1200",
        "lat": 35.319756,
        "lng": 136.298161
    }
]