[
    {
        "code": "A125238400019",
        "type": 16011,
        "name": "竜王幼稚園",
        "address": "蒲生郡竜王町綾戸250",
        "lat": 35.067333,
        "lng": 136.128187
    },
    {
        "code": "A125238400028",
        "type": 16011,
        "name": "竜王西幼稚園",
        "address": "蒲生郡竜王町山面1-1",
        "lat": 35.075569,
        "lng": 136.097809
    },
    {
        "code": "B125238400017",
        "type": 16001,
        "name": "竜王小学校",
        "address": "蒲生郡竜王町綾戸275",
        "lat": 35.066863,
        "lng": 136.127126
    },
    {
        "code": "B125238400026",
        "type": 16001,
        "name": "竜王西小学校",
        "address": "蒲生郡竜王町山面1-1",
        "lat": 35.075112,
        "lng": 136.09949
    },
    {
        "code": "C125238400015",
        "type": 16002,
        "name": "竜王中学校",
        "address": "蒲生郡竜王町橋本15",
        "lat": 35.075668,
        "lng": 136.124876
    }
]