[
    {
        "code": "A126210000253",
        "type": 16011,
        "name": "富野幼稚園",
        "address": "城陽市富野南清水30",
        "lat": 34.839776,
        "lng": 135.787234
    },
    {
        "code": "A126310001161",
        "type": 16011,
        "name": "平川幼稚園",
        "address": "城陽市平川大将軍77-3",
        "lat": 34.865018,
        "lng": 135.770099
    },
    {
        "code": "A126310001278",
        "type": 16011,
        "name": "芽生え幼稚園",
        "address": "城陽市寺田大谷126-2",
        "lat": 34.86326,
        "lng": 135.794097
    },
    {
        "code": "A126310001330",
        "type": 16011,
        "name": "青谷聖家族幼稚園",
        "address": "城陽市中向河原11",
        "lat": 34.830019,
        "lng": 135.804934
    },
    {
        "code": "A126310001349",
        "type": 16011,
        "name": "京都文教短期大学附属家政城陽幼稚園",
        "address": "城陽市久世下大谷6",
        "lat": 34.867051,
        "lng": 135.781204
    },
    {
        "code": "A126310001429",
        "type": 16011,
        "name": "城陽学園佐伯幼稚園",
        "address": "城陽市寺田今橋68",
        "lat": 34.851516,
        "lng": 135.763639
    },
    {
        "code": "A126310001447",
        "type": 16011,
        "name": "白鳥幼稚園",
        "address": "城陽市寺田水度坂15-105",
        "lat": 34.854347,
        "lng": 135.783712
    },
    {
        "code": "B126210002268",
        "type": 16001,
        "name": "古川小学校",
        "address": "城陽市上津屋境端57",
        "lat": 34.864212,
        "lng": 135.759303
    },
    {
        "code": "B126210002311",
        "type": 16001,
        "name": "深谷小学校",
        "address": "城陽市寺田深谷111-2",
        "lat": 34.858185,
        "lng": 135.789883
    },
    {
        "code": "B126210002366",
        "type": 16001,
        "name": "寺田南小学校",
        "address": "城陽市寺田新池23-1",
        "lat": 34.849162,
        "lng": 135.782465
    },
    {
        "code": "B126210002393",
        "type": 16001,
        "name": "寺田西小学校",
        "address": "城陽市寺田西ﾉ口65",
        "lat": 34.855158,
        "lng": 135.765692
    },
    {
        "code": "B126210002516",
        "type": 16001,
        "name": "久津川小学校",
        "address": "城陽市平川指月1",
        "lat": 34.863851,
        "lng": 135.773913
    },
    {
        "code": "B126210002525",
        "type": 16001,
        "name": "寺田小学校",
        "address": "城陽市寺田北山田2",
        "lat": 34.855585,
        "lng": 135.780463
    },
    {
        "code": "B126210002534",
        "type": 16001,
        "name": "富野小学校",
        "address": "城陽市富野堀口1",
        "lat": 34.838409,
        "lng": 135.787495
    },
    {
        "code": "B126210002543",
        "type": 16001,
        "name": "青谷小学校",
        "address": "城陽市中向河原1",
        "lat": 34.830132,
        "lng": 135.803549
    },
    {
        "code": "B126210003025",
        "type": 16001,
        "name": "久世小学校",
        "address": "城陽市久世芝ｹ原143",
        "lat": 34.86099,
        "lng": 135.780273
    },
    {
        "code": "B126210003061",
        "type": 16001,
        "name": "今池小学校",
        "address": "城陽市寺田大畔177-1",
        "lat": 34.844714,
        "lng": 135.77133
    },
    {
        "code": "C126210000918",
        "type": 16002,
        "name": "西城陽中学校",
        "address": "城陽市寺田乾出北82",
        "lat": 34.856491,
        "lng": 135.765442
    },
    {
        "code": "C126210000981",
        "type": 16002,
        "name": "南城陽中学校",
        "address": "城陽市観音堂巽畑17-4",
        "lat": 34.83441,
        "lng": 135.799216
    },
    {
        "code": "C126210000990",
        "type": 16002,
        "name": "東城陽中学校",
        "address": "城陽市久世上大谷24",
        "lat": 34.864101,
        "lng": 135.794522
    },
    {
        "code": "C126210001007",
        "type": 16002,
        "name": "北城陽中学校",
        "address": "城陽市平川長筬33",
        "lat": 34.868045,
        "lng": 135.764136
    },
    {
        "code": "C126210001114",
        "type": 16002,
        "name": "城陽中学校",
        "address": "城陽市寺田北山田35",
        "lat": 34.856546,
        "lng": 135.783217
    },
    {
        "code": "D126210000382",
        "type": 16004,
        "name": "西城陽高等学校",
        "address": "城陽市枇杷庄京縄手46-1",
        "lat": 34.842742,
        "lng": 135.766025
    },
    {
        "code": "D126210000550",
        "type": 16004,
        "name": "城陽高等学校",
        "address": "城陽市寺田宮ﾉ平1",
        "lat": 34.852026,
        "lng": 135.788861
    },
    {
        "code": "E126210000165",
        "type": 16012,
        "name": "城陽支援学校",
        "address": "城陽市中芦原1-4",
        "lat": 34.831382,
        "lng": 135.815465
    },
    {
        "code": "H226310000424",
        "type": 16015,
        "name": "京都立体デザインスクール",
        "address": "城陽市寺田高田23-8",
        "lat": 34.854433,
        "lng": 135.780684
    }
]