[
    {
        "code": "A126310001296",
        "type": 16011,
        "name": "めぐみ幼稚園",
        "address": "長岡京市調子1-1-19",
        "lat": 34.913397,
        "lng": 135.693932
    },
    {
        "code": "A126310001303",
        "type": 16011,
        "name": "長岡カトリック幼稚園",
        "address": "長岡京市今里南平尾17",
        "lat": 34.928887,
        "lng": 135.681619
    },
    {
        "code": "A126310001312",
        "type": 16011,
        "name": "あかね幼稚園",
        "address": "長岡京市今里4-17-19",
        "lat": 34.93867,
        "lng": 135.689647
    },
    {
        "code": "A126310001401",
        "type": 16011,
        "name": "一里塚幼稚園",
        "address": "長岡京市開田2-2-3",
        "lat": 34.925988,
        "lng": 135.697657
    },
    {
        "code": "A126310001410",
        "type": 16011,
        "name": "むらさき幼稚園",
        "address": "長岡京市今里5-12-9",
        "lat": 34.935953,
        "lng": 135.686941
    },
    {
        "code": "A226310000330",
        "type": 16013,
        "name": "海印寺こども園",
        "address": "長岡京市奥海印寺坂ﾉ尻2-5",
        "lat": 34.923937,
        "lng": 135.680353
    },
    {
        "code": "A226310000615",
        "type": 16013,
        "name": "今里こども園",
        "address": "長岡京市今里北ﾉ町35-2",
        "lat": 34.935312,
        "lng": 135.694801
    },
    {
        "code": "A226310000731",
        "type": 16013,
        "name": "友岡こども園",
        "address": "長岡京市友岡3-8-18",
        "lat": 34.914422,
        "lng": 135.692104
    },
    {
        "code": "B126210002213",
        "type": 16001,
        "name": "長岡第六小学校",
        "address": "長岡京市長岡2-3-1",
        "lat": 34.92862,
        "lng": 135.690085
    },
    {
        "code": "B126210002277",
        "type": 16001,
        "name": "長岡第七小学校",
        "address": "長岡京市今里北ﾉ町35",
        "lat": 34.935675,
        "lng": 135.694196
    },
    {
        "code": "B126210002339",
        "type": 16001,
        "name": "長岡第八小学校",
        "address": "長岡京市勝竜寺29-1",
        "lat": 34.914705,
        "lng": 135.699695
    },
    {
        "code": "B126210002400",
        "type": 16001,
        "name": "長岡第九小学校",
        "address": "長岡京市東神足2-17-1",
        "lat": 34.920622,
        "lng": 135.70275
    },
    {
        "code": "B126210002419",
        "type": 16001,
        "name": "長岡第十小学校",
        "address": "長岡京市井ﾉ内玉ﾉ上22",
        "lat": 34.943869,
        "lng": 135.689419
    },
    {
        "code": "B126210002473",
        "type": 16001,
        "name": "神足小学校",
        "address": "長岡京市神足3-2-1",
        "lat": 34.922843,
        "lng": 135.696862
    },
    {
        "code": "B126210002482",
        "type": 16001,
        "name": "長法寺小学校",
        "address": "長岡京市長法寺川原谷31",
        "lat": 34.928843,
        "lng": 135.682614
    },
    {
        "code": "B126210002491",
        "type": 16001,
        "name": "長岡第三小学校",
        "address": "長岡京市今里4-5-10",
        "lat": 34.937397,
        "lng": 135.688974
    },
    {
        "code": "B126210003016",
        "type": 16001,
        "name": "長岡第四小学校",
        "address": "長岡京市友岡1-2-4",
        "lat": 34.917899,
        "lng": 135.691835
    },
    {
        "code": "B126210003043",
        "type": 16001,
        "name": "長岡第五小学校",
        "address": "長岡京市下海印寺東山1",
        "lat": 34.921204,
        "lng": 135.681642
    },
    {
        "code": "C126210000892",
        "type": 16002,
        "name": "長岡第二中学校",
        "address": "長岡京市今里5-20-1",
        "lat": 34.937536,
        "lng": 135.687752
    },
    {
        "code": "C126210000945",
        "type": 16002,
        "name": "長岡第三中学校",
        "address": "長岡京市勝竜寺28-1",
        "lat": 34.915622,
        "lng": 135.698307
    },
    {
        "code": "C126210001061",
        "type": 16002,
        "name": "長岡第四中学校",
        "address": "長岡京市下海印寺西山田1-1",
        "lat": 34.917871,
        "lng": 135.678725
    },
    {
        "code": "C126210001105",
        "type": 16002,
        "name": "長岡中学校",
        "address": "長岡京市天神4-5-1",
        "lat": 34.927704,
        "lng": 135.687224
    },
    {
        "code": "C126310000266",
        "type": 16002,
        "name": "立命館中学校",
        "address": "長岡京市調子1-25-1",
        "lat": 34.914949,
        "lng": 135.695718
    },
    {
        "code": "D126210000391",
        "type": 16004,
        "name": "西乙訓高等学校",
        "address": "長岡京市下海印寺西明寺41",
        "lat": 34.913455,
        "lng": 135.678781
    },
    {
        "code": "D126210000426",
        "type": 16004,
        "name": "乙訓高等学校",
        "address": "長岡京市友岡1-1-1",
        "lat": 34.919094,
        "lng": 135.693862
    },
    {
        "code": "D126310000415",
        "type": 16004,
        "name": "立命館高等学校",
        "address": "長岡京市調子1-25-1",
        "lat": 34.914485,
        "lng": 135.695713
    },
    {
        "code": "E126210000058",
        "type": 16012,
        "name": "向日が丘支援学校",
        "address": "長岡京市井ﾉ内朝日寺11",
        "lat": 34.939758,
        "lng": 135.685169
    },
    {
        "code": "F226310107821",
        "type": 16006,
        "name": "京都西山短期大学",
        "address": "長岡京市粟生西条26",
        "lat": 34.937731,
        "lng": 135.676364
    }
]