[
    {
        "code": "A126210000173",
        "type": 16011,
        "name": "綾部幼稚園",
        "address": "綾部市上野町上野129",
        "lat": 35.295921,
        "lng": 135.258082
    },
    {
        "code": "A126210000477",
        "type": 16011,
        "name": "八田幼稚園",
        "address": "綾部市梅迫町大野20",
        "lat": 35.347027,
        "lng": 135.314372
    },
    {
        "code": "A226310000205",
        "type": 16013,
        "name": "せんだん苑こども園",
        "address": "綾部市青野町宮ﾉ前28",
        "lat": 35.304165,
        "lng": 135.260276
    },
    {
        "code": "A226310000214",
        "type": 16013,
        "name": "せんだん苑南こども園",
        "address": "綾部市上野町上野122-1",
        "lat": 35.295741,
        "lng": 135.257234
    },
    {
        "code": "A226310000223",
        "type": 16013,
        "name": "中筋幼児園",
        "address": "綾部市大島町外山田8-14",
        "lat": 35.301634,
        "lng": 135.230936
    },
    {
        "code": "A226310000232",
        "type": 16013,
        "name": "吉美こども園",
        "address": "綾部市有岡町樋ﾉ本26",
        "lat": 35.321421,
        "lng": 135.263753
    },
    {
        "code": "A226310000241",
        "type": 16013,
        "name": "綾東こども園",
        "address": "綾部市十倉名畑町三ﾂ辻7-2",
        "lat": 35.336981,
        "lng": 135.348865
    },
    {
        "code": "A226310000562",
        "type": 16013,
        "name": "豊里幼児園",
        "address": "綾部市栗町土居ﾉ内57-1",
        "lat": 35.315494,
        "lng": 135.224
    },
    {
        "code": "B126210001802",
        "type": 16001,
        "name": "綾部小学校",
        "address": "綾部市上野町上野168",
        "lat": 35.295105,
        "lng": 135.258951
    },
    {
        "code": "B126210001811",
        "type": 16001,
        "name": "中筋小学校",
        "address": "綾部市大島町外山田8-1",
        "lat": 35.301798,
        "lng": 135.230064
    },
    {
        "code": "B126210001820",
        "type": 16001,
        "name": "物部小学校",
        "address": "綾部市物部町北前田51",
        "lat": 35.355819,
        "lng": 135.217286
    },
    {
        "code": "B126210001839",
        "type": 16001,
        "name": "志賀小学校",
        "address": "綾部市志賀郷町丁田8",
        "lat": 35.370956,
        "lng": 135.241228
    },
    {
        "code": "B126210001848",
        "type": 16001,
        "name": "西八田小学校",
        "address": "綾部市岡安町家ﾉ下10",
        "lat": 35.335739,
        "lng": 135.29178
    },
    {
        "code": "B126210001857",
        "type": 16001,
        "name": "東八田小学校",
        "address": "綾部市上杉町中島2",
        "lat": 35.354737,
        "lng": 135.313638
    },
    {
        "code": "B126210001866",
        "type": 16001,
        "name": "吉美小学校",
        "address": "綾部市有岡町田坂16",
        "lat": 35.326434,
        "lng": 135.267838
    },
    {
        "code": "B126210003365",
        "type": 16001,
        "name": "豊里小学校",
        "address": "綾部市栗町花貝2",
        "lat": 35.314644,
        "lng": 135.221715
    },
    {
        "code": "B126210003436",
        "type": 16001,
        "name": "上林小学校",
        "address": "綾部市八津合町片山17",
        "lat": 35.368766,
        "lng": 135.414355
    },
    {
        "code": "B126210003445",
        "type": 16001,
        "name": "東綾小学校",
        "address": "綾部市鷹栖町小丸山25",
        "lat": 35.29655,
        "lng": 135.314973
    },
    {
        "code": "C126210000730",
        "type": 16002,
        "name": "綾部中学校",
        "address": "綾部市宮代町明知7",
        "lat": 35.300215,
        "lng": 135.245257
    },
    {
        "code": "C126210000749",
        "type": 16002,
        "name": "何北中学校",
        "address": "綾部市物部町高倉前8",
        "lat": 35.362374,
        "lng": 135.224674
    },
    {
        "code": "C126210000758",
        "type": 16002,
        "name": "八田中学校",
        "address": "綾部市梅迫町大野20",
        "lat": 35.347404,
        "lng": 135.314277
    },
    {
        "code": "C126210000767",
        "type": 16002,
        "name": "東綾中学校",
        "address": "綾部市鷹栖町小丸山25",
        "lat": 35.296647,
        "lng": 135.314951
    },
    {
        "code": "C126210000776",
        "type": 16002,
        "name": "上林中学校",
        "address": "綾部市八津合町片山17",
        "lat": 35.36871,
        "lng": 135.414296
    },
    {
        "code": "C126210000785",
        "type": 16002,
        "name": "豊里中学校",
        "address": "綾部市豊里町三宅53",
        "lat": 35.320379,
        "lng": 135.212787
    },
    {
        "code": "D126210000300",
        "type": 16004,
        "name": "綾部高等学校",
        "address": "綾部市岡町長田18",
        "lat": 35.300688,
        "lng": 135.237425
    },
    {
        "code": "D126210000408",
        "type": 16004,
        "name": "綾部高等学校東分校",
        "address": "綾部市川糸町堀ﾉ内18",
        "lat": 35.298521,
        "lng": 135.262145
    },
    {
        "code": "H226310000406",
        "type": 16015,
        "name": "綾部経理学院",
        "address": "綾部市上延町前田1-3",
        "lat": 35.298735,
        "lng": 135.236611
    },
    {
        "code": "H226310000415",
        "type": 16015,
        "name": "綾部自動車学校",
        "address": "綾部市岡町59",
        "lat": 35.300804,
        "lng": 135.236071
    }
]