[
    {
        "code": "A126210000182",
        "type": 16011,
        "name": "東宇治幼稚園",
        "address": "宇治市五ヶ庄梅林官有地",
        "lat": 34.912441,
        "lng": 135.801689
    },
    {
        "code": "A126210000226",
        "type": 16011,
        "name": "神明幼稚園",
        "address": "宇治市宇治野神57",
        "lat": 34.881519,
        "lng": 135.794682
    },
    {
        "code": "A126210000235",
        "type": 16011,
        "name": "木幡幼稚園",
        "address": "宇治市木幡檜尾47-1",
        "lat": 34.924878,
        "lng": 135.802637
    },
    {
        "code": "A126310001090",
        "type": 16011,
        "name": "大谷幼稚園",
        "address": "宇治市木幡御蔵山39-727",
        "lat": 34.932387,
        "lng": 135.805555
    },
    {
        "code": "A126310001107",
        "type": 16011,
        "name": "こざくら幼稚園",
        "address": "宇治市宇治里尻60-14",
        "lat": 34.894976,
        "lng": 135.80112
    },
    {
        "code": "A126310001116",
        "type": 16011,
        "name": "美育学園かおり幼稚園",
        "address": "宇治市五ヶ庄戸ﾉ内50-18",
        "lat": 34.905516,
        "lng": 135.801245
    },
    {
        "code": "A126310001125",
        "type": 16011,
        "name": "小倉幼稚園",
        "address": "宇治市小倉町南堀池105",
        "lat": 34.89507,
        "lng": 135.778589
    },
    {
        "code": "A126310001170",
        "type": 16011,
        "name": "広野幼稚園",
        "address": "宇治市広野町丸山9",
        "lat": 34.874617,
        "lng": 135.784856
    },
    {
        "code": "A126310001198",
        "type": 16011,
        "name": "西小倉幼稚園",
        "address": "宇治市伊勢田町遊田12-33",
        "lat": 34.888829,
        "lng": 135.773912
    },
    {
        "code": "A126310001223",
        "type": 16011,
        "name": "みのり幼稚園",
        "address": "宇治市神明石塚65",
        "lat": 34.882477,
        "lng": 135.784839
    },
    {
        "code": "A126310001232",
        "type": 16011,
        "name": "堀池幼稚園",
        "address": "宇治市小倉町南堀池22-2",
        "lat": 34.893412,
        "lng": 135.773975
    },
    {
        "code": "A126310001241",
        "type": 16011,
        "name": "宇治幼稚園",
        "address": "宇治市小倉町中畑53",
        "lat": 34.889315,
        "lng": 135.786461
    },
    {
        "code": "A226310000250",
        "type": 16013,
        "name": "登りこども園",
        "address": "宇治市木幡赤塚8-1",
        "lat": 34.930989,
        "lng": 135.801834
    },
    {
        "code": "A226310000269",
        "type": 16013,
        "name": "第2登りこども園",
        "address": "宇治市六地蔵奈良町74-1",
        "lat": 34.933556,
        "lng": 135.797449
    },
    {
        "code": "A226310000278",
        "type": 16013,
        "name": "みんなのき三室戸こども園",
        "address": "宇治市莵道荒槇37",
        "lat": 34.895778,
        "lng": 135.807831
    },
    {
        "code": "A226310000287",
        "type": 16013,
        "name": "みんなのき黄檗こども園",
        "address": "宇治市五ヶ庄梅林72-9",
        "lat": 34.914765,
        "lng": 135.798531
    },
    {
        "code": "A226310000296",
        "type": 16013,
        "name": "南浦幼保連携型認定こども園",
        "address": "宇治市小倉町南浦62-57",
        "lat": 34.88944,
        "lng": 135.775842
    },
    {
        "code": "A226310000303",
        "type": 16013,
        "name": "南浦くすのき幼保連携型認定こども園",
        "address": "宇治市宇治蔭山10-5",
        "lat": 34.891454,
        "lng": 135.791224
    },
    {
        "code": "A226310000312",
        "type": 16013,
        "name": "いずみこども園",
        "address": "宇治市槇島町本屋敷167",
        "lat": 34.916443,
        "lng": 135.778738
    },
    {
        "code": "A226310000367",
        "type": 16013,
        "name": "登りこども園分園",
        "address": "宇治市木幡須留7-1",
        "lat": 34.924015,
        "lng": 135.812655
    },
    {
        "code": "A226310000376",
        "type": 16013,
        "name": "みんなのき黄檗こども園（分園）",
        "address": "宇治市木幡西浦38-9",
        "lat": 34.922709,
        "lng": 135.795673
    },
    {
        "code": "A226310000401",
        "type": 16013,
        "name": "ひいらぎこども園",
        "address": "宇治市神明石塚65-3",
        "lat": 34.88278,
        "lng": 135.784158
    },
    {
        "code": "A226310000571",
        "type": 16013,
        "name": "同胞こども園",
        "address": "宇治市大久保町旦椋72-2",
        "lat": 34.872334,
        "lng": 135.763605
    },
    {
        "code": "A226310000580",
        "type": 16013,
        "name": "こひつじこども園",
        "address": "宇治市小倉町堀池94-1",
        "lat": 34.898589,
        "lng": 135.774658
    },
    {
        "code": "A226310000740",
        "type": 16013,
        "name": "伊勢田こども園",
        "address": "宇治市伊勢田町ｳﾄﾛ1-6",
        "lat": 34.882766,
        "lng": 135.771179
    },
    {
        "code": "A226310000759",
        "type": 16013,
        "name": "明星っ子こども園",
        "address": "宇治市五ヶ庄芝ﾉ東19-5",
        "lat": 34.917749,
        "lng": 135.80502
    },
    {
        "code": "A226310000768",
        "type": 16013,
        "name": "槇島ひいらぎこども園",
        "address": "宇治市槇島町大川原75-1",
        "lat": 34.904883,
        "lng": 135.781105
    },
    {
        "code": "A226310001017",
        "type": 16013,
        "name": "のぞみこども園",
        "address": "宇治市槇島町薗場14-8",
        "lat": 34.896358,
        "lng": 135.799811
    },
    {
        "code": "B126210001875",
        "type": 16001,
        "name": "宇治小学校",
        "address": "宇治市五ｹ庄三番割27",
        "lat": 34.916235,
        "lng": 135.802464
    },
    {
        "code": "B126210001884",
        "type": 16001,
        "name": "笠取小学校",
        "address": "宇治市西笠取石原22",
        "lat": 34.936957,
        "lng": 135.854543
    },
    {
        "code": "B126210001893",
        "type": 16001,
        "name": "笠取第二小学校",
        "address": "宇治市炭山直谷31",
        "lat": 34.916485,
        "lng": 135.841544
    },
    {
        "code": "B126210001900",
        "type": 16001,
        "name": "菟道小学校",
        "address": "宇治市宇治塔川102",
        "lat": 34.886321,
        "lng": 135.80852
    },
    {
        "code": "B126210001919",
        "type": 16001,
        "name": "菟道第二小学校",
        "address": "宇治市宇治琵琶63-3",
        "lat": 34.88196,
        "lng": 135.798299
    },
    {
        "code": "B126210001928",
        "type": 16001,
        "name": "槇島小学校",
        "address": "宇治市槇島町吹前35",
        "lat": 34.903236,
        "lng": 135.790771
    },
    {
        "code": "B126210001937",
        "type": 16001,
        "name": "小倉小学校",
        "address": "宇治市小倉町西畑1-4",
        "lat": 34.886987,
        "lng": 135.782439
    },
    {
        "code": "B126210001946",
        "type": 16001,
        "name": "大久保小学校",
        "address": "宇治市広野町中島1-1",
        "lat": 34.87385,
        "lng": 135.783745
    },
    {
        "code": "B126210001955",
        "type": 16001,
        "name": "木幡小学校",
        "address": "宇治市木幡赤塚4",
        "lat": 34.930067,
        "lng": 135.802214
    },
    {
        "code": "B126210002151",
        "type": 16001,
        "name": "西小倉小学校",
        "address": "宇治市伊勢田町遊田69",
        "lat": 34.89207,
        "lng": 135.772217
    },
    {
        "code": "B126210002160",
        "type": 16001,
        "name": "西大久保小学校",
        "address": "宇治市大久保町旦椋25",
        "lat": 34.871823,
        "lng": 135.76658
    },
    {
        "code": "B126210002179",
        "type": 16001,
        "name": "南部小学校",
        "address": "宇治市五ヶ庄戸ﾉ内15-1",
        "lat": 34.906402,
        "lng": 135.798603
    },
    {
        "code": "B126210002188",
        "type": 16001,
        "name": "神明小学校",
        "address": "宇治市神明石塚32",
        "lat": 34.882571,
        "lng": 135.790049
    },
    {
        "code": "B126210002197",
        "type": 16001,
        "name": "御蔵山小学校",
        "address": "宇治市木幡御蔵山39-4",
        "lat": 34.930123,
        "lng": 135.810075
    },
    {
        "code": "B126210002204",
        "type": 16001,
        "name": "北小倉小学校",
        "address": "宇治市小倉町堀池72",
        "lat": 34.898541,
        "lng": 135.775661
    },
    {
        "code": "B126210002240",
        "type": 16001,
        "name": "伊勢田小学校",
        "address": "宇治市伊勢田町井尻3",
        "lat": 34.884293,
        "lng": 135.772856
    },
    {
        "code": "B126210002259",
        "type": 16001,
        "name": "岡屋小学校",
        "address": "宇治市五ヶ庄寺界道37-3",
        "lat": 34.916985,
        "lng": 135.795548
    },
    {
        "code": "B126210002286",
        "type": 16001,
        "name": "三室戸小学校",
        "address": "宇治市莵道岡谷16-2",
        "lat": 34.897237,
        "lng": 135.819713
    },
    {
        "code": "B126210002295",
        "type": 16001,
        "name": "平盛小学校",
        "address": "宇治市大久保町平盛91-3",
        "lat": 34.869962,
        "lng": 135.763942
    },
    {
        "code": "B126210002357",
        "type": 16001,
        "name": "大開小学校",
        "address": "宇治市広野町大開35",
        "lat": 34.873906,
        "lng": 135.792772
    },
    {
        "code": "B126210002375",
        "type": 16001,
        "name": "南小倉小学校",
        "address": "宇治市小倉町南浦40-1",
        "lat": 34.889598,
        "lng": 135.775022
    },
    {
        "code": "B126210002446",
        "type": 16001,
        "name": "北槇島小学校",
        "address": "宇治市槇島町本屋敷40-2",
        "lat": 34.914512,
        "lng": 135.780271
    },
    {
        "code": "C126210000794",
        "type": 16002,
        "name": "東宇治中学校",
        "address": "宇治市五ヶ庄池ﾉ浦36-1",
        "lat": 34.911624,
        "lng": 135.800826
    },
    {
        "code": "C126210000801",
        "type": 16002,
        "name": "宇治中学校",
        "address": "宇治市宇治矢落64-1",
        "lat": 34.887126,
        "lng": 135.796132
    },
    {
        "code": "C126210000810",
        "type": 16002,
        "name": "西宇治中学校",
        "address": "宇治市伊勢田町南山22-1",
        "lat": 34.879844,
        "lng": 135.775141
    },
    {
        "code": "C126210000883",
        "type": 16002,
        "name": "北宇治中学校",
        "address": "宇治市槇島町島前33",
        "lat": 34.900069,
        "lng": 135.787715
    },
    {
        "code": "C126210000909",
        "type": 16002,
        "name": "木幡中学校",
        "address": "宇治市木幡内畑34",
        "lat": 34.923678,
        "lng": 135.794937
    },
    {
        "code": "C126210000936",
        "type": 16002,
        "name": "南宇治中学校",
        "address": "宇治市大久保町平盛31-5",
        "lat": 34.869962,
        "lng": 135.766358
    },
    {
        "code": "C126210000963",
        "type": 16002,
        "name": "西小倉中学校",
        "address": "宇治市伊勢田町遊田7-1",
        "lat": 34.887904,
        "lng": 135.772106
    },
    {
        "code": "C126210001025",
        "type": 16002,
        "name": "槇島中学校",
        "address": "宇治市槇島町本屋敷35-1",
        "lat": 34.91554,
        "lng": 135.78166
    },
    {
        "code": "C126210001052",
        "type": 16002,
        "name": "広野中学校",
        "address": "宇治市広野町尖山3",
        "lat": 34.872739,
        "lng": 135.794049
    },
    {
        "code": "C126210001604",
        "type": 16002,
        "name": "黄檗中学校",
        "address": "宇治市五ヶ庄三番割27",
        "lat": 34.916487,
        "lng": 135.802878
    },
    {
        "code": "C126310000220",
        "type": 16002,
        "name": "立命館宇治中学校",
        "address": "宇治市広野町八軒屋谷33-1",
        "lat": 34.867823,
        "lng": 135.796282
    },
    {
        "code": "D126210000355",
        "type": 16004,
        "name": "東宇治高等学校",
        "address": "宇治市木幡平尾43-2",
        "lat": 34.925206,
        "lng": 135.809797
    },
    {
        "code": "D126210000417",
        "type": 16004,
        "name": "莵道高等学校",
        "address": "宇治市五ヶ庄五雲峰4-1",
        "lat": 34.90943,
        "lng": 135.815797
    },
    {
        "code": "D126210000621",
        "type": 16004,
        "name": "城南菱創高等学校",
        "address": "宇治市小倉町南堀池",
        "lat": 34.892014,
        "lng": 135.774467
    },
    {
        "code": "D126310000308",
        "type": 16004,
        "name": "立命館宇治高等学校",
        "address": "宇治市広野町八軒屋谷33-1",
        "lat": 34.868387,
        "lng": 135.796233
    },
    {
        "code": "D126310000371",
        "type": 16004,
        "name": "京都翔英高等学校",
        "address": "宇治市菟道大垣内33-10",
        "lat": 34.897598,
        "lng": 135.812158
    },
    {
        "code": "D126310000380",
        "type": 16004,
        "name": "京都芸術高等学校",
        "address": "宇治市五ヶ庄西浦6-2",
        "lat": 34.913013,
        "lng": 135.804853
    },
    {
        "code": "E126210000227",
        "type": 16012,
        "name": "宇治支援学校",
        "address": "宇治市広野町丸山10",
        "lat": 34.875567,
        "lng": 135.785503
    },
    {
        "code": "F126310107671",
        "type": 16007,
        "name": "京都文教大学",
        "address": "宇治市槙島町千足80",
        "lat": 34.914525,
        "lng": 135.784502
    },
    {
        "code": "F226310107812",
        "type": 16006,
        "name": "京都文教短期大学",
        "address": "宇治市槙島町千足80",
        "lat": 34.913846,
        "lng": 135.784521
    },
    {
        "code": "H126310000407",
        "type": 16016,
        "name": "京都福祉専門学校",
        "address": "宇治市小倉町春日森25",
        "lat": 34.901602,
        "lng": 135.782391
    }
]