[
    {
        "code": "A126210000280",
        "type": 16011,
        "name": "園部幼稚園",
        "address": "南丹市園部町小桜町44",
        "lat": 35.108096,
        "lng": 135.469636
    },
    {
        "code": "A126210000413",
        "type": 16011,
        "name": "八木中央幼稚園",
        "address": "南丹市八木町西田河原條42",
        "lat": 35.074764,
        "lng": 135.538951
    },
    {
        "code": "A126310001385",
        "type": 16011,
        "name": "聖カタリナ学園聖家族幼稚園",
        "address": "南丹市園部町美園町1-78",
        "lat": 35.102366,
        "lng": 135.473849
    },
    {
        "code": "A226310001106",
        "type": 16013,
        "name": "南丹のぞみ園",
        "address": "南丹市園部町小山東町平成台121",
        "lat": 35.099833,
        "lng": 135.483714
    },
    {
        "code": "B126210002776",
        "type": 16001,
        "name": "園部小学校",
        "address": "南丹市園部町小桜町26-2",
        "lat": 35.109115,
        "lng": 135.468476
    },
    {
        "code": "B126210002801",
        "type": 16001,
        "name": "殿田小学校",
        "address": "南丹市日吉町殿田大貝25-外",
        "lat": 35.160742,
        "lng": 135.506011
    },
    {
        "code": "B126210002810",
        "type": 16001,
        "name": "胡麻郷小学校",
        "address": "南丹市胡麻中野辺谷3-3外",
        "lat": 35.199393,
        "lng": 135.465131
    },
    {
        "code": "B126210003374",
        "type": 16001,
        "name": "園部第二小学校",
        "address": "南丹市園部町小山東町平成台278-外",
        "lat": 35.095488,
        "lng": 135.484539
    },
    {
        "code": "B126210003533",
        "type": 16001,
        "name": "八木西小学校",
        "address": "南丹市八木町八木東所15",
        "lat": 35.067201,
        "lng": 135.531577
    },
    {
        "code": "B126210003542",
        "type": 16001,
        "name": "八木東小学校",
        "address": "南丹市八木町青戸馬垣内13-1",
        "lat": 35.078475,
        "lng": 135.547095
    },
    {
        "code": "B126210003551",
        "type": 16001,
        "name": "美山小学校",
        "address": "南丹市美山町島島台52",
        "lat": 35.272511,
        "lng": 135.548687
    },
    {
        "code": "C126210001221",
        "type": 16002,
        "name": "園部中学校",
        "address": "南丹市園部町横田351",
        "lat": 35.10829,
        "lng": 135.464912
    },
    {
        "code": "C126210001230",
        "type": 16002,
        "name": "八木中学校",
        "address": "南丹市八木町八木野條1",
        "lat": 35.073009,
        "lng": 135.528921
    },
    {
        "code": "C126210001258",
        "type": 16002,
        "name": "殿田中学校",
        "address": "南丹市日吉町殿田大貝30",
        "lat": 35.1595,
        "lng": 135.506752
    },
    {
        "code": "C126210001481",
        "type": 16002,
        "name": "美山中学校",
        "address": "南丹市美山町静原桧野10-1",
        "lat": 35.276241,
        "lng": 135.550495
    },
    {
        "code": "C126210001551",
        "type": 16002,
        "name": "園部高等学校附属中学校",
        "address": "南丹市園部町小桜町97",
        "lat": 35.105194,
        "lng": 135.469403
    },
    {
        "code": "C126210001622",
        "type": 16002,
        "name": "桜が丘中学校",
        "address": "南丹市園部町栄町3-71",
        "lat": 35.099352,
        "lng": 135.471454
    },
    {
        "code": "D126210000462",
        "type": 16004,
        "name": "園部高等学校",
        "address": "南丹市園部町小桜町97",
        "lat": 35.105166,
        "lng": 135.469403
    },
    {
        "code": "D126210000569",
        "type": 16004,
        "name": "北桑田高等学校美山分校",
        "address": "南丹市美山町上平屋梁ヶ瀬9-2",
        "lat": 35.273159,
        "lng": 135.583111
    },
    {
        "code": "D126210000587",
        "type": 16004,
        "name": "京都府立農芸高等学校",
        "address": "南丹市園部町南大谷",
        "lat": 35.055821,
        "lng": 135.455001
    },
    {
        "code": "D126310000335",
        "type": 16004,
        "name": "京都聖カタリナ高等学校",
        "address": "南丹市園部町美園町1-78",
        "lat": 35.103256,
        "lng": 135.473798
    },
    {
        "code": "E126210000129",
        "type": 16012,
        "name": "丹波支援学校",
        "address": "南丹市八木町柴山坊田118",
        "lat": 35.067078,
        "lng": 135.515739
    },
    {
        "code": "F126310107653",
        "type": 16007,
        "name": "明治国際医療大学",
        "address": "南丹市日吉町保野田ﾋﾉ谷6-6",
        "lat": 35.181288,
        "lng": 135.491626
    },
    {
        "code": "F126310107706",
        "type": 16007,
        "name": "京都医療科学大学",
        "address": "南丹市園部町小山東町今北1-3",
        "lat": 35.102935,
        "lng": 135.479353
    },
    {
        "code": "H126210000034",
        "type": 16016,
        "name": "京都中部総合医療センター看護専門学校",
        "address": "南丹市八木町南広瀬上野3-1",
        "lat": 35.072739,
        "lng": 135.530549
    },
    {
        "code": "H126310000381",
        "type": 16016,
        "name": "京都建築大学校",
        "address": "南丹市園部町小山東町二本松1-17",
        "lat": 35.100138,
        "lng": 135.476914
    },
    {
        "code": "H126310000461",
        "type": 16016,
        "name": "京都伝統工芸大学校",
        "address": "南丹市園部町小山東町二本松1-1",
        "lat": 35.100567,
        "lng": 135.478781
    },
    {
        "code": "H226310000451",
        "type": 16015,
        "name": "園部安全自動車学校",
        "address": "南丹市八木町室河原大美谷48",
        "lat": 35.093792,
        "lng": 135.502448
    }
]