[
    {
        "code": "A126210000271",
        "type": 16011,
        "name": "木津幼稚園",
        "address": "木津川市木津田中前30",
        "lat": 34.732759,
        "lng": 135.809818
    },
    {
        "code": "A126210000388",
        "type": 16011,
        "name": "相楽幼稚園",
        "address": "木津川市相楽清水1",
        "lat": 34.736044,
        "lng": 135.799878
    },
    {
        "code": "A126210000431",
        "type": 16011,
        "name": "高の原幼稚園",
        "address": "木津川市兜台4-4-2",
        "lat": 34.726626,
        "lng": 135.782354
    },
    {
        "code": "A126310001456",
        "type": 16011,
        "name": "美加ノ原幼稚園",
        "address": "木津川市州見台1-31-1",
        "lat": 34.717803,
        "lng": 135.823051
    },
    {
        "code": "A226310000410",
        "type": 16013,
        "name": "藍咲学園",
        "address": "木津川市木津川台5-4-5",
        "lat": 34.742694,
        "lng": 135.78375
    },
    {
        "code": "A226310000429",
        "type": 16013,
        "name": "梅美台こども園",
        "address": "木津川市梅美台1-10",
        "lat": 34.715991,
        "lng": 135.837453
    },
    {
        "code": "A226310000438",
        "type": 16013,
        "name": "愛光こども園",
        "address": "木津川市木津清水74-7",
        "lat": 34.736051,
        "lng": 135.820897
    },
    {
        "code": "A226310000447",
        "type": 16013,
        "name": "木津さくらの森",
        "address": "木津川市相楽台4-2-5",
        "lat": 34.734522,
        "lng": 135.793905
    },
    {
        "code": "A226310000456",
        "type": 16013,
        "name": "なごみこども園",
        "address": "木津川市梅美台1-8",
        "lat": 34.714584,
        "lng": 135.840804
    },
    {
        "code": "A226310000465",
        "type": 16013,
        "name": "州見台さくら",
        "address": "木津川市州見台1-33-1",
        "lat": 34.716314,
        "lng": 135.823
    },
    {
        "code": "A226310000474",
        "type": 16013,
        "name": "愛光みのりこども園",
        "address": "木津川市城山台7-5",
        "lat": 34.733554,
        "lng": 135.836291
    },
    {
        "code": "A226310000795",
        "type": 16013,
        "name": "愛光兜台こども園",
        "address": "木津川市兜台5-1-7",
        "lat": 34.728579,
        "lng": 135.784088
    },
    {
        "code": "A226310001026",
        "type": 16013,
        "name": "幼保連携型認定こども園木津川台",
        "address": "木津川市木津川台3-6-1",
        "lat": 34.744921,
        "lng": 135.78893
    },
    {
        "code": "B126210002687",
        "type": 16001,
        "name": "棚倉小学校",
        "address": "木津川市山城町綺田局塚14",
        "lat": 34.782444,
        "lng": 135.811206
    },
    {
        "code": "B126210002696",
        "type": 16001,
        "name": "上狛小学校",
        "address": "木津川市山城町上狛学校1",
        "lat": 34.753366,
        "lng": 135.818561
    },
    {
        "code": "B126210002703",
        "type": 16001,
        "name": "相楽小学校",
        "address": "木津川市相楽清水1",
        "lat": 34.736142,
        "lng": 135.801079
    },
    {
        "code": "B126210002712",
        "type": 16001,
        "name": "木津小学校",
        "address": "木津川市木津町内垣外95",
        "lat": 34.737059,
        "lng": 135.815522
    },
    {
        "code": "B126210002721",
        "type": 16001,
        "name": "加茂小学校",
        "address": "木津川市加茂町里西上田11-1",
        "lat": 34.748372,
        "lng": 135.866697
    },
    {
        "code": "B126210002730",
        "type": 16001,
        "name": "恭仁小学校",
        "address": "木津川市例幣中切3132",
        "lat": 34.765404,
        "lng": 135.861512
    },
    {
        "code": "B126210003230",
        "type": 16001,
        "name": "南加茂台小学校",
        "address": "木津川市南加茂台12-11",
        "lat": 34.735143,
        "lng": 135.871406
    },
    {
        "code": "B126210003276",
        "type": 16001,
        "name": "高の原小学校",
        "address": "木津川市兜台4-4-1",
        "lat": 34.727309,
        "lng": 135.783248
    },
    {
        "code": "B126210003310",
        "type": 16001,
        "name": "木津川台小学校",
        "address": "木津川市木津川台2-4",
        "lat": 34.743946,
        "lng": 135.789413
    },
    {
        "code": "B126210003338",
        "type": 16001,
        "name": "相楽台小学校",
        "address": "木津川市相楽台5-17-1",
        "lat": 34.726948,
        "lng": 135.796358
    },
    {
        "code": "B126210003356",
        "type": 16001,
        "name": "梅美台小学校",
        "address": "木津川市梅美台4-26-1",
        "lat": 34.716069,
        "lng": 135.839956
    },
    {
        "code": "B126210003454",
        "type": 16001,
        "name": "州見台小学校",
        "address": "木津川市州見台1-32",
        "lat": 34.717558,
        "lng": 135.823992
    },
    {
        "code": "B126210003524",
        "type": 16001,
        "name": "城山台小学校",
        "address": "木津川市城山台6-1-1",
        "lat": 34.733007,
        "lng": 135.83809
    },
    {
        "code": "B126310000106",
        "type": 16001,
        "name": "同志社国際学院初等部",
        "address": "木津川市木津川台7-31-1",
        "lat": 34.73944,
        "lng": 135.785631
    },
    {
        "code": "C126210001169",
        "type": 16002,
        "name": "山城中学校",
        "address": "木津川市椿井柳田33",
        "lat": 34.757112,
        "lng": 135.816494
    },
    {
        "code": "C126210001178",
        "type": 16002,
        "name": "木津中学校",
        "address": "木津川市相楽高下4-8",
        "lat": 34.73617,
        "lng": 135.80494
    },
    {
        "code": "C126210001187",
        "type": 16002,
        "name": "泉川中学校",
        "address": "木津川市加茂町大野烏田75",
        "lat": 34.746354,
        "lng": 135.862903
    },
    {
        "code": "C126210001463",
        "type": 16002,
        "name": "木津第二中学校",
        "address": "木津川市兜台6-1",
        "lat": 34.729003,
        "lng": 135.785609
    },
    {
        "code": "C126210001597",
        "type": 16002,
        "name": "木津南中学校",
        "address": "木津川市州見台4-26",
        "lat": 34.718946,
        "lng": 135.831568
    },
    {
        "code": "C126210001631",
        "type": 16002,
        "name": "南陽高等学校附属中学校",
        "address": "木津川市兜台6-2",
        "lat": 34.730448,
        "lng": 135.785172
    },
    {
        "code": "D126210000444",
        "type": 16004,
        "name": "木津高等学校",
        "address": "木津川市木津内田山34",
        "lat": 34.737809,
        "lng": 135.830577
    },
    {
        "code": "D126210000596",
        "type": 16004,
        "name": "南陽高等学校",
        "address": "木津川市兜台6-2",
        "lat": 34.73067,
        "lng": 135.785164
    },
    {
        "code": "H226310000433",
        "type": 16015,
        "name": "加茂速算学校",
        "address": "木津川市加茂町美浪南77",
        "lat": 34.751211,
        "lng": 135.873142
    },
    {
        "code": "H226310000503",
        "type": 16015,
        "name": "同志社国際学院国際部",
        "address": "木津川市木津川台7-31-1",
        "lat": 34.739508,
        "lng": 135.785295
    }
]