[
    {
        "code": "A126310001394",
        "type": 16011,
        "name": "加悦聖三一幼稚園",
        "address": "与謝郡与謝野町算所519",
        "lat": 35.511405,
        "lng": 135.09468
    },
    {
        "code": "A226210000029",
        "type": 16013,
        "name": "かえでこども園",
        "address": "与謝郡与謝野町字岩滝717",
        "lat": 35.570536,
        "lng": 135.152477
    },
    {
        "code": "A226210000154",
        "type": 16013,
        "name": "かやこども園",
        "address": "与謝郡与謝野町字加悦798",
        "lat": 35.507147,
        "lng": 135.090458
    },
    {
        "code": "A226210000163",
        "type": 16013,
        "name": "のだがわこども園",
        "address": "与謝郡与謝野町字幾地1329",
        "lat": 35.531714,
        "lng": 135.09521
    },
    {
        "code": "B126210002847",
        "type": 16001,
        "name": "岩滝小学校",
        "address": "与謝郡与謝野町字岩滝443",
        "lat": 35.566572,
        "lng": 135.145317
    },
    {
        "code": "B126210002856",
        "type": 16001,
        "name": "石川小学校",
        "address": "与謝郡与謝野町石川743-2",
        "lat": 35.530936,
        "lng": 135.12318
    },
    {
        "code": "B126210002865",
        "type": 16001,
        "name": "三河内小学校",
        "address": "与謝郡与謝野町字三河内1858",
        "lat": 35.51641,
        "lng": 135.092738
    },
    {
        "code": "B126210002883",
        "type": 16001,
        "name": "市場小学校",
        "address": "与謝郡与謝野町幾地1013",
        "lat": 35.53188,
        "lng": 135.097682
    },
    {
        "code": "B126210002892",
        "type": 16001,
        "name": "山田小学校",
        "address": "与謝郡与謝野町下山田10",
        "lat": 35.539379,
        "lng": 135.117597
    },
    {
        "code": "B126210003597",
        "type": 16001,
        "name": "加悦小学校",
        "address": "与謝郡与謝野町字加悦1061",
        "lat": 35.50705,
        "lng": 135.092322
    },
    {
        "code": "C126210001301",
        "type": 16002,
        "name": "加悦中学校",
        "address": "与謝郡与謝野町加悦730",
        "lat": 35.508106,
        "lng": 135.091016
    },
    {
        "code": "C126210001310",
        "type": 16002,
        "name": "橋立中学校",
        "address": "与謝郡与謝野町字岩滝2330",
        "lat": 35.561461,
        "lng": 135.152122
    },
    {
        "code": "C126210001329",
        "type": 16002,
        "name": "江陽中学校",
        "address": "与謝郡与謝野町四辻893",
        "lat": 35.533186,
        "lng": 135.103432
    },
    {
        "code": "D126210000499",
        "type": 16004,
        "name": "加悦谷高等学校",
        "address": "与謝郡与謝野町三河内810",
        "lat": 35.524603,
        "lng": 135.09546
    },
    {
        "code": "D126210000667",
        "type": 16004,
        "name": "宮津天橋高等学校加悦谷学舎",
        "address": "与謝郡与謝野町字三河内810",
        "lat": 35.524715,
        "lng": 135.095113
    },
    {
        "code": "E126210000076",
        "type": 16012,
        "name": "与謝の海支援学校",
        "address": "与謝郡与謝野町男山945",
        "lat": 35.574646,
        "lng": 135.170444
    },
    {
        "code": "H126210000043",
        "type": 16016,
        "name": "京都府立看護学校",
        "address": "与謝郡与謝野町男山455",
        "lat": 35.570588,
        "lng": 135.165524
    },
    {
        "code": "H226310000442",
        "type": 16015,
        "name": "加悦大和女学院",
        "address": "与謝郡与謝野町字加悦456",
        "lat": 35.505367,
        "lng": 135.093872
    }
]