[
    {
        "code": "A127110000012",
        "type": 16011,
        "name": "大阪教育大学附属幼稚園",
        "address": "大阪市平野区流町2-1-79",
        "lat": 34.618066,
        "lng": 135.549543
    },
    {
        "code": "A127210000010",
        "type": 16011,
        "name": "菅南幼稚園",
        "address": "大阪市北区菅原町11-2",
        "lat": 34.693885,
        "lng": 135.509978
    },
    {
        "code": "A127210000029",
        "type": 16011,
        "name": "滝川幼稚園",
        "address": "大阪市北区天満1-24-15",
        "lat": 34.695797,
        "lng": 135.519355
    },
    {
        "code": "A127210000038",
        "type": 16011,
        "name": "桜宮幼稚園",
        "address": "大阪市都島区東野田町1-2-5",
        "lat": 34.695199,
        "lng": 135.52796
    },
    {
        "code": "A127210000047",
        "type": 16011,
        "name": "西野田幼稚園",
        "address": "大阪市福島区吉野3-17-5",
        "lat": 34.691081,
        "lng": 135.472959
    },
    {
        "code": "A127210000056",
        "type": 16011,
        "name": "貫江田幼稚園",
        "address": "大阪市福島区鷺洲5-6-18",
        "lat": 34.698753,
        "lng": 135.478675
    },
    {
        "code": "A127210000065",
        "type": 16011,
        "name": "海老江西幼稚園",
        "address": "大阪市福島区海老江8-1-28",
        "lat": 34.697872,
        "lng": 135.470062
    },
    {
        "code": "A127210000074",
        "type": 16011,
        "name": "伝法幼稚園",
        "address": "大阪市此花区伝法4-4-35",
        "lat": 34.688506,
        "lng": 135.451797
    },
    {
        "code": "A127210000083",
        "type": 16011,
        "name": "愛珠幼稚園",
        "address": "大阪市中央区今橋3-1-11",
        "lat": 34.690876,
        "lng": 135.50286
    },
    {
        "code": "A127210000092",
        "type": 16011,
        "name": "銅座幼稚園",
        "address": "大阪市中央区内久宝寺町1-1-4",
        "lat": 34.677753,
        "lng": 135.518645
    },
    {
        "code": "A127210000109",
        "type": 16011,
        "name": "玉造幼稚園",
        "address": "大阪市中央区玉造1-9-10",
        "lat": 34.675809,
        "lng": 135.530542
    },
    {
        "code": "A127210000118",
        "type": 16011,
        "name": "中大江幼稚園",
        "address": "大阪市中央区南新町2-4-8",
        "lat": 34.68483,
        "lng": 135.512187
    },
    {
        "code": "A127210000127",
        "type": 16011,
        "name": "九条幼稚園",
        "address": "大阪市西区九条2-19-18",
        "lat": 34.675883,
        "lng": 135.471971
    },
    {
        "code": "A127210000136",
        "type": 16011,
        "name": "靱幼稚園",
        "address": "大阪市西区靱本町1-19-13",
        "lat": 34.684005,
        "lng": 135.493997
    },
    {
        "code": "A127210000145",
        "type": 16011,
        "name": "日吉幼稚園",
        "address": "大阪市西区南堀江4-8-24",
        "lat": 34.67037,
        "lng": 135.482684
    },
    {
        "code": "A127210000154",
        "type": 16011,
        "name": "三先幼稚園",
        "address": "大阪市港区三先1-6-37",
        "lat": 34.660246,
        "lng": 135.455509
    },
    {
        "code": "A127210000163",
        "type": 16011,
        "name": "三軒家西幼稚園",
        "address": "大阪市大正区三軒家西1-23-23",
        "lat": 34.664426,
        "lng": 135.476501
    },
    {
        "code": "A127210000172",
        "type": 16011,
        "name": "五条幼稚園",
        "address": "大阪市天王寺区上之宮町4-4",
        "lat": 34.661338,
        "lng": 135.522006
    },
    {
        "code": "A127210000181",
        "type": 16011,
        "name": "真田山幼稚園",
        "address": "大阪市天王寺区餌差町6-13",
        "lat": 34.670329,
        "lng": 135.526958
    },
    {
        "code": "A127210000190",
        "type": 16011,
        "name": "味原幼稚園",
        "address": "大阪市天王寺区味原町5-18",
        "lat": 34.669004,
        "lng": 135.526966
    },
    {
        "code": "A127210000207",
        "type": 16011,
        "name": "大江幼稚園",
        "address": "大阪市天王寺区四天王寺1-11-108",
        "lat": 34.656222,
        "lng": 135.515257
    },
    {
        "code": "A127210000216",
        "type": 16011,
        "name": "生魂幼稚園",
        "address": "大阪市天王寺区生玉町7-4",
        "lat": 34.665632,
        "lng": 135.513643
    },
    {
        "code": "A127210000225",
        "type": 16011,
        "name": "桃園幼稚園",
        "address": "大阪市中央区谷町6-5-34",
        "lat": 34.674765,
        "lng": 135.516137
    },
    {
        "code": "A127210000234",
        "type": 16011,
        "name": "南幼稚園",
        "address": "大阪市中央区南船場3-2-19",
        "lat": 34.676925,
        "lng": 135.502499
    },
    {
        "code": "A127210000243",
        "type": 16011,
        "name": "日東幼稚園",
        "address": "大阪市浪速区日本橋東3-2-9",
        "lat": 34.657994,
        "lng": 135.507888
    },
    {
        "code": "A127210000252",
        "type": 16011,
        "name": "立葉幼稚園",
        "address": "大阪市浪速区桜川4-8-21",
        "lat": 34.666915,
        "lng": 135.484617
    },
    {
        "code": "A127210000261",
        "type": 16011,
        "name": "中大淀幼稚園",
        "address": "大阪市北区大淀中4-10-21",
        "lat": 34.703777,
        "lng": 135.482028
    },
    {
        "code": "A127210000270",
        "type": 16011,
        "name": "姫島幼稚園",
        "address": "大阪市西淀川区姫島1-13-7",
        "lat": 34.702324,
        "lng": 135.456033
    },
    {
        "code": "A127210000289",
        "type": 16011,
        "name": "野里幼稚園",
        "address": "大阪市西淀川区歌島2-5-25",
        "lat": 34.715012,
        "lng": 135.462099
    },
    {
        "code": "A127210000298",
        "type": 16011,
        "name": "大和田幼稚園",
        "address": "大阪市西淀川区大和田4-3-35",
        "lat": 34.706667,
        "lng": 135.444793
    },
    {
        "code": "A127210000305",
        "type": 16011,
        "name": "西中島幼稚園",
        "address": "大阪市淀川区西中島7-14-41",
        "lat": 34.729819,
        "lng": 135.495109
    },
    {
        "code": "A127210000314",
        "type": 16011,
        "name": "田川幼稚園",
        "address": "大阪市淀川区田川2-2-26",
        "lat": 34.721283,
        "lng": 135.473656
    },
    {
        "code": "A127210000323",
        "type": 16011,
        "name": "新高幼稚園",
        "address": "大阪市淀川区新高1-15-67",
        "lat": 34.732276,
        "lng": 135.480486
    },
    {
        "code": "A127210000332",
        "type": 16011,
        "name": "今里幼稚園",
        "address": "大阪市東成区大今里1-37-7",
        "lat": 34.671846,
        "lng": 135.543826
    },
    {
        "code": "A127210000341",
        "type": 16011,
        "name": "東中本幼稚園",
        "address": "大阪市東成区東中本2-9-3",
        "lat": 34.678439,
        "lng": 135.545161
    },
    {
        "code": "A127210000350",
        "type": 16011,
        "name": "北中道幼稚園",
        "address": "大阪市東成区中道2-2-19",
        "lat": 34.680706,
        "lng": 135.538057
    },
    {
        "code": "A127210000369",
        "type": 16011,
        "name": "東小橋幼稚園",
        "address": "大阪市東成区東小橋2-6-2",
        "lat": 34.669668,
        "lng": 135.533357
    },
    {
        "code": "A127210000378",
        "type": 16011,
        "name": "鶴橋幼稚園",
        "address": "大阪市生野区桃谷2-20-14",
        "lat": 34.65953,
        "lng": 135.532671
    },
    {
        "code": "A127210000387",
        "type": 16011,
        "name": "旭東幼稚園",
        "address": "大阪市旭区新森7-5-5",
        "lat": 34.718933,
        "lng": 135.564687
    },
    {
        "code": "A127210000396",
        "type": 16011,
        "name": "鯰江幼稚園",
        "address": "大阪市城東区今福西3-7-17",
        "lat": 34.701329,
        "lng": 135.547845
    },
    {
        "code": "A127210000403",
        "type": 16011,
        "name": "城東幼稚園",
        "address": "大阪市城東区鴫野東3-13-6",
        "lat": 34.690522,
        "lng": 135.547417
    },
    {
        "code": "A127210000412",
        "type": 16011,
        "name": "榎本幼稚園",
        "address": "大阪市鶴見区今津北1-5-35",
        "lat": 34.695689,
        "lng": 135.569148
    },
    {
        "code": "A127210000421",
        "type": 16011,
        "name": "常盤幼稚園",
        "address": "大阪市阿倍野区松崎町3-11-35",
        "lat": 34.641423,
        "lng": 135.516331
    },
    {
        "code": "A127210000430",
        "type": 16011,
        "name": "粉浜幼稚園",
        "address": "大阪市住之江区粉浜1-21-11",
        "lat": 34.619762,
        "lng": 135.48976
    },
    {
        "code": "A127210000449",
        "type": 16011,
        "name": "住吉幼稚園",
        "address": "大阪市住吉区帝塚山西4-2-37",
        "lat": 34.616927,
        "lng": 135.496776
    },
    {
        "code": "A127210000458",
        "type": 16011,
        "name": "墨江幼稚園",
        "address": "大阪市住吉区墨江2-3-17",
        "lat": 34.607733,
        "lng": 135.496229
    },
    {
        "code": "A127210000467",
        "type": 16011,
        "name": "長吉幼稚園",
        "address": "大阪市平野区長吉長原1-10-3",
        "lat": 34.607173,
        "lng": 135.570864
    },
    {
        "code": "A127210000476",
        "type": 16011,
        "name": "長吉第二幼稚園",
        "address": "大阪市平野区長吉長原東3-12-47",
        "lat": 34.601702,
        "lng": 135.578846
    },
    {
        "code": "A127210000485",
        "type": 16011,
        "name": "瓜破北幼稚園",
        "address": "大阪市平野区瓜破1-9-12",
        "lat": 34.604601,
        "lng": 135.551371
    },
    {
        "code": "A127210000494",
        "type": 16011,
        "name": "六反幼稚園",
        "address": "大阪市平野区長吉六反5-3-32",
        "lat": 34.605925,
        "lng": 135.586382
    },
    {
        "code": "A127210000500",
        "type": 16011,
        "name": "加美北幼稚園",
        "address": "大阪市平野区加美北4-1-14",
        "lat": 34.640044,
        "lng": 135.558644
    },
    {
        "code": "A127210000519",
        "type": 16011,
        "name": "玉出幼稚園",
        "address": "大阪市西成区玉出中2-13-29",
        "lat": 34.624245,
        "lng": 135.49244
    },
    {
        "code": "A127210000528",
        "type": 16011,
        "name": "天下茶屋幼稚園",
        "address": "大阪市西成区聖天下1-10-34",
        "lat": 34.637708,
        "lng": 135.501611
    },
    {
        "code": "A127310000018",
        "type": 16011,
        "name": "扇町同胞幼稚園",
        "address": "大阪市北区神山町9-19",
        "lat": 34.703778,
        "lng": 135.504992
    },
    {
        "code": "A127310000027",
        "type": 16011,
        "name": "高倉幼稚園",
        "address": "大阪市都島区高倉町1-13-22",
        "lat": 34.714641,
        "lng": 135.530898
    },
    {
        "code": "A127310000036",
        "type": 16011,
        "name": "育生幼稚園",
        "address": "大阪市都島区都島南通2-2-15",
        "lat": 34.701276,
        "lng": 135.532393
    },
    {
        "code": "A127310000045",
        "type": 16011,
        "name": "都島中野幼稚園",
        "address": "大阪市都島区中野町4-20-45",
        "lat": 34.704908,
        "lng": 135.523262
    },
    {
        "code": "A127310000054",
        "type": 16011,
        "name": "淀川幼稚園",
        "address": "大阪市都島区大東町2-5-28",
        "lat": 34.723882,
        "lng": 135.527582
    },
    {
        "code": "A127310000063",
        "type": 16011,
        "name": "下福島幼稚園",
        "address": "大阪市福島区玉川1-4-5",
        "lat": 34.688822,
        "lng": 135.482456
    },
    {
        "code": "A127310000072",
        "type": 16011,
        "name": "福島幼稚園",
        "address": "大阪市福島区福島2-8-1",
        "lat": 34.695119,
        "lng": 135.487071
    },
    {
        "code": "A127310000081",
        "type": 16011,
        "name": "愛輝幼稚園",
        "address": "大阪市福島区福島7-19-16",
        "lat": 34.700044,
        "lng": 135.485016
    },
    {
        "code": "A127310000090",
        "type": 16011,
        "name": "大開幼稚園",
        "address": "大阪市福島区大開1-18-15",
        "lat": 34.694031,
        "lng": 135.470945
    },
    {
        "code": "A127310000107",
        "type": 16011,
        "name": "梅香幼稚園",
        "address": "大阪市此花区梅香3-3-6",
        "lat": 34.681068,
        "lng": 135.455461
    },
    {
        "code": "A127310000116",
        "type": 16011,
        "name": "春日出幼稚園",
        "address": "大阪市此花区春日出北2-8-24",
        "lat": 34.682169,
        "lng": 135.44917
    },
    {
        "code": "A127310000125",
        "type": 16011,
        "name": "朝日橋幼稚園",
        "address": "大阪市此花区西九条5-4-40",
        "lat": 34.684215,
        "lng": 135.46408
    },
    {
        "code": "A127310000134",
        "type": 16011,
        "name": "中央なにわ幼稚園",
        "address": "大阪市中央区粉川町7-6",
        "lat": 34.6783,
        "lng": 135.51247
    },
    {
        "code": "A127310000143",
        "type": 16011,
        "name": "川口聖マリア幼稚園",
        "address": "大阪市西区川口3-5-31",
        "lat": 34.681472,
        "lng": 135.47859
    },
    {
        "code": "A127310000152",
        "type": 16011,
        "name": "福音幼稚園",
        "address": "大阪市西区九条南2-13-8",
        "lat": 34.672339,
        "lng": 135.473688
    },
    {
        "code": "A127310000161",
        "type": 16011,
        "name": "文化幼稚園",
        "address": "大阪市港区市岡元町2-1-28",
        "lat": 34.668245,
        "lng": 135.468749
    },
    {
        "code": "A127310000170",
        "type": 16011,
        "name": "みなと幼稚園",
        "address": "大阪市港区市岡1-3-29",
        "lat": 34.663562,
        "lng": 135.463142
    },
    {
        "code": "A127310000189",
        "type": 16011,
        "name": "昭和幼稚園",
        "address": "大阪市大正区泉尾1-37-1",
        "lat": 34.661093,
        "lng": 135.471899
    },
    {
        "code": "A127310000198",
        "type": 16011,
        "name": "昭光幼稚園",
        "address": "大阪市大正区南恩加島1-12-39",
        "lat": 34.634508,
        "lng": 135.472953
    },
    {
        "code": "A127310000205",
        "type": 16011,
        "name": "南恩加島幼稚園",
        "address": "大阪市大正区平尾5-7-7",
        "lat": 34.638979,
        "lng": 135.470917
    },
    {
        "code": "A127310000214",
        "type": 16011,
        "name": "北恩加島幼稚園",
        "address": "大阪市大正区泉尾5-17-31",
        "lat": 34.653654,
        "lng": 135.468485
    },
    {
        "code": "A127310000223",
        "type": 16011,
        "name": "大阪芸術大学附属松ヶ鼻幼稚園",
        "address": "大阪市天王寺区松ｹ鼻町4-4",
        "lat": 34.660436,
        "lng": 135.524286
    },
    {
        "code": "A127310000232",
        "type": 16011,
        "name": "天王寺幼稚園",
        "address": "大阪市天王寺区北河堀町1-13",
        "lat": 34.649947,
        "lng": 135.518707
    },
    {
        "code": "A127310000241",
        "type": 16011,
        "name": "真生幼稚園",
        "address": "大阪市天王寺区真法院町15-15",
        "lat": 34.656756,
        "lng": 135.520467
    },
    {
        "code": "A127310000250",
        "type": 16011,
        "name": "パドマ幼稚園",
        "address": "大阪市天王寺区下寺町1-1-30",
        "lat": 34.666113,
        "lng": 135.511618
    },
    {
        "code": "A127310000269",
        "type": 16011,
        "name": "日本橋幼稚園",
        "address": "大阪市浪速区難波中2-7-5",
        "lat": 34.661363,
        "lng": 135.503802
    },
    {
        "code": "A127310000278",
        "type": 16011,
        "name": "中津相愛幼稚園",
        "address": "大阪市北区中津3-6-15",
        "lat": 34.710838,
        "lng": 135.494193
    },
    {
        "code": "A127310000287",
        "type": 16011,
        "name": "大淀幼稚園",
        "address": "大阪市北区長柄西2-5-22",
        "lat": 34.716627,
        "lng": 135.513055
    },
    {
        "code": "A127310000296",
        "type": 16011,
        "name": "佃幼稚園",
        "address": "大阪市西淀川区佃2-8-2",
        "lat": 34.713678,
        "lng": 135.446109
    },
    {
        "code": "A127310000303",
        "type": 16011,
        "name": "大阪東邦幼稚園",
        "address": "大阪市淀川区木川西2-1-19",
        "lat": 34.722861,
        "lng": 135.490465
    },
    {
        "code": "A127310000312",
        "type": 16011,
        "name": "ひかり幼稚園",
        "address": "大阪市淀川区新北野3-10-4",
        "lat": 34.714803,
        "lng": 135.474564
    },
    {
        "code": "A127310000321",
        "type": 16011,
        "name": "木川幼稚園",
        "address": "大阪市淀川区木川西2-8-4",
        "lat": 34.723667,
        "lng": 135.489727
    },
    {
        "code": "A127310000330",
        "type": 16011,
        "name": "みくにひじり幼稚園",
        "address": "大阪市淀川区西三国3-17-32",
        "lat": 34.739924,
        "lng": 135.486108
    },
    {
        "code": "A127310000349",
        "type": 16011,
        "name": "三津屋青葉幼稚園",
        "address": "大阪市淀川区三津屋南2-4-4",
        "lat": 34.726576,
        "lng": 135.474663
    },
    {
        "code": "A127310000358",
        "type": 16011,
        "name": "みつや・めぐみ幼稚園",
        "address": "大阪市淀川区三津屋南1-16-33",
        "lat": 34.726881,
        "lng": 135.474876
    },
    {
        "code": "A127310000367",
        "type": 16011,
        "name": "アケミ幼稚園",
        "address": "大阪市淀川区野中南1-1-3",
        "lat": 34.726058,
        "lng": 135.485494
    },
    {
        "code": "A127310000376",
        "type": 16011,
        "name": "塚本幼稚園幼児教育学園",
        "address": "大阪市淀川区塚本1-6-25",
        "lat": 34.7126,
        "lng": 135.472851
    },
    {
        "code": "A127310000385",
        "type": 16011,
        "name": "小松幼稚園",
        "address": "大阪市東淀川区小松3-5-15",
        "lat": 34.752023,
        "lng": 135.538056
    },
    {
        "code": "A127310000394",
        "type": 16011,
        "name": "菅原天満幼稚園",
        "address": "大阪市東淀川区菅原2-3-27",
        "lat": 34.737772,
        "lng": 135.529195
    },
    {
        "code": "A127310000401",
        "type": 16011,
        "name": "美鳩幼稚園",
        "address": "大阪市東淀川区瑞光1-11-10",
        "lat": 34.748817,
        "lng": 135.533697
    },
    {
        "code": "A127310000410",
        "type": 16011,
        "name": "瑞光幼稚園",
        "address": "大阪市東淀川区瑞光4-6-7",
        "lat": 34.752539,
        "lng": 135.547622
    },
    {
        "code": "A127310000429",
        "type": 16011,
        "name": "瑞光第二幼稚園",
        "address": "大阪市東淀川区北江口2-15-13",
        "lat": 34.75988,
        "lng": 135.545137
    },
    {
        "code": "A127310000447",
        "type": 16011,
        "name": "豊里幼稚園",
        "address": "大阪市東淀川区豊里2-6-10",
        "lat": 34.738227,
        "lng": 135.539008
    },
    {
        "code": "A127310000456",
        "type": 16011,
        "name": "聖美幼稚園",
        "address": "大阪市東成区大今里南2-13-22",
        "lat": 34.66558,
        "lng": 135.546989
    },
    {
        "code": "A127310000465",
        "type": 16011,
        "name": "熊野幼稚園",
        "address": "大阪市東成区大今里4-16-23",
        "lat": 34.66856,
        "lng": 135.54886
    },
    {
        "code": "A127310000474",
        "type": 16011,
        "name": "中川幼稚園",
        "address": "大阪市生野区中川3-7-18",
        "lat": 34.658867,
        "lng": 135.545795
    },
    {
        "code": "A127310000483",
        "type": 16011,
        "name": "巽幼稚園",
        "address": "大阪市生野区巽東4-8-28",
        "lat": 34.646742,
        "lng": 135.558095
    },
    {
        "code": "A127310000492",
        "type": 16011,
        "name": "大東幼稚園",
        "address": "大阪市生野区小路東2-16-14",
        "lat": 34.661356,
        "lng": 135.558541
    },
    {
        "code": "A127310000508",
        "type": 16011,
        "name": "白菊幼稚園",
        "address": "大阪市生野区巽北2-5-24",
        "lat": 34.653806,
        "lng": 135.549787
    },
    {
        "code": "A127310000517",
        "type": 16011,
        "name": "新森幼稚園",
        "address": "大阪市旭区新森3-3-35",
        "lat": 34.719971,
        "lng": 135.552635
    },
    {
        "code": "A127310000526",
        "type": 16011,
        "name": "旭学園幼稚園",
        "address": "大阪市旭区赤川2-12-8",
        "lat": 34.724457,
        "lng": 135.534056
    },
    {
        "code": "A127310000535",
        "type": 16011,
        "name": "東高殿幼稚園",
        "address": "大阪市旭区高殿6-6-17",
        "lat": 34.716847,
        "lng": 135.545358
    },
    {
        "code": "A127310000544",
        "type": 16011,
        "name": "大宮幼稚園",
        "address": "大阪市旭区中宮3-15-10",
        "lat": 34.72622,
        "lng": 135.544009
    },
    {
        "code": "A127310000553",
        "type": 16011,
        "name": "あけのほし幼稚園",
        "address": "大阪市旭区太子橋1-1-27",
        "lat": 34.729967,
        "lng": 135.551291
    },
    {
        "code": "A127310000562",
        "type": 16011,
        "name": "千寿幼稚園",
        "address": "大阪市旭区清水3-3-16",
        "lat": 34.724177,
        "lng": 135.556424
    },
    {
        "code": "A127310000571",
        "type": 16011,
        "name": "西高殿若葉幼稚園",
        "address": "大阪市旭区高殿4-6-12",
        "lat": 34.714791,
        "lng": 135.541992
    },
    {
        "code": "A127310000580",
        "type": 16011,
        "name": "赤川幼稚園",
        "address": "大阪市旭区赤川4-22-31",
        "lat": 34.728442,
        "lng": 135.530259
    },
    {
        "code": "A127310000599",
        "type": 16011,
        "name": "放出幼稚園",
        "address": "大阪市城東区放出西3-5-16",
        "lat": 34.690258,
        "lng": 135.556341
    },
    {
        "code": "A127310000606",
        "type": 16011,
        "name": "全愛幼稚園",
        "address": "大阪市城東区鴫野西3-6-2",
        "lat": 34.693918,
        "lng": 135.539282
    },
    {
        "code": "A127310000615",
        "type": 16011,
        "name": "蒲生幼稚園",
        "address": "大阪市城東区蒲生4-13-9",
        "lat": 34.698971,
        "lng": 135.545278
    },
    {
        "code": "A127310000624",
        "type": 16011,
        "name": "野江幼稚園",
        "address": "大阪市城東区成育3-4-20",
        "lat": 34.708142,
        "lng": 135.541812
    },
    {
        "code": "A127310000633",
        "type": 16011,
        "name": "中浜幼稚園",
        "address": "大阪市城東区中浜2-11-41",
        "lat": 34.684667,
        "lng": 135.543292
    },
    {
        "code": "A127310000642",
        "type": 16011,
        "name": "念法幼稚園",
        "address": "大阪市鶴見区緑3-3-18",
        "lat": 34.713867,
        "lng": 135.564309
    },
    {
        "code": "A127310000651",
        "type": 16011,
        "name": "諸口幼稚園",
        "address": "大阪市鶴見区諸口3-3-66",
        "lat": 34.70206,
        "lng": 135.577067
    },
    {
        "code": "A127310000660",
        "type": 16011,
        "name": "鶴見幼稚園",
        "address": "大阪市鶴見区鶴見4-9-17",
        "lat": 34.703562,
        "lng": 135.561607
    },
    {
        "code": "A127310000679",
        "type": 16011,
        "name": "鶴見菊水幼稚園",
        "address": "大阪市鶴見区鶴見2-5-15",
        "lat": 34.699985,
        "lng": 135.562402
    },
    {
        "code": "A127310000688",
        "type": 16011,
        "name": "三愛幼稚園",
        "address": "大阪市鶴見区今津中4-3-13",
        "lat": 34.691667,
        "lng": 135.576811
    },
    {
        "code": "A127310000697",
        "type": 16011,
        "name": "長池昭和幼稚園",
        "address": "大阪市阿倍野区桃ヶ池町1-11-29",
        "lat": 34.629814,
        "lng": 135.51914
    },
    {
        "code": "A127310000704",
        "type": 16011,
        "name": "赤橋幼稚園",
        "address": "大阪市阿倍野区相生通2-6-2",
        "lat": 34.631058,
        "lng": 135.502542
    },
    {
        "code": "A127310000713",
        "type": 16011,
        "name": "聖愛幼稚園",
        "address": "大阪市阿倍野区丸山通1-3-61",
        "lat": 34.637016,
        "lng": 135.506744
    },
    {
        "code": "A127310000722",
        "type": 16011,
        "name": "あべの幼稚園",
        "address": "大阪市阿倍野区北畠3-7-5",
        "lat": 34.628334,
        "lng": 135.499767
    },
    {
        "code": "A127310000731",
        "type": 16011,
        "name": "南大阪幼稚園",
        "address": "大阪市阿倍野区阪南町1-30-5",
        "lat": 34.635433,
        "lng": 135.515501
    },
    {
        "code": "A127310000740",
        "type": 16011,
        "name": "鶴ケ丘幼稚園",
        "address": "大阪市阿倍野区西田辺町2-2-10",
        "lat": 34.617793,
        "lng": 135.515838
    },
    {
        "code": "A127310000759",
        "type": 16011,
        "name": "むつみこども園",
        "address": "大阪市阿倍野区阪南町3-22-8",
        "lat": 34.628914,
        "lng": 135.511782
    },
    {
        "code": "A127310000768",
        "type": 16011,
        "name": "松虫幼稚園",
        "address": "大阪市阿倍野区王子町2-5-13",
        "lat": 34.63303,
        "lng": 135.510216
    },
    {
        "code": "A127310000777",
        "type": 16011,
        "name": "加賀幼稚園",
        "address": "大阪市住之江区中加賀屋4-4-81",
        "lat": 34.614005,
        "lng": 135.479166
    },
    {
        "code": "A127310000786",
        "type": 16011,
        "name": "大和幼稚園",
        "address": "大阪市住之江区北島3-3-11",
        "lat": 34.601002,
        "lng": 135.479696
    },
    {
        "code": "A127310000795",
        "type": 16011,
        "name": "中かがや幼稚園",
        "address": "大阪市住之江区中加賀屋2-18-5",
        "lat": 34.617374,
        "lng": 135.479336
    },
    {
        "code": "A127310000802",
        "type": 16011,
        "name": "南港幼稚園",
        "address": "大阪市住之江区南港中2-5-55",
        "lat": 34.628821,
        "lng": 135.42894
    },
    {
        "code": "A127310000811",
        "type": 16011,
        "name": "遠里小野幼稚園",
        "address": "大阪市住吉区遠里小野1-2-25",
        "lat": 34.600623,
        "lng": 135.499154
    },
    {
        "code": "A127310000820",
        "type": 16011,
        "name": "清水幼稚園",
        "address": "大阪市住吉区清水丘1-24-10",
        "lat": 34.603536,
        "lng": 135.491374
    },
    {
        "code": "A127310000839",
        "type": 16011,
        "name": "長居幼稚園",
        "address": "大阪市住吉区長居東3-8-32",
        "lat": 34.607658,
        "lng": 135.517135
    },
    {
        "code": "A127310000848",
        "type": 16011,
        "name": "東粉浜幼稚園",
        "address": "大阪市住吉区東粉浜2-11-14",
        "lat": 34.619726,
        "lng": 135.493629
    },
    {
        "code": "A127310000857",
        "type": 16011,
        "name": "万代幼稚園",
        "address": "大阪市住吉区万代3-6-15",
        "lat": 34.620473,
        "lng": 135.504022
    },
    {
        "code": "A127310000866",
        "type": 16011,
        "name": "ひまわり幼稚園",
        "address": "大阪市住吉区苅田5-17-25",
        "lat": 34.601267,
        "lng": 135.514399
    },
    {
        "code": "A127310000875",
        "type": 16011,
        "name": "あびこ幼稚園",
        "address": "大阪市住吉区南住吉4-1-25",
        "lat": 34.603042,
        "lng": 135.504525
    },
    {
        "code": "A127310000884",
        "type": 16011,
        "name": "よさみ幼稚園",
        "address": "大阪市住吉区我孫子2-10-5",
        "lat": 34.603584,
        "lng": 135.508336
    },
    {
        "code": "A127310000893",
        "type": 16011,
        "name": "愛児幼稚園",
        "address": "大阪市住吉区長居西3-1-14",
        "lat": 34.609012,
        "lng": 135.507765
    },
    {
        "code": "A127310000900",
        "type": 16011,
        "name": "大阪芸術大学附属照ケ丘幼稚園",
        "address": "大阪市東住吉区矢田2-18-16",
        "lat": 34.608605,
        "lng": 135.532811
    },
    {
        "code": "A127310000919",
        "type": 16011,
        "name": "育和学園幼稚園",
        "address": "大阪市東住吉区西今川1-19-2",
        "lat": 34.632775,
        "lng": 135.533616
    },
    {
        "code": "A127310000928",
        "type": 16011,
        "name": "プール幼稚園",
        "address": "大阪市東住吉区矢田3-2-18",
        "lat": 34.604986,
        "lng": 135.527398
    },
    {
        "code": "A127310000937",
        "type": 16011,
        "name": "育和学園生長幼稚園",
        "address": "大阪市東住吉区山坂4-16-16",
        "lat": 34.618343,
        "lng": 135.520318
    },
    {
        "code": "A127310000946",
        "type": 16011,
        "name": "二葉幼稚園",
        "address": "大阪市東住吉区北田辺6-14-26",
        "lat": 34.629619,
        "lng": 135.526299
    },
    {
        "code": "A127310000955",
        "type": 16011,
        "name": "中野幼稚園",
        "address": "大阪市東住吉区湯里1-13-6",
        "lat": 34.616199,
        "lng": 135.534708
    },
    {
        "code": "A127310000964",
        "type": 16011,
        "name": "田辺幼稚園",
        "address": "大阪市東住吉区山坂1-19-24",
        "lat": 34.626253,
        "lng": 135.521829
    },
    {
        "code": "A127310000973",
        "type": 16011,
        "name": "第二すみれ幼稚園",
        "address": "大阪市東住吉区杭全2-11-23",
        "lat": 34.636997,
        "lng": 135.537038
    },
    {
        "code": "A127310000982",
        "type": 16011,
        "name": "平和幼稚園",
        "address": "大阪市東住吉区田辺4-13-9",
        "lat": 34.623087,
        "lng": 135.526309
    },
    {
        "code": "A127310000991",
        "type": 16011,
        "name": "さつき幼稚園",
        "address": "大阪市東住吉区西今川2-4-12",
        "lat": 34.628842,
        "lng": 135.531461
    },
    {
        "code": "A127310001008",
        "type": 16011,
        "name": "喜連東幼稚園",
        "address": "大阪市平野区喜連東5-1-63",
        "lat": 34.611145,
        "lng": 135.562228
    },
    {
        "code": "A127310001017",
        "type": 16011,
        "name": "常磐会幼稚園",
        "address": "大阪市平野区流町2-2-28",
        "lat": 34.61833,
        "lng": 135.551937
    },
    {
        "code": "A127310001026",
        "type": 16011,
        "name": "東平野幼稚園",
        "address": "大阪市平野区平野東1-7-41",
        "lat": 34.623995,
        "lng": 135.558389
    },
    {
        "code": "A127310001035",
        "type": 16011,
        "name": "光源寺幼稚園",
        "address": "大阪市平野区平野本町4-11-5",
        "lat": 34.622871,
        "lng": 135.554407
    },
    {
        "code": "A127310001044",
        "type": 16011,
        "name": "西平野幼稚園",
        "address": "大阪市平野区平野上町1-2-2",
        "lat": 34.628798,
        "lng": 135.549157
    },
    {
        "code": "A127310001053",
        "type": 16011,
        "name": "岸の里幼稚園",
        "address": "大阪市西成区千本南1-10-26",
        "lat": 34.631183,
        "lng": 135.48979
    },
    {
        "code": "A127310001062",
        "type": 16011,
        "name": "住の江幼稚園",
        "address": "大阪市住之江区南港中4-4-32",
        "lat": 34.633837,
        "lng": 135.42311
    },
    {
        "code": "A127310003006",
        "type": 16011,
        "name": "開成幼稚園幼児教育学園",
        "address": "大阪市住之江区南港中5-2-44",
        "lat": 34.63553,
        "lng": 135.420385
    },
    {
        "code": "A127310003097",
        "type": 16011,
        "name": "アスール幼稚園",
        "address": "大阪市住之江区南港中3-7-1",
        "lat": 34.627551,
        "lng": 135.425852
    },
    {
        "code": "A127310003257",
        "type": 16011,
        "name": "朝陽幼稚園",
        "address": "大阪市阿倍野区橋本町6-16",
        "lat": 34.633305,
        "lng": 135.503664
    },
    {
        "code": "A127310003266",
        "type": 16011,
        "name": "太成学院天満幼稚園",
        "address": "大阪市北区与力町4-16",
        "lat": 34.701489,
        "lng": 135.513622
    },
    {
        "code": "A127310003275",
        "type": 16011,
        "name": "城星学園幼稚園",
        "address": "大阪市中央区玉造2-23-26",
        "lat": 34.678772,
        "lng": 135.527989
    },
    {
        "code": "A127310003284",
        "type": 16011,
        "name": "大阪成蹊短期大学附属こみち幼稚園",
        "address": "大阪市東淀川区井高野4-8-8",
        "lat": 34.767759,
        "lng": 135.549768
    },
    {
        "code": "A127310003293",
        "type": 16011,
        "name": "大阪信愛学院幼稚園",
        "address": "大阪市城東区古市2-7-30",
        "lat": 34.711162,
        "lng": 135.557766
    },
    {
        "code": "A127310003300",
        "type": 16011,
        "name": "帝塚山学院幼稚園",
        "address": "大阪市住吉区帝塚山中3-9-2",
        "lat": 34.619921,
        "lng": 135.499714
    },
    {
        "code": "A127310003319",
        "type": 16011,
        "name": "あべの翔学高等学校附属朝陽幼稚園",
        "address": "大阪市阿倍野区天王寺町南2-26-32",
        "lat": 34.641771,
        "lng": 135.525195
    },
    {
        "code": "A127310003328",
        "type": 16011,
        "name": "城南学園幼稚園",
        "address": "大阪市東住吉区湯里6-4-26",
        "lat": 34.608627,
        "lng": 135.537736
    },
    {
        "code": "A127310003346",
        "type": 16011,
        "name": "夕陽丘幼稚園",
        "address": "大阪市天王寺区夕陽丘町5-14",
        "lat": 34.660777,
        "lng": 135.516779
    },
    {
        "code": "A127310003382",
        "type": 16011,
        "name": "建国幼稚園",
        "address": "大阪市住吉区遠里小野2-3-13",
        "lat": 34.597525,
        "lng": 135.499641
    },
    {
        "code": "A227310000017",
        "type": 16013,
        "name": "都島児童センター",
        "address": "大阪市都島区都島本通3-4-3",
        "lat": 34.7066,
        "lng": 135.529165
    },
    {
        "code": "A227310000026",
        "type": 16013,
        "name": "東野田ちどり保育園",
        "address": "大阪市都島区東野田町4-15-20",
        "lat": 34.700536,
        "lng": 135.528619
    },
    {
        "code": "A227310000035",
        "type": 16013,
        "name": "友渕児童センター",
        "address": "大阪市都島区友渕町1-3-141",
        "lat": 34.718843,
        "lng": 135.525499
    },
    {
        "code": "A227310000044",
        "type": 16013,
        "name": "内代まつのはな保育園",
        "address": "大阪市都島区都島北通2-9-16",
        "lat": 34.709636,
        "lng": 135.534469
    },
    {
        "code": "A227310000053",
        "type": 16013,
        "name": "友渕児童センター分園",
        "address": "大阪市都島区友渕町1-6-3",
        "lat": 34.718834,
        "lng": 135.525518
    },
    {
        "code": "A227310000062",
        "type": 16013,
        "name": "海西ひばりこども園",
        "address": "大阪市福島区海老江8-13-21",
        "lat": 34.69574,
        "lng": 135.468184
    },
    {
        "code": "A227310000071",
        "type": 16013,
        "name": "海西ひばりこども園分園ベビーセンター",
        "address": "大阪市福島区海老江3-3-18",
        "lat": 34.697946,
        "lng": 135.47585
    },
    {
        "code": "A227310000080",
        "type": 16013,
        "name": "玉川ひばりこども園",
        "address": "大阪市福島区玉川1-6-2",
        "lat": 34.689529,
        "lng": 135.481045
    },
    {
        "code": "A227310000099",
        "type": 16013,
        "name": "玉川ひばりこども園玉川キッズステーション",
        "address": "大阪市福島区玉川4-6-17",
        "lat": 34.690306,
        "lng": 135.478196
    },
    {
        "code": "A227310000106",
        "type": 16013,
        "name": "和光園",
        "address": "大阪市福島区鷺洲2‐14‐1",
        "lat": 34.698691,
        "lng": 135.482554
    },
    {
        "code": "A227310000115",
        "type": 16013,
        "name": "あけぼのほりえこども園",
        "address": "大阪市西区北堀江4-2-10",
        "lat": 34.674477,
        "lng": 135.486497
    },
    {
        "code": "A227310000124",
        "type": 16013,
        "name": "幼保連携型認定こども園ファミリーチシマ",
        "address": "大阪市大正区千島3-16-2",
        "lat": 34.64902,
        "lng": 135.469853
    },
    {
        "code": "A227310000133",
        "type": 16013,
        "name": "うえしおキンダースクール",
        "address": "大阪市天王寺区上汐3‐4‐9",
        "lat": 34.664434,
        "lng": 135.517183
    },
    {
        "code": "A227310000142",
        "type": 16013,
        "name": "光の園幼稚園",
        "address": "大阪市西淀川区大和田5-17-6",
        "lat": 34.708065,
        "lng": 135.44267
    },
    {
        "code": "A227310000151",
        "type": 16013,
        "name": "御幣島幼稚園",
        "address": "大阪市西淀川区御幣島4-15-23",
        "lat": 34.718083,
        "lng": 135.455197
    },
    {
        "code": "A227310000160",
        "type": 16013,
        "name": "幼保連携型認定こども園あすなろ",
        "address": "大阪市東淀川区東淡路2-7-5",
        "lat": 34.736514,
        "lng": 135.517005
    },
    {
        "code": "A227310000179",
        "type": 16013,
        "name": "聖愛園",
        "address": "大阪市東淀川区東淡路2-7-5",
        "lat": 34.73668,
        "lng": 135.516977
    },
    {
        "code": "A227310000188",
        "type": 16013,
        "name": "豊新聖愛園",
        "address": "大阪市東淀川区豊新3-25-5",
        "lat": 34.74606,
        "lng": 135.532557
    },
    {
        "code": "A227310000197",
        "type": 16013,
        "name": "深江幼稚園",
        "address": "大阪市東成区深江南3-7-24",
        "lat": 34.671099,
        "lng": 135.561593
    },
    {
        "code": "A227310000204",
        "type": 16013,
        "name": "勝山愛和第一幼稚園",
        "address": "大阪市生野区勝山南1-3-4",
        "lat": 34.654337,
        "lng": 135.527725
    },
    {
        "code": "A227310000213",
        "type": 16013,
        "name": "勝山愛和第二幼稚園",
        "address": "大阪市生野区林寺2-21-13",
        "lat": 34.643856,
        "lng": 135.531354
    },
    {
        "code": "A227310000222",
        "type": 16013,
        "name": "勝山愛和第三幼稚園",
        "address": "大阪市生野区舎利寺3-11-24",
        "lat": 34.647226,
        "lng": 135.539179
    },
    {
        "code": "A227310000231",
        "type": 16013,
        "name": "すみれ幼稚園",
        "address": "大阪市生野区舎利寺1-5-28",
        "lat": 34.650806,
        "lng": 135.537391
    },
    {
        "code": "A227310000240",
        "type": 16013,
        "name": "日の出学園",
        "address": "大阪市生野区巽南2-8-19",
        "lat": 34.638947,
        "lng": 135.548198
    },
    {
        "code": "A227310000259",
        "type": 16013,
        "name": "関目聖マリア幼稚園",
        "address": "大阪市城東区成育4-8-12",
        "lat": 34.712344,
        "lng": 135.543342
    },
    {
        "code": "A227310000268",
        "type": 16013,
        "name": "城東ちどり保育園",
        "address": "大阪市城東区諏訪3-6-33",
        "lat": 34.682333,
        "lng": 135.559539
    },
    {
        "code": "A227310000277",
        "type": 16013,
        "name": "成育児童センター",
        "address": "大阪市城東区成育1-6-12",
        "lat": 34.705932,
        "lng": 135.545087
    },
    {
        "code": "A227310000286",
        "type": 16013,
        "name": "幼保連携型認定こども園古市たいよう学院",
        "address": "大阪市城東区古市1-16-12",
        "lat": 34.705633,
        "lng": 135.559056
    },
    {
        "code": "A227310000295",
        "type": 16013,
        "name": "ながいけ認定こども園",
        "address": "大阪市阿倍野区阪南町5-2-26",
        "lat": 34.62457,
        "lng": 135.513643
    },
    {
        "code": "A227310000302",
        "type": 16013,
        "name": "グレース幼稚園",
        "address": "大阪市阿倍野区昭和町4-3-19",
        "lat": 34.626003,
        "lng": 135.518024
    },
    {
        "code": "A227310000311",
        "type": 16013,
        "name": "金塚幼稚園",
        "address": "大阪市阿倍野区旭町1-4-46",
        "lat": 34.64559,
        "lng": 135.509177
    },
    {
        "code": "A227310000320",
        "type": 16013,
        "name": "文の里幼稚園",
        "address": "大阪市阿倍野区文の里3-15-28",
        "lat": 34.635043,
        "lng": 135.522048
    },
    {
        "code": "A227310000339",
        "type": 16013,
        "name": "東よさみ幼稚園",
        "address": "大阪市住吉区苅田1-7-19",
        "lat": 34.603139,
        "lng": 135.521446
    },
    {
        "code": "A227310000348",
        "type": 16013,
        "name": "勝山愛和第四幼稚園",
        "address": "大阪市東住吉区桑津5-15-1",
        "lat": 34.636077,
        "lng": 135.532319
    },
    {
        "code": "A227310000357",
        "type": 16013,
        "name": "今川幼稚園",
        "address": "大阪市東住吉区田辺6-6-13",
        "lat": 34.625979,
        "lng": 135.529709
    },
    {
        "code": "A227310000366",
        "type": 16013,
        "name": "ポラリスこども園",
        "address": "大阪市淀川区西宮原3-3-101",
        "lat": 34.739025,
        "lng": 135.492917
    },
    {
        "code": "A227310000375",
        "type": 16013,
        "name": "ひじり幼稚園ひじり保育園",
        "address": "大阪市淀川区宮原2-10-17",
        "lat": 34.738883,
        "lng": 135.500115
    },
    {
        "code": "A227310000384",
        "type": 16013,
        "name": "博愛社こども園",
        "address": "大阪市淀川区十三元今里3-1-72",
        "lat": 34.722528,
        "lng": 135.475845
    },
    {
        "code": "A227310000393",
        "type": 16013,
        "name": "明の守みくに園",
        "address": "大阪市淀川区新高3-5-13",
        "lat": 34.736232,
        "lng": 135.483163
    },
    {
        "code": "A227310000400",
        "type": 16013,
        "name": "茨田大宮こども園",
        "address": "大阪市鶴見区茨田大宮3-1-43",
        "lat": 34.707215,
        "lng": 135.596307
    },
    {
        "code": "A227310000419",
        "type": 16013,
        "name": "みさきこども園",
        "address": "大阪市住之江区御崎3-3-17",
        "lat": 34.610588,
        "lng": 135.480582
    },
    {
        "code": "A227310000428",
        "type": 16013,
        "name": "たかさきこども園",
        "address": "大阪市住之江区平林南2-6-54",
        "lat": 34.609485,
        "lng": 135.455766
    },
    {
        "code": "A227310000437",
        "type": 16013,
        "name": "ポートタウン保育園",
        "address": "大阪市住之江区南港中5-3-37",
        "lat": 34.634289,
        "lng": 135.418241
    },
    {
        "code": "A227310000446",
        "type": 16013,
        "name": "愛和学園",
        "address": "大阪市住之江区西加賀屋1-1-47",
        "lat": 34.6209,
        "lng": 135.478063
    },
    {
        "code": "A227310000455",
        "type": 16013,
        "name": "グレースこども園",
        "address": "大阪市住之江区南港中2-3-51",
        "lat": 34.630626,
        "lng": 135.428546
    },
    {
        "code": "A227310000464",
        "type": 16013,
        "name": "喜連幼稚園",
        "address": "大阪市平野区喜連6-2-2",
        "lat": 34.61368,
        "lng": 135.555646
    },
    {
        "code": "A227310000473",
        "type": 16013,
        "name": "中之島ちどり保育園",
        "address": "大阪市北区天神西町3-16",
        "lat": 34.69471,
        "lng": 135.510265
    },
    {
        "code": "A227310005012",
        "type": 16013,
        "name": "愛染園南港東保育園",
        "address": "大阪市住之江区南港東1-6-3-101",
        "lat": 34.612608,
        "lng": 135.444302
    },
    {
        "code": "A227310005021",
        "type": 16013,
        "name": "たかさきこども園分園",
        "address": "大阪市住之江区新北島1-2-1ｵｽｶｰﾄﾞﾘｰﾑ210",
        "lat": 34.608877,
        "lng": 135.471958
    },
    {
        "code": "A227310005245",
        "type": 16013,
        "name": "桜宮児童センター（本園）",
        "address": "大阪市都島区中野町5-10-80",
        "lat": 34.706634,
        "lng": 135.523522
    },
    {
        "code": "A227310005254",
        "type": 16013,
        "name": "桜宮児童センター（分園）",
        "address": "大阪市都島区都島本通1-14-16",
        "lat": 34.709061,
        "lng": 135.521709
    },
    {
        "code": "A227310005263",
        "type": 16013,
        "name": "子ロバ保育園",
        "address": "大阪市都島区高倉町2-8-5",
        "lat": 34.717257,
        "lng": 135.53107
    },
    {
        "code": "A227310005272",
        "type": 16013,
        "name": "生野フランシスコ学園",
        "address": "大阪市生野区巽西1-3-26",
        "lat": 34.651745,
        "lng": 135.544533
    },
    {
        "code": "A227310005281",
        "type": 16013,
        "name": "聖浄保育園",
        "address": "大阪市生野区舎利寺3-9-10",
        "lat": 34.647858,
        "lng": 135.537599
    },
    {
        "code": "A227310005290",
        "type": 16013,
        "name": "第二和光園",
        "address": "大阪市福島区鷺洲3-1-59",
        "lat": 34.697487,
        "lng": 135.480036
    },
    {
        "code": "A227310005352",
        "type": 16013,
        "name": "幼保連携型認定こども園ひがみや児童センター",
        "address": "大阪市都島区都島本通4-10-12",
        "lat": 34.707194,
        "lng": 135.531536
    },
    {
        "code": "A227310005361",
        "type": 16013,
        "name": "幼保連携型認定こども園ファミリー",
        "address": "大阪市大正区三軒家東5-7-14",
        "lat": 34.659591,
        "lng": 135.475932
    },
    {
        "code": "A227310005370",
        "type": 16013,
        "name": "淡路幼稚園",
        "address": "大阪市東淀川区東淡路4-12-25",
        "lat": 34.737925,
        "lng": 135.517996
    },
    {
        "code": "B127110000010",
        "type": 16001,
        "name": "大阪教育大学附属天王寺小学校",
        "address": "大阪市阿倍野区松崎町1-2-45",
        "lat": 34.644704,
        "lng": 135.518551
    },
    {
        "code": "B127110000029",
        "type": 16001,
        "name": "大阪教育大学附属平野小学校",
        "address": "大阪市平野区流町1-6-41",
        "lat": 34.618957,
        "lng": 135.550798
    },
    {
        "code": "B127210000018",
        "type": 16001,
        "name": "滝川小学校",
        "address": "大阪市北区天満1-24-15",
        "lat": 34.696365,
        "lng": 135.519078
    },
    {
        "code": "B127210000027",
        "type": 16001,
        "name": "堀川小学校",
        "address": "大阪市北区東天満2-10-7",
        "lat": 34.698198,
        "lng": 135.513328
    },
    {
        "code": "B127210000036",
        "type": 16001,
        "name": "西天満小学校",
        "address": "大阪市北区西天満3-12-21",
        "lat": 34.696754,
        "lng": 135.506967
    },
    {
        "code": "B127210000045",
        "type": 16001,
        "name": "菅北小学校",
        "address": "大阪市北区菅栄町9-5",
        "lat": 34.709002,
        "lng": 135.513744
    },
    {
        "code": "B127210000054",
        "type": 16001,
        "name": "扇町小学校",
        "address": "大阪市北区扇町2-7-24",
        "lat": 34.704381,
        "lng": 135.506858
    },
    {
        "code": "B127210000063",
        "type": 16001,
        "name": "桜宮小学校",
        "address": "大阪市都島区東野田町1-10-19",
        "lat": 34.69631,
        "lng": 135.52716
    },
    {
        "code": "B127210000072",
        "type": 16001,
        "name": "中野小学校",
        "address": "大阪市都島区中野町3-10-5",
        "lat": 34.703003,
        "lng": 135.524299
    },
    {
        "code": "B127210000081",
        "type": 16001,
        "name": "高倉小学校",
        "address": "大阪市都島区高倉町3-3-10",
        "lat": 34.71853,
        "lng": 135.533187
    },
    {
        "code": "B127210000090",
        "type": 16001,
        "name": "淀川小学校",
        "address": "大阪市都島区毛馬町3-5-39",
        "lat": 34.722168,
        "lng": 135.521104
    },
    {
        "code": "B127210000107",
        "type": 16001,
        "name": "都島小学校",
        "address": "大阪市都島区都島本通3-10-3",
        "lat": 34.707253,
        "lng": 135.528382
    },
    {
        "code": "B127210000116",
        "type": 16001,
        "name": "内代小学校",
        "address": "大阪市都島区内代町3-4-6",
        "lat": 34.713475,
        "lng": 135.537353
    },
    {
        "code": "B127210000125",
        "type": 16001,
        "name": "東都島小学校",
        "address": "大阪市都島区都島本通4-24-20",
        "lat": 34.708336,
        "lng": 135.533826
    },
    {
        "code": "B127210000134",
        "type": 16001,
        "name": "大東小学校",
        "address": "大阪市都島区毛馬町2-11-111",
        "lat": 34.723473,
        "lng": 135.525215
    },
    {
        "code": "B127210000143",
        "type": 16001,
        "name": "友渕小学校",
        "address": "大阪市都島区友渕町1-3-123",
        "lat": 34.719418,
        "lng": 135.526798
    },
    {
        "code": "B127210000152",
        "type": 16001,
        "name": "友渕小学校分校",
        "address": "大阪市都島区友渕町1-3-187",
        "lat": 34.716641,
        "lng": 135.522604
    },
    {
        "code": "B127210000161",
        "type": 16001,
        "name": "福島小学校",
        "address": "大阪市福島区福島4-5-6",
        "lat": 34.693448,
        "lng": 135.483525
    },
    {
        "code": "B127210000170",
        "type": 16001,
        "name": "玉川小学校",
        "address": "大阪市福島区玉川2-13-16",
        "lat": 34.691892,
        "lng": 135.480664
    },
    {
        "code": "B127210000189",
        "type": 16001,
        "name": "野田小学校",
        "address": "大阪市福島区野田5-13-22",
        "lat": 34.686365,
        "lng": 135.473609
    },
    {
        "code": "B127210000198",
        "type": 16001,
        "name": "吉野小学校",
        "address": "大阪市福島区吉野3-10-5",
        "lat": 34.69042,
        "lng": 135.473081
    },
    {
        "code": "B127210000205",
        "type": 16001,
        "name": "大開小学校",
        "address": "大阪市福島区大開2-10-28",
        "lat": 34.692587,
        "lng": 135.470609
    },
    {
        "code": "B127210000214",
        "type": 16001,
        "name": "鷺洲小学校",
        "address": "大阪市福島区鷺洲5-6-8",
        "lat": 34.698836,
        "lng": 135.479109
    },
    {
        "code": "B127210000223",
        "type": 16001,
        "name": "海老江東小学校",
        "address": "大阪市福島区海老江1-6-19",
        "lat": 34.699114,
        "lng": 135.475414
    },
    {
        "code": "B127210000232",
        "type": 16001,
        "name": "海老江西小学校",
        "address": "大阪市福島区海老江8-1-10",
        "lat": 34.697697,
        "lng": 135.470193
    },
    {
        "code": "B127210000241",
        "type": 16001,
        "name": "上福島小学校",
        "address": "大阪市福島区福島7-4-33",
        "lat": 34.69717,
        "lng": 135.485108
    },
    {
        "code": "B127210000250",
        "type": 16001,
        "name": "西九条小学校",
        "address": "大阪市此花区西九条4-3-41",
        "lat": 34.682477,
        "lng": 135.464693
    },
    {
        "code": "B127210000269",
        "type": 16001,
        "name": "四貫島小学校",
        "address": "大阪市此花区四貫島2-16-29",
        "lat": 34.685143,
        "lng": 135.454278
    },
    {
        "code": "B127210000278",
        "type": 16001,
        "name": "島屋小学校",
        "address": "大阪市此花区島屋2-9-36",
        "lat": 34.677727,
        "lng": 135.439335
    },
    {
        "code": "B127210000287",
        "type": 16001,
        "name": "伝法小学校",
        "address": "大阪市此花区伝法3-13-10",
        "lat": 34.690392,
        "lng": 135.451639
    },
    {
        "code": "B127210000296",
        "type": 16001,
        "name": "梅香小学校",
        "address": "大阪市此花区梅香3-17-29",
        "lat": 34.682365,
        "lng": 135.45525
    },
    {
        "code": "B127210000303",
        "type": 16001,
        "name": "高見小学校",
        "address": "大阪市此花区高見1-3-35",
        "lat": 34.690615,
        "lng": 135.460388
    },
    {
        "code": "B127210000312",
        "type": 16001,
        "name": "酉島小学校",
        "address": "大阪市此花区酉島2-5-12",
        "lat": 34.685476,
        "lng": 135.442279
    },
    {
        "code": "B127210000321",
        "type": 16001,
        "name": "春日出小学校",
        "address": "大阪市此花区春日出中1-13-23",
        "lat": 34.680477,
        "lng": 135.452528
    },
    {
        "code": "B127210000330",
        "type": 16001,
        "name": "玉造小学校",
        "address": "大阪市中央区玉造2-3-43",
        "lat": 34.678728,
        "lng": 135.529688
    },
    {
        "code": "B127210000349",
        "type": 16001,
        "name": "南大江小学校",
        "address": "大阪市中央区農人橋1-1-3",
        "lat": 34.680334,
        "lng": 135.514887
    },
    {
        "code": "B127210000358",
        "type": 16001,
        "name": "中大江小学校",
        "address": "大阪市中央区糸屋町2-3-14",
        "lat": 34.685477,
        "lng": 135.51244
    },
    {
        "code": "B127210000367",
        "type": 16001,
        "name": "開平小学校",
        "address": "大阪市中央区今橋1-5-7",
        "lat": 34.690754,
        "lng": 135.508273
    },
    {
        "code": "B127210000376",
        "type": 16001,
        "name": "西船場小学校",
        "address": "大阪市西区江戸堀1-21-28",
        "lat": 34.688393,
        "lng": 135.493719
    },
    {
        "code": "B127210000385",
        "type": 16001,
        "name": "日吉小学校",
        "address": "大阪市西区南堀江4-9-19",
        "lat": 34.671062,
        "lng": 135.484525
    },
    {
        "code": "B127210000394",
        "type": 16001,
        "name": "九条南小学校",
        "address": "大阪市西区九条南2-13-17",
        "lat": 34.672744,
        "lng": 135.473218
    },
    {
        "code": "B127210000401",
        "type": 16001,
        "name": "九条東小学校",
        "address": "大阪市西区九条2-6-2",
        "lat": 34.67545,
        "lng": 135.472332
    },
    {
        "code": "B127210000410",
        "type": 16001,
        "name": "九条北小学校",
        "address": "大阪市西区九条南4-7-38",
        "lat": 34.676505,
        "lng": 135.468249
    },
    {
        "code": "B127210000429",
        "type": 16001,
        "name": "本田小学校",
        "address": "大阪市西区川口1-5-19",
        "lat": 34.681449,
        "lng": 135.481498
    },
    {
        "code": "B127210000438",
        "type": 16001,
        "name": "堀江小学校",
        "address": "大阪市西区北堀江3-2-16",
        "lat": 34.674034,
        "lng": 135.489886
    },
    {
        "code": "B127210000447",
        "type": 16001,
        "name": "明治小学校",
        "address": "大阪市西区阿波座2-3-35",
        "lat": 34.680255,
        "lng": 135.491497
    },
    {
        "code": "B127210000456",
        "type": 16001,
        "name": "明治小学校分校",
        "address": "大阪市西区立売堀4-10-18",
        "lat": 34.680642,
        "lng": 135.487914
    },
    {
        "code": "B127210000465",
        "type": 16001,
        "name": "市岡小学校",
        "address": "大阪市港区市岡3-2-24",
        "lat": 34.663562,
        "lng": 135.464555
    },
    {
        "code": "B127210000474",
        "type": 16001,
        "name": "磯路小学校",
        "address": "大阪市港区磯路3-7-7",
        "lat": 34.665034,
        "lng": 135.456389
    },
    {
        "code": "B127210000483",
        "type": 16001,
        "name": "三先小学校",
        "address": "大阪市港区三先2-6-32",
        "lat": 34.659451,
        "lng": 135.45314
    },
    {
        "code": "B127210000492",
        "type": 16001,
        "name": "田中小学校",
        "address": "大阪市港区田中2-10-34",
        "lat": 34.663395,
        "lng": 135.447057
    },
    {
        "code": "B127210000508",
        "type": 16001,
        "name": "八幡屋小学校",
        "address": "大阪市港区八幡屋3-3-5",
        "lat": 34.655063,
        "lng": 135.446391
    },
    {
        "code": "B127210000517",
        "type": 16001,
        "name": "波除小学校",
        "address": "大阪市港区波除3-6-8",
        "lat": 34.671894,
        "lng": 135.462416
    },
    {
        "code": "B127210000526",
        "type": 16001,
        "name": "築港小学校",
        "address": "大阪市港区築港1-10-38",
        "lat": 34.653035,
        "lng": 135.436336
    },
    {
        "code": "B127210000535",
        "type": 16001,
        "name": "南市岡小学校",
        "address": "大阪市港区南市岡2-6-35",
        "lat": 34.665284,
        "lng": 135.468499
    },
    {
        "code": "B127210000544",
        "type": 16001,
        "name": "港晴小学校",
        "address": "大阪市港区港晴1-3-12",
        "lat": 34.656285,
        "lng": 135.444113
    },
    {
        "code": "B127210000553",
        "type": 16001,
        "name": "弁天小学校",
        "address": "大阪市港区弁天町2-9-35",
        "lat": 34.668589,
        "lng": 135.455584
    },
    {
        "code": "B127210000562",
        "type": 16001,
        "name": "池島小学校",
        "address": "大阪市港区池島2-5-47",
        "lat": 34.655341,
        "lng": 135.451307
    },
    {
        "code": "B127210000571",
        "type": 16001,
        "name": "三軒家西小学校",
        "address": "大阪市大正区三軒家西1-20-26",
        "lat": 34.66484,
        "lng": 135.476943
    },
    {
        "code": "B127210000580",
        "type": 16001,
        "name": "泉尾東小学校",
        "address": "大阪市大正区千島1-16-16",
        "lat": 34.653786,
        "lng": 135.474499
    },
    {
        "code": "B127210000599",
        "type": 16001,
        "name": "中泉尾小学校",
        "address": "大阪市大正区泉尾3-23-34",
        "lat": 34.659563,
        "lng": 135.469694
    },
    {
        "code": "B127210000606",
        "type": 16001,
        "name": "北恩加島小学校",
        "address": "大阪市大正区泉尾5-17-31",
        "lat": 34.654369,
        "lng": 135.468472
    },
    {
        "code": "B127210000615",
        "type": 16001,
        "name": "南恩加島小学校",
        "address": "大阪市大正区南恩加島3-6-11",
        "lat": 34.63626,
        "lng": 135.469861
    },
    {
        "code": "B127210000624",
        "type": 16001,
        "name": "鶴町小学校",
        "address": "大阪市大正区鶴町2-6-24",
        "lat": 34.63912,
        "lng": 135.456057
    },
    {
        "code": "B127210000633",
        "type": 16001,
        "name": "泉尾北小学校",
        "address": "大阪市大正区泉尾2-21-24",
        "lat": 34.660257,
        "lng": 135.47061
    },
    {
        "code": "B127210000642",
        "type": 16001,
        "name": "平尾小学校",
        "address": "大阪市大正区平尾2-21-28",
        "lat": 34.640676,
        "lng": 135.473944
    },
    {
        "code": "B127210000651",
        "type": 16001,
        "name": "三軒家東小学校",
        "address": "大阪市大正区三軒家東2-12-59",
        "lat": 34.660285,
        "lng": 135.479332
    },
    {
        "code": "B127210000660",
        "type": 16001,
        "name": "小林小学校",
        "address": "大阪市大正区小林東2-4-45",
        "lat": 34.646453,
        "lng": 135.474055
    },
    {
        "code": "B127210000679",
        "type": 16001,
        "name": "真田山小学校",
        "address": "大阪市天王寺区玉造本町14-41",
        "lat": 34.671923,
        "lng": 135.527688
    },
    {
        "code": "B127210000688",
        "type": 16001,
        "name": "味原小学校",
        "address": "大阪市天王寺区味原町8-19",
        "lat": 34.667285,
        "lng": 135.527966
    },
    {
        "code": "B127210000697",
        "type": 16001,
        "name": "桃陽小学校",
        "address": "大阪市天王寺区堂ヶ芝1-2-23",
        "lat": 34.661202,
        "lng": 135.5283
    },
    {
        "code": "B127210000704",
        "type": 16001,
        "name": "五条小学校",
        "address": "大阪市天王寺区小宮町9-28",
        "lat": 34.659175,
        "lng": 135.5198
    },
    {
        "code": "B127210000713",
        "type": 16001,
        "name": "聖和小学校",
        "address": "大阪市天王寺区寺田町1-6-37",
        "lat": 34.651787,
        "lng": 135.522411
    },
    {
        "code": "B127210000722",
        "type": 16001,
        "name": "大江小学校",
        "address": "大阪市天王寺区四天王寺1-9-18",
        "lat": 34.656453,
        "lng": 135.514745
    },
    {
        "code": "B127210000731",
        "type": 16001,
        "name": "生魂小学校",
        "address": "大阪市天王寺区上汐4-1-25",
        "lat": 34.663174,
        "lng": 135.517162
    },
    {
        "code": "B127210000740",
        "type": 16001,
        "name": "天王寺小学校",
        "address": "大阪市天王寺区大道1-4-49",
        "lat": 34.652537,
        "lng": 135.51569
    },
    {
        "code": "B127210000759",
        "type": 16001,
        "name": "高津小学校",
        "address": "大阪市中央区高津3-4-21",
        "lat": 34.665729,
        "lng": 135.510912
    },
    {
        "code": "B127210000768",
        "type": 16001,
        "name": "南小学校",
        "address": "大阪市中央区東心斎橋1-14-29",
        "lat": 34.673451,
        "lng": 135.503829
    },
    {
        "code": "B127210000777",
        "type": 16001,
        "name": "中央小学校",
        "address": "大阪市中央区瓦屋町2-8-4",
        "lat": 34.670979,
        "lng": 135.512856
    },
    {
        "code": "B127210000786",
        "type": 16001,
        "name": "栄小学校",
        "address": "大阪市浪速区浪速東1-1-61",
        "lat": 34.658013,
        "lng": 135.490839
    },
    {
        "code": "B127210000795",
        "type": 16001,
        "name": "大国小学校",
        "address": "大阪市浪速区大国1-9-3",
        "lat": 34.653453,
        "lng": 135.496719
    },
    {
        "code": "B127210000802",
        "type": 16001,
        "name": "敷津小学校",
        "address": "大阪市浪速区敷津東3-9-32",
        "lat": 34.656175,
        "lng": 135.499052
    },
    {
        "code": "B127210000811",
        "type": 16001,
        "name": "塩草立葉小学校",
        "address": "大阪市浪速区塩草1-4-31",
        "lat": 34.661119,
        "lng": 135.490414
    },
    {
        "code": "B127210000820",
        "type": 16001,
        "name": "難波元町小学校",
        "address": "大阪市浪速区元町1-5-30",
        "lat": 34.665118,
        "lng": 135.497413
    },
    {
        "code": "B127210000839",
        "type": 16001,
        "name": "浪速小学校",
        "address": "大阪市浪速区日本橋西1-7-6",
        "lat": 34.658058,
        "lng": 135.50383
    },
    {
        "code": "B127210000848",
        "type": 16001,
        "name": "豊崎東小学校",
        "address": "大阪市北区長柄中2-3-30",
        "lat": 34.713419,
        "lng": 135.515939
    },
    {
        "code": "B127210000857",
        "type": 16001,
        "name": "豊崎本庄小学校",
        "address": "大阪市北区本庄西2-1-16",
        "lat": 34.712891,
        "lng": 135.505911
    },
    {
        "code": "B127210000866",
        "type": 16001,
        "name": "中津小学校",
        "address": "大阪市北区中津3-34-18",
        "lat": 34.713473,
        "lng": 135.493857
    },
    {
        "code": "B127210000875",
        "type": 16001,
        "name": "大淀小学校",
        "address": "大阪市北区大淀中4-10-33",
        "lat": 34.703919,
        "lng": 135.482386
    },
    {
        "code": "B127210000884",
        "type": 16001,
        "name": "豊仁小学校",
        "address": "大阪市北区長柄西2-6-20",
        "lat": 34.717029,
        "lng": 135.513689
    },
    {
        "code": "B127210000893",
        "type": 16001,
        "name": "豊崎小学校",
        "address": "大阪市北区豊崎4-5-9",
        "lat": 34.712668,
        "lng": 135.50069
    },
    {
        "code": "B127210000900",
        "type": 16001,
        "name": "柏里小学校",
        "address": "大阪市西淀川区柏里2-13-33",
        "lat": 34.710473,
        "lng": 135.465804
    },
    {
        "code": "B127210000919",
        "type": 16001,
        "name": "野里小学校",
        "address": "大阪市西淀川区野里2-21-13",
        "lat": 34.711084,
        "lng": 135.461027
    },
    {
        "code": "B127210000928",
        "type": 16001,
        "name": "姫里小学校",
        "address": "大阪市西淀川区姫里2-8-24",
        "lat": 34.70664,
        "lng": 135.45836
    },
    {
        "code": "B127210000937",
        "type": 16001,
        "name": "姫島小学校",
        "address": "大阪市西淀川区姫島1-10-4",
        "lat": 34.701669,
        "lng": 135.455527
    },
    {
        "code": "B127210000946",
        "type": 16001,
        "name": "福小学校",
        "address": "大阪市西淀川区福町2-5-23",
        "lat": 34.697919,
        "lng": 135.441806
    },
    {
        "code": "B127210000955",
        "type": 16001,
        "name": "大和田小学校",
        "address": "大阪市西淀川区大和田4-3-24",
        "lat": 34.70589,
        "lng": 135.444973
    },
    {
        "code": "B127210000964",
        "type": 16001,
        "name": "川北小学校",
        "address": "大阪市西淀川区中島1-11-20",
        "lat": 34.704251,
        "lng": 135.429752
    },
    {
        "code": "B127210000973",
        "type": 16001,
        "name": "出来島小学校",
        "address": "大阪市西淀川区出来島2-2-24",
        "lat": 34.704029,
        "lng": 135.437224
    },
    {
        "code": "B127210000982",
        "type": 16001,
        "name": "香簑小学校",
        "address": "大阪市西淀川区御幣島6-5-25",
        "lat": 34.720166,
        "lng": 135.452666
    },
    {
        "code": "B127210000991",
        "type": 16001,
        "name": "歌島小学校",
        "address": "大阪市西淀川区歌島2-5-18",
        "lat": 34.713945,
        "lng": 135.461471
    },
    {
        "code": "B127210001008",
        "type": 16001,
        "name": "佃小学校",
        "address": "大阪市西淀川区佃1-21-12",
        "lat": 34.716583,
        "lng": 135.446944
    },
    {
        "code": "B127210001017",
        "type": 16001,
        "name": "佃西小学校",
        "address": "大阪市西淀川区佃2-15-30",
        "lat": 34.714472,
        "lng": 135.444028
    },
    {
        "code": "B127210001026",
        "type": 16001,
        "name": "御幣島小学校",
        "address": "大阪市西淀川区御幣島3-5-5",
        "lat": 34.716777,
        "lng": 135.456537
    },
    {
        "code": "B127210001035",
        "type": 16001,
        "name": "神津小学校",
        "address": "大阪市淀川区十三元今里2-3-12",
        "lat": 34.719972,
        "lng": 135.476608
    },
    {
        "code": "B127210001044",
        "type": 16001,
        "name": "田川小学校",
        "address": "大阪市淀川区田川2-9-37",
        "lat": 34.721444,
        "lng": 135.470164
    },
    {
        "code": "B127210001053",
        "type": 16001,
        "name": "加島小学校",
        "address": "大阪市淀川区加島1-60-28",
        "lat": 34.728582,
        "lng": 135.457832
    },
    {
        "code": "B127210001062",
        "type": 16001,
        "name": "三津屋小学校",
        "address": "大阪市淀川区三津屋中1-4-14",
        "lat": 34.72861,
        "lng": 135.472942
    },
    {
        "code": "B127210001071",
        "type": 16001,
        "name": "新高小学校",
        "address": "大阪市淀川区新高1-15-53",
        "lat": 34.732749,
        "lng": 135.479941
    },
    {
        "code": "B127210001080",
        "type": 16001,
        "name": "野中小学校",
        "address": "大阪市淀川区野中北1-11-26",
        "lat": 34.727916,
        "lng": 135.48058
    },
    {
        "code": "B127210001099",
        "type": 16001,
        "name": "十三小学校",
        "address": "大阪市淀川区十三東4-3-6",
        "lat": 34.723444,
        "lng": 135.485802
    },
    {
        "code": "B127210001106",
        "type": 16001,
        "name": "木川小学校",
        "address": "大阪市淀川区木川東3-7-32",
        "lat": 34.726944,
        "lng": 135.491635
    },
    {
        "code": "B127210001115",
        "type": 16001,
        "name": "三国小学校",
        "address": "大阪市淀川区三国本町3-9-18",
        "lat": 34.738359,
        "lng": 135.487829
    },
    {
        "code": "B127210001124",
        "type": 16001,
        "name": "北中島小学校",
        "address": "大阪市淀川区宮原5-3-4",
        "lat": 34.739359,
        "lng": 135.496245
    },
    {
        "code": "B127210001133",
        "type": 16001,
        "name": "西中島小学校",
        "address": "大阪市淀川区西中島7-14-25",
        "lat": 34.729721,
        "lng": 135.494162
    },
    {
        "code": "B127210001142",
        "type": 16001,
        "name": "塚本小学校",
        "address": "大阪市淀川区塚本3-5-6",
        "lat": 34.7155,
        "lng": 135.472359
    },
    {
        "code": "B127210001151",
        "type": 16001,
        "name": "西三国小学校",
        "address": "大阪市淀川区西三国1-21-28",
        "lat": 34.744581,
        "lng": 135.491773
    },
    {
        "code": "B127210001160",
        "type": 16001,
        "name": "木川南小学校",
        "address": "大阪市淀川区木川東1-2-36",
        "lat": 34.722917,
        "lng": 135.494551
    },
    {
        "code": "B127210001179",
        "type": 16001,
        "name": "東三国小学校",
        "address": "大阪市淀川区東三国6-3-24",
        "lat": 34.744581,
        "lng": 135.49569
    },
    {
        "code": "B127210001188",
        "type": 16001,
        "name": "新東三国小学校",
        "address": "大阪市淀川区東三国3-9-10",
        "lat": 34.745442,
        "lng": 135.499995
    },
    {
        "code": "B127210001197",
        "type": 16001,
        "name": "宮原小学校",
        "address": "大阪市淀川区三国本町1-16-44",
        "lat": 34.732888,
        "lng": 135.485941
    },
    {
        "code": "B127210001204",
        "type": 16001,
        "name": "下新庄小学校",
        "address": "大阪市東淀川区下新庄5-2-9",
        "lat": 34.746387,
        "lng": 135.52091
    },
    {
        "code": "B127210001213",
        "type": 16001,
        "name": "井高野小学校",
        "address": "大阪市東淀川区井高野1-28-17",
        "lat": 34.761913,
        "lng": 135.544574
    },
    {
        "code": "B127210001222",
        "type": 16001,
        "name": "東淡路小学校",
        "address": "大阪市東淀川区東淡路3-3-32",
        "lat": 34.735805,
        "lng": 135.51816
    },
    {
        "code": "B127210001231",
        "type": 16001,
        "name": "西淡路小学校",
        "address": "大阪市東淀川区西淡路5-5-32",
        "lat": 34.742979,
        "lng": 135.511075
    },
    {
        "code": "B127210001240",
        "type": 16001,
        "name": "菅原小学校",
        "address": "大阪市東淀川区菅原6-3-25",
        "lat": 34.739443,
        "lng": 135.522743
    },
    {
        "code": "B127210001259",
        "type": 16001,
        "name": "新庄小学校",
        "address": "大阪市東淀川区上新庄2-20-5",
        "lat": 34.748387,
        "lng": 135.532242
    },
    {
        "code": "B127210001268",
        "type": 16001,
        "name": "大隅東小学校",
        "address": "大阪市東淀川区瑞光5-8-19",
        "lat": 34.753026,
        "lng": 135.552462
    },
    {
        "code": "B127210001277",
        "type": 16001,
        "name": "大隅西小学校",
        "address": "大阪市東淀川区大隅2-3-18",
        "lat": 34.750942,
        "lng": 135.545935
    },
    {
        "code": "B127210001286",
        "type": 16001,
        "name": "豊里小学校",
        "address": "大阪市東淀川区豊里5-14-60",
        "lat": 34.741721,
        "lng": 135.543963
    },
    {
        "code": "B127210001295",
        "type": 16001,
        "name": "啓発小学校",
        "address": "大阪市東淀川区東中島4-8-38",
        "lat": 34.732416,
        "lng": 135.507078
    },
    {
        "code": "B127210001302",
        "type": 16001,
        "name": "小松小学校",
        "address": "大阪市東淀川区小松3-18-15",
        "lat": 34.754858,
        "lng": 135.539546
    },
    {
        "code": "B127210001311",
        "type": 16001,
        "name": "大桐小学校",
        "address": "大阪市東淀川区大桐4-1-15",
        "lat": 34.747526,
        "lng": 135.548601
    },
    {
        "code": "B127210001320",
        "type": 16001,
        "name": "豊新小学校",
        "address": "大阪市東淀川区豊新4-17-26",
        "lat": 34.746054,
        "lng": 135.535908
    },
    {
        "code": "B127210001339",
        "type": 16001,
        "name": "東井高野小学校",
        "address": "大阪市東淀川区井高野2-8-28",
        "lat": 34.765246,
        "lng": 135.549156
    },
    {
        "code": "B127210001348",
        "type": 16001,
        "name": "豊里南小学校",
        "address": "大阪市東淀川区豊里5-12-41",
        "lat": 34.739666,
        "lng": 135.544185
    },
    {
        "code": "B127210001357",
        "type": 16001,
        "name": "大道南小学校",
        "address": "大阪市東淀川区大道南1-23-6",
        "lat": 34.742876,
        "lng": 135.549968
    },
    {
        "code": "B127210001366",
        "type": 16001,
        "name": "東小橋小学校",
        "address": "大阪市東成区東小橋3-10-37",
        "lat": 34.667174,
        "lng": 135.533216
    },
    {
        "code": "B127210001375",
        "type": 16001,
        "name": "大成小学校",
        "address": "大阪市東成区大今里西3-2-62",
        "lat": 34.667396,
        "lng": 135.540409
    },
    {
        "code": "B127210001384",
        "type": 16001,
        "name": "中道小学校",
        "address": "大阪市東成区玉津1-7-39",
        "lat": 34.672257,
        "lng": 135.537576
    },
    {
        "code": "B127210001393",
        "type": 16001,
        "name": "北中道小学校",
        "address": "大阪市東成区中道2-9-20",
        "lat": 34.679423,
        "lng": 135.53766
    },
    {
        "code": "B127210001400",
        "type": 16001,
        "name": "中本小学校",
        "address": "大阪市東成区中本4-2-32",
        "lat": 34.676784,
        "lng": 135.539326
    },
    {
        "code": "B127210001419",
        "type": 16001,
        "name": "東中本小学校",
        "address": "大阪市東成区東中本2-9-3",
        "lat": 34.679312,
        "lng": 135.545714
    },
    {
        "code": "B127210001428",
        "type": 16001,
        "name": "今里小学校",
        "address": "大阪市東成区大今里1-35-29",
        "lat": 34.672007,
        "lng": 135.545159
    },
    {
        "code": "B127210001437",
        "type": 16001,
        "name": "片江小学校",
        "address": "大阪市東成区大今里南2-13-2",
        "lat": 34.666424,
        "lng": 135.547048
    },
    {
        "code": "B127210001446",
        "type": 16001,
        "name": "神路小学校",
        "address": "大阪市東成区大今里4-6-19",
        "lat": 34.669452,
        "lng": 135.550103
    },
    {
        "code": "B127210001455",
        "type": 16001,
        "name": "深江小学校",
        "address": "大阪市東成区深江南1-4-6",
        "lat": 34.672091,
        "lng": 135.55513
    },
    {
        "code": "B127210001464",
        "type": 16001,
        "name": "宝栄小学校",
        "address": "大阪市東成区神路1-15-48",
        "lat": 34.677562,
        "lng": 135.55513
    },
    {
        "code": "B127210001473",
        "type": 16001,
        "name": "北鶴橋小学校",
        "address": "大阪市生野区鶴橋3-4-50",
        "lat": 34.664202,
        "lng": 135.534993
    },
    {
        "code": "B127210001491",
        "type": 16001,
        "name": "鶴橋小学校",
        "address": "大阪市生野区桃谷2-20-32",
        "lat": 34.659008,
        "lng": 135.532494
    },
    {
        "code": "B127210001507",
        "type": 16001,
        "name": "東桃谷小学校",
        "address": "大阪市生野区勝山北3-7-21",
        "lat": 34.655675,
        "lng": 135.533799
    },
    {
        "code": "B127210001516",
        "type": 16001,
        "name": "勝山小学校",
        "address": "大阪市生野区勝山南1-3-5",
        "lat": 34.653731,
        "lng": 135.527494
    },
    {
        "code": "B127210001525",
        "type": 16001,
        "name": "林寺小学校",
        "address": "大阪市生野区林寺2-14-3",
        "lat": 34.644732,
        "lng": 135.532716
    },
    {
        "code": "B127210001534",
        "type": 16001,
        "name": "生野小学校",
        "address": "大阪市生野区舎利寺3-1-39",
        "lat": 34.648287,
        "lng": 135.53641
    },
    {
        "code": "B127210001552",
        "type": 16001,
        "name": "東中川小学校",
        "address": "大阪市生野区新今里7-14-37",
        "lat": 34.659175,
        "lng": 135.54977
    },
    {
        "code": "B127210001561",
        "type": 16001,
        "name": "小路小学校",
        "address": "大阪市生野区小路2-24-40",
        "lat": 34.660286,
        "lng": 135.555241
    },
    {
        "code": "B127210001570",
        "type": 16001,
        "name": "東小路小学校",
        "address": "大阪市生野区小路東3-8-15",
        "lat": 34.65912,
        "lng": 135.559519
    },
    {
        "code": "B127210001589",
        "type": 16001,
        "name": "田島小学校",
        "address": "大阪市生野区田島3-7-38",
        "lat": 34.648676,
        "lng": 135.543604
    },
    {
        "code": "B127210001598",
        "type": 16001,
        "name": "舎利寺小学校",
        "address": "大阪市生野区勝山南4-15-25",
        "lat": 34.65212,
        "lng": 135.538854
    },
    {
        "code": "B127210001605",
        "type": 16001,
        "name": "生野南小学校",
        "address": "大阪市生野区林寺6-6-7",
        "lat": 34.642288,
        "lng": 135.538132
    },
    {
        "code": "B127210001614",
        "type": 16001,
        "name": "巽小学校",
        "address": "大阪市生野区巽中3-12-5",
        "lat": 34.646038,
        "lng": 135.551881
    },
    {
        "code": "B127210001623",
        "type": 16001,
        "name": "北巽小学校",
        "address": "大阪市生野区巽北1-30-29",
        "lat": 34.654009,
        "lng": 135.546992
    },
    {
        "code": "B127210001632",
        "type": 16001,
        "name": "西生野小学校",
        "address": "大阪市生野区生野西3-5-7",
        "lat": 34.651009,
        "lng": 135.529355
    },
    {
        "code": "B127210001641",
        "type": 16001,
        "name": "巽南小学校",
        "address": "大阪市生野区巽南2-10-7",
        "lat": 34.638344,
        "lng": 135.548715
    },
    {
        "code": "B127210001650",
        "type": 16001,
        "name": "巽東小学校",
        "address": "大阪市生野区巽東3-8-13",
        "lat": 34.649593,
        "lng": 135.558075
    },
    {
        "code": "B127210001669",
        "type": 16001,
        "name": "清水小学校",
        "address": "大阪市旭区清水5-1-12",
        "lat": 34.723224,
        "lng": 135.561629
    },
    {
        "code": "B127210001678",
        "type": 16001,
        "name": "古市小学校",
        "address": "大阪市旭区森小路2-10-35",
        "lat": 34.722863,
        "lng": 135.551241
    },
    {
        "code": "B127210001687",
        "type": 16001,
        "name": "大宮小学校",
        "address": "大阪市旭区大宮4-9-16",
        "lat": 34.727334,
        "lng": 135.546519
    },
    {
        "code": "B127210001696",
        "type": 16001,
        "name": "高殿小学校",
        "address": "大阪市旭区高殿6-9-10",
        "lat": 34.71803,
        "lng": 135.543075
    },
    {
        "code": "B127210001703",
        "type": 16001,
        "name": "大宮西小学校",
        "address": "大阪市旭区中宮1-8-14",
        "lat": 34.722862,
        "lng": 135.541575
    },
    {
        "code": "B127210001712",
        "type": 16001,
        "name": "生江小学校",
        "address": "大阪市旭区生江1-10-21",
        "lat": 34.723335,
        "lng": 135.537464
    },
    {
        "code": "B127210001721",
        "type": 16001,
        "name": "城北小学校",
        "address": "大阪市旭区赤川3-13-47",
        "lat": 34.727778,
        "lng": 135.529631
    },
    {
        "code": "B127210001730",
        "type": 16001,
        "name": "新森小路小学校",
        "address": "大阪市旭区新森6-3-13",
        "lat": 34.716058,
        "lng": 135.561407
    },
    {
        "code": "B127210001749",
        "type": 16001,
        "name": "太子橋小学校",
        "address": "大阪市旭区太子橋1-12-15",
        "lat": 34.732639,
        "lng": 135.55399
    },
    {
        "code": "B127210001758",
        "type": 16001,
        "name": "高殿南小学校",
        "address": "大阪市旭区高殿3-10-30",
        "lat": 34.71403,
        "lng": 135.539464
    },
    {
        "code": "B127210001767",
        "type": 16001,
        "name": "榎並小学校",
        "address": "大阪市城東区野江4-1-28",
        "lat": 34.709475,
        "lng": 135.539437
    },
    {
        "code": "B127210001776",
        "type": 16001,
        "name": "関目小学校",
        "address": "大阪市城東区関目6-5-5",
        "lat": 34.714558,
        "lng": 135.550658
    },
    {
        "code": "B127210001785",
        "type": 16001,
        "name": "鯰江小学校",
        "address": "大阪市城東区今福西3-9-27",
        "lat": 34.701587,
        "lng": 135.548131
    },
    {
        "code": "B127210001794",
        "type": 16001,
        "name": "今福小学校",
        "address": "大阪市城東区今福南2-1-53",
        "lat": 34.696421,
        "lng": 135.551325
    },
    {
        "code": "B127210001801",
        "type": 16001,
        "name": "聖賢小学校",
        "address": "大阪市城東区新喜多2-4-35",
        "lat": 34.69756,
        "lng": 135.542631
    },
    {
        "code": "B127210001810",
        "type": 16001,
        "name": "鴫野小学校",
        "address": "大阪市城東区鴫野西4-11-48",
        "lat": 34.691283,
        "lng": 135.541298
    },
    {
        "code": "B127210001829",
        "type": 16001,
        "name": "中浜小学校",
        "address": "大阪市城東区中浜2-12-35",
        "lat": 34.68545,
        "lng": 135.543215
    },
    {
        "code": "B127210001838",
        "type": 16001,
        "name": "城東小学校",
        "address": "大阪市城東区鴫野東3-16-41",
        "lat": 34.691477,
        "lng": 135.548158
    },
    {
        "code": "B127210001847",
        "type": 16001,
        "name": "諏訪小学校",
        "address": "大阪市城東区永田2-15-5",
        "lat": 34.686311,
        "lng": 135.558074
    },
    {
        "code": "B127210001856",
        "type": 16001,
        "name": "すみれ小学校",
        "address": "大阪市城東区古市2-6-38",
        "lat": 34.710735,
        "lng": 135.558953
    },
    {
        "code": "B127210001865",
        "type": 16001,
        "name": "東中浜小学校",
        "address": "大阪市城東区東中浜5-4-5",
        "lat": 34.68445,
        "lng": 135.549158
    },
    {
        "code": "B127210001874",
        "type": 16001,
        "name": "成育小学校",
        "address": "大阪市城東区成育1-5-19",
        "lat": 34.70642,
        "lng": 135.543575
    },
    {
        "code": "B127210001883",
        "type": 16001,
        "name": "放出小学校",
        "address": "大阪市城東区放出西2-2-18",
        "lat": 34.694755,
        "lng": 135.555491
    },
    {
        "code": "B127210001892",
        "type": 16001,
        "name": "関目東小学校",
        "address": "大阪市城東区関目4-12-15",
        "lat": 34.710642,
        "lng": 135.553741
    },
    {
        "code": "B127210001909",
        "type": 16001,
        "name": "森之宮小学校",
        "address": "大阪市城東区森之宮1-6-64",
        "lat": 34.683533,
        "lng": 135.537437
    },
    {
        "code": "B127210001918",
        "type": 16001,
        "name": "鯰江東小学校",
        "address": "大阪市城東区今福東1-3-26",
        "lat": 34.700476,
        "lng": 135.554797
    },
    {
        "code": "B127210001927",
        "type": 16001,
        "name": "榎本小学校",
        "address": "大阪市鶴見区今津北1-5-35",
        "lat": 34.694838,
        "lng": 135.568684
    },
    {
        "code": "B127210001936",
        "type": 16001,
        "name": "今津小学校",
        "address": "大阪市鶴見区今津中4-1-48",
        "lat": 34.693033,
        "lng": 135.577072
    },
    {
        "code": "B127210001945",
        "type": 16001,
        "name": "茨田南小学校",
        "address": "大阪市鶴見区諸口1-3-71",
        "lat": 34.69806,
        "lng": 135.577378
    },
    {
        "code": "B127210001954",
        "type": 16001,
        "name": "茨田北小学校",
        "address": "大阪市鶴見区浜3-8-66",
        "lat": 34.709059,
        "lng": 135.586099
    },
    {
        "code": "B127210001963",
        "type": 16001,
        "name": "鶴見小学校",
        "address": "大阪市鶴見区鶴見4-14-10",
        "lat": 34.705365,
        "lng": 135.564823
    },
    {
        "code": "B127210001972",
        "type": 16001,
        "name": "茨田東小学校",
        "address": "大阪市鶴見区茨田大宮3-7-61",
        "lat": 34.708587,
        "lng": 135.595654
    },
    {
        "code": "B127210001981",
        "type": 16001,
        "name": "茨田西小学校",
        "address": "大阪市鶴見区横堤5-13-61",
        "lat": 34.707392,
        "lng": 135.573239
    },
    {
        "code": "B127210001990",
        "type": 16001,
        "name": "横堤小学校",
        "address": "大阪市鶴見区横堤1-11-83",
        "lat": 34.70156,
        "lng": 135.570045
    },
    {
        "code": "B127210002007",
        "type": 16001,
        "name": "みどり小学校",
        "address": "大阪市鶴見区緑2-4-45",
        "lat": 34.710531,
        "lng": 135.564129
    },
    {
        "code": "B127210002016",
        "type": 16001,
        "name": "鶴見南小学校",
        "address": "大阪市鶴見区鶴見2-17-22",
        "lat": 34.699115,
        "lng": 135.565768
    },
    {
        "code": "B127210002025",
        "type": 16001,
        "name": "茨田小学校",
        "address": "大阪市鶴見区安田2-1-8",
        "lat": 34.702866,
        "lng": 135.590488
    },
    {
        "code": "B127210002034",
        "type": 16001,
        "name": "焼野小学校",
        "address": "大阪市鶴見区焼野1-3-44",
        "lat": 34.716149,
        "lng": 135.584137
    },
    {
        "code": "B127210002043",
        "type": 16001,
        "name": "高松小学校",
        "address": "大阪市阿倍野区天王寺町北3-17-19",
        "lat": 34.643677,
        "lng": 135.525439
    },
    {
        "code": "B127210002052",
        "type": 16001,
        "name": "常盤小学校",
        "address": "大阪市阿倍野区松崎町3-11-12",
        "lat": 34.641316,
        "lng": 135.517134
    },
    {
        "code": "B127210002061",
        "type": 16001,
        "name": "常盤小学校分校",
        "address": "大阪市阿倍野区松崎町3-2-9",
        "lat": 34.641194,
        "lng": 135.517405
    },
    {
        "code": "B127210002070",
        "type": 16001,
        "name": "金塚小学校",
        "address": "大阪市阿倍野区旭町3-4-46",
        "lat": 34.642676,
        "lng": 135.507635
    },
    {
        "code": "B127210002089",
        "type": 16001,
        "name": "丸山小学校",
        "address": "大阪市阿倍野区丸山通1-4-43",
        "lat": 34.637205,
        "lng": 135.508608
    },
    {
        "code": "B127210002098",
        "type": 16001,
        "name": "晴明丘小学校",
        "address": "大阪市阿倍野区晴明通10-34",
        "lat": 34.632261,
        "lng": 135.50433
    },
    {
        "code": "B127210002105",
        "type": 16001,
        "name": "阿倍野小学校",
        "address": "大阪市阿倍野区阪南町2-17-21",
        "lat": 34.631567,
        "lng": 135.513329
    },
    {
        "code": "B127210002114",
        "type": 16001,
        "name": "阪南小学校",
        "address": "大阪市阿倍野区阪南町5-7-40",
        "lat": 34.624206,
        "lng": 135.511969
    },
    {
        "code": "B127210002123",
        "type": 16001,
        "name": "長池小学校",
        "address": "大阪市阿倍野区長池町20-26",
        "lat": 34.622262,
        "lng": 135.517246
    },
    {
        "code": "B127210002132",
        "type": 16001,
        "name": "苗代小学校",
        "address": "大阪市阿倍野区阪南町1-26-30",
        "lat": 34.635233,
        "lng": 135.517051
    },
    {
        "code": "B127210002141",
        "type": 16001,
        "name": "晴明丘南小学校",
        "address": "大阪市阿倍野区帝塚山1-23-8",
        "lat": 34.62404,
        "lng": 135.496553
    },
    {
        "code": "B127210002150",
        "type": 16001,
        "name": "加賀屋小学校",
        "address": "大阪市住之江区北加賀屋2-5-26",
        "lat": 34.622567,
        "lng": 135.479194
    },
    {
        "code": "B127210002169",
        "type": 16001,
        "name": "加賀屋東小学校",
        "address": "大阪市住之江区東加賀屋1-6-25",
        "lat": 34.620096,
        "lng": 135.484388
    },
    {
        "code": "B127210002178",
        "type": 16001,
        "name": "住吉川小学校",
        "address": "大阪市住之江区西加賀屋4-1-4",
        "lat": 34.615124,
        "lng": 135.478028
    },
    {
        "code": "B127210002187",
        "type": 16001,
        "name": "北粉浜小学校",
        "address": "大阪市住之江区粉浜1-5-40",
        "lat": 34.622456,
        "lng": 135.490971
    },
    {
        "code": "B127210002196",
        "type": 16001,
        "name": "住之江小学校",
        "address": "大阪市住之江区御崎4-6-43",
        "lat": 34.609791,
        "lng": 135.479111
    },
    {
        "code": "B127210002203",
        "type": 16001,
        "name": "平林小学校",
        "address": "大阪市住之江区平林南2-6-48",
        "lat": 34.609041,
        "lng": 135.455835
    },
    {
        "code": "B127210002212",
        "type": 16001,
        "name": "粉浜小学校",
        "address": "大阪市住之江区粉浜2-6-6",
        "lat": 34.618179,
        "lng": 135.490026
    },
    {
        "code": "B127210002221",
        "type": 16001,
        "name": "安立小学校",
        "address": "大阪市住之江区住之江1-4-29",
        "lat": 34.604764,
        "lng": 135.487805
    },
    {
        "code": "B127210002230",
        "type": 16001,
        "name": "敷津浦小学校",
        "address": "大阪市住之江区北島2-9-22",
        "lat": 34.602542,
        "lng": 135.477861
    },
    {
        "code": "B127210002249",
        "type": 16001,
        "name": "新北島小学校",
        "address": "大阪市住之江区新北島6-2-56",
        "lat": 34.605708,
        "lng": 135.46339
    },
    {
        "code": "B127210002258",
        "type": 16001,
        "name": "南港光小学校",
        "address": "大阪市住之江区南港中4-4-22",
        "lat": 34.633814,
        "lng": 135.423421
    },
    {
        "code": "B127210002267",
        "type": 16001,
        "name": "南港桜小学校",
        "address": "大阪市住之江区南港中5-2-48",
        "lat": 34.635175,
        "lng": 135.420866
    },
    {
        "code": "B127210002276",
        "type": 16001,
        "name": "清江小学校",
        "address": "大阪市住之江区御崎5-7-18",
        "lat": 34.607875,
        "lng": 135.4805
    },
    {
        "code": "B127210002285",
        "type": 16001,
        "name": "南港みなみ小学校",
        "address": "大阪市住之江区南港中3-5-14",
        "lat": 34.628685,
        "lng": 135.425585
    },
    {
        "code": "B127210002294",
        "type": 16001,
        "name": "東粉浜小学校",
        "address": "大阪市住吉区東粉浜2-3-26",
        "lat": 34.619679,
        "lng": 135.494415
    },
    {
        "code": "B127210002301",
        "type": 16001,
        "name": "住吉小学校",
        "address": "大阪市住吉区帝塚山西4-1-35",
        "lat": 34.617985,
        "lng": 135.496693
    },
    {
        "code": "B127210002310",
        "type": 16001,
        "name": "長居小学校",
        "address": "大阪市住吉区長居東3-3-40",
        "lat": 34.608652,
        "lng": 135.513996
    },
    {
        "code": "B127210002329",
        "type": 16001,
        "name": "依羅小学校",
        "address": "大阪市住吉区我孫子4-11-48",
        "lat": 34.597154,
        "lng": 135.507775
    },
    {
        "code": "B127210002338",
        "type": 16001,
        "name": "墨江小学校",
        "address": "大阪市住吉区墨江2-3-46",
        "lat": 34.607764,
        "lng": 135.496276
    },
    {
        "code": "B127210002347",
        "type": 16001,
        "name": "遠里小野小学校",
        "address": "大阪市住吉区遠里小野6-6-27",
        "lat": 34.59757,
        "lng": 135.494971
    },
    {
        "code": "B127210002356",
        "type": 16001,
        "name": "清水丘小学校",
        "address": "大阪市住吉区清水丘2-9-41",
        "lat": 34.601903,
        "lng": 135.492526
    },
    {
        "code": "B127210002365",
        "type": 16001,
        "name": "南住吉小学校",
        "address": "大阪市住吉区南住吉3-5-1",
        "lat": 34.604986,
        "lng": 135.503192
    },
    {
        "code": "B127210002374",
        "type": 16001,
        "name": "大領小学校",
        "address": "大阪市住吉区大領3-3-5",
        "lat": 34.615735,
        "lng": 135.507497
    },
    {
        "code": "B127210002383",
        "type": 16001,
        "name": "苅田小学校",
        "address": "大阪市住吉区苅田3-5-34",
        "lat": 34.601848,
        "lng": 135.516219
    },
    {
        "code": "B127210002392",
        "type": 16001,
        "name": "山之内小学校",
        "address": "大阪市住吉区山之内2-17-39",
        "lat": 34.595876,
        "lng": 135.500415
    },
    {
        "code": "B127210002409",
        "type": 16001,
        "name": "苅田南小学校",
        "address": "大阪市住吉区苅田10-1-35",
        "lat": 34.594765,
        "lng": 135.51408
    },
    {
        "code": "B127210002418",
        "type": 16001,
        "name": "苅田北小学校",
        "address": "大阪市住吉区苅田1-11-39",
        "lat": 34.603931,
        "lng": 135.520801
    },
    {
        "code": "B127210002427",
        "type": 16001,
        "name": "大空小学校",
        "address": "大阪市住吉区我孫子西1-6-12",
        "lat": 34.605391,
        "lng": 135.50808
    },
    {
        "code": "B127210002436",
        "type": 16001,
        "name": "桑津小学校",
        "address": "大阪市東住吉区桑津5-13-13",
        "lat": 34.635622,
        "lng": 135.531105
    },
    {
        "code": "B127210002445",
        "type": 16001,
        "name": "北田辺小学校",
        "address": "大阪市東住吉区北田辺3-11-14",
        "lat": 34.632733,
        "lng": 135.524856
    },
    {
        "code": "B127210002454",
        "type": 16001,
        "name": "田辺小学校",
        "address": "大阪市東住吉区田辺2-3-34",
        "lat": 34.62654,
        "lng": 135.526606
    },
    {
        "code": "B127210002463",
        "type": 16001,
        "name": "東田辺小学校",
        "address": "大阪市東住吉区東田辺2-14-6",
        "lat": 34.620179,
        "lng": 135.527884
    },
    {
        "code": "B127210002472",
        "type": 16001,
        "name": "南田辺小学校",
        "address": "大阪市東住吉区南田辺4-3-4",
        "lat": 34.617263,
        "lng": 135.522662
    },
    {
        "code": "B127210002481",
        "type": 16001,
        "name": "南百済小学校",
        "address": "大阪市東住吉区湯里1-15-40",
        "lat": 34.615291,
        "lng": 135.535161
    },
    {
        "code": "B127210002490",
        "type": 16001,
        "name": "育和小学校",
        "address": "大阪市東住吉区杭全4-10-12",
        "lat": 34.634233,
        "lng": 135.53766
    },
    {
        "code": "B127210002506",
        "type": 16001,
        "name": "鷹合小学校",
        "address": "大阪市東住吉区鷹合3-12-38",
        "lat": 34.611874,
        "lng": 135.529162
    },
    {
        "code": "B127210002515",
        "type": 16001,
        "name": "今川小学校",
        "address": "大阪市東住吉区今川4-24-4",
        "lat": 34.626679,
        "lng": 135.536049
    },
    {
        "code": "B127210002524",
        "type": 16001,
        "name": "矢田小学校",
        "address": "大阪市東住吉区矢田3-4-27",
        "lat": 34.603964,
        "lng": 135.528586
    },
    {
        "code": "B127210002533",
        "type": 16001,
        "name": "矢田東小学校",
        "address": "大阪市東住吉区住道矢田2-7-43",
        "lat": 34.602626,
        "lng": 135.538133
    },
    {
        "code": "B127210002542",
        "type": 16001,
        "name": "矢田西小学校",
        "address": "大阪市東住吉区公園南矢田2-15-43",
        "lat": 34.604459,
        "lng": 135.52594
    },
    {
        "code": "B127210002551",
        "type": 16001,
        "name": "矢田北小学校",
        "address": "大阪市東住吉区照ｹ丘矢田2-1-55",
        "lat": 34.608486,
        "lng": 135.536244
    },
    {
        "code": "B127210002560",
        "type": 16001,
        "name": "湯里小学校",
        "address": "大阪市東住吉区湯里6-8-3",
        "lat": 34.610458,
        "lng": 135.539355
    },
    {
        "code": "B127210002579",
        "type": 16001,
        "name": "天下茶屋小学校",
        "address": "大阪市西成区聖天下1-11-35",
        "lat": 34.636788,
        "lng": 135.501719
    },
    {
        "code": "B127210002588",
        "type": 16001,
        "name": "岸里小学校",
        "address": "大阪市西成区千本中1-8-22",
        "lat": 34.633511,
        "lng": 135.491554
    },
    {
        "code": "B127210002597",
        "type": 16001,
        "name": "玉出小学校",
        "address": "大阪市西成区玉出中2-13-48",
        "lat": 34.624458,
        "lng": 135.491534
    },
    {
        "code": "B127210002604",
        "type": 16001,
        "name": "千本小学校",
        "address": "大阪市西成区千本中2-8-8",
        "lat": 34.631955,
        "lng": 135.48861
    },
    {
        "code": "B127210002613",
        "type": 16001,
        "name": "橘小学校",
        "address": "大阪市西成区橘2-1-18",
        "lat": 34.639556,
        "lng": 135.491736
    },
    {
        "code": "B127210002640",
        "type": 16001,
        "name": "長橋小学校",
        "address": "大阪市西成区長橋2-3-21",
        "lat": 34.648065,
        "lng": 135.492248
    },
    {
        "code": "B127210002659",
        "type": 16001,
        "name": "北津守小学校",
        "address": "大阪市西成区北津守3-3-40",
        "lat": 34.651481,
        "lng": 135.483443
    },
    {
        "code": "B127210002668",
        "type": 16001,
        "name": "南津守小学校",
        "address": "大阪市西成区南津守6-1-14",
        "lat": 34.628095,
        "lng": 135.485304
    },
    {
        "code": "B127210002677",
        "type": 16001,
        "name": "新今宮小学校",
        "address": "大阪市西成区花園北1-8-32",
        "lat": 34.648687,
        "lng": 135.498247
    },
    {
        "code": "B127210002711",
        "type": 16001,
        "name": "喜連小学校",
        "address": "大阪市平野区喜連7-6-4",
        "lat": 34.611347,
        "lng": 135.555354
    },
    {
        "code": "B127210002720",
        "type": 16001,
        "name": "平野西小学校",
        "address": "大阪市平野区背戸口4-1-31",
        "lat": 34.624984,
        "lng": 135.547715
    },
    {
        "code": "B127210002739",
        "type": 16001,
        "name": "平野小学校",
        "address": "大阪市平野区平野宮町1-9-29",
        "lat": 34.626679,
        "lng": 135.553965
    },
    {
        "code": "B127210002748",
        "type": 16001,
        "name": "長吉小学校",
        "address": "大阪市平野区長吉長原2-6-55",
        "lat": 34.606154,
        "lng": 135.56938
    },
    {
        "code": "B127210002757",
        "type": 16001,
        "name": "瓜破小学校",
        "address": "大阪市平野区瓜破5-3-11",
        "lat": 34.602654,
        "lng": 135.552799
    },
    {
        "code": "B127210002766",
        "type": 16001,
        "name": "瓜破北小学校",
        "address": "大阪市平野区瓜破1-8-33",
        "lat": 34.605237,
        "lng": 135.551077
    },
    {
        "code": "B127210002775",
        "type": 16001,
        "name": "加美小学校",
        "address": "大阪市平野区加美正覚寺3-13-35",
        "lat": 34.630984,
        "lng": 135.563603
    },
    {
        "code": "B127210002784",
        "type": 16001,
        "name": "加美南部小学校",
        "address": "大阪市平野区加美南1-9-17",
        "lat": 34.624291,
        "lng": 135.570269
    },
    {
        "code": "B127210002793",
        "type": 16001,
        "name": "平野南小学校",
        "address": "大阪市平野区平野南2-3-8",
        "lat": 34.618152,
        "lng": 135.558214
    },
    {
        "code": "B127210002800",
        "type": 16001,
        "name": "長吉東小学校",
        "address": "大阪市平野区長吉出戸8-8-41",
        "lat": 34.608287,
        "lng": 135.576274
    },
    {
        "code": "B127210002819",
        "type": 16001,
        "name": "長吉南小学校",
        "address": "大阪市平野区長吉六反3-2-17",
        "lat": 34.604571,
        "lng": 135.578685
    },
    {
        "code": "B127210002828",
        "type": 16001,
        "name": "喜連西小学校",
        "address": "大阪市平野区喜連西3-17-61",
        "lat": 34.612458,
        "lng": 135.545049
    },
    {
        "code": "B127210002837",
        "type": 16001,
        "name": "長原小学校",
        "address": "大阪市平野区長吉長原東3-10-9",
        "lat": 34.599543,
        "lng": 135.577297
    },
    {
        "code": "B127210002846",
        "type": 16001,
        "name": "喜連東小学校",
        "address": "大阪市平野区喜連東2-2-17",
        "lat": 34.613597,
        "lng": 135.561436
    },
    {
        "code": "B127210002855",
        "type": 16001,
        "name": "瓜破東小学校",
        "address": "大阪市平野区瓜破東2-5-78",
        "lat": 34.607431,
        "lng": 135.560881
    },
    {
        "code": "B127210002864",
        "type": 16001,
        "name": "加美北小学校",
        "address": "大阪市平野区加美北7-4-10",
        "lat": 34.636428,
        "lng": 135.560408
    },
    {
        "code": "B127210002873",
        "type": 16001,
        "name": "瓜破西小学校",
        "address": "大阪市平野区瓜破西2-1-43",
        "lat": 34.604042,
        "lng": 135.544549
    },
    {
        "code": "B127210002882",
        "type": 16001,
        "name": "長吉出戸小学校",
        "address": "大阪市平野区長吉出戸3-1-43",
        "lat": 34.612681,
        "lng": 135.570491
    },
    {
        "code": "B127210002891",
        "type": 16001,
        "name": "喜連北小学校",
        "address": "大阪市平野区喜連1-7-4",
        "lat": 34.614375,
        "lng": 135.550354
    },
    {
        "code": "B127210002908",
        "type": 16001,
        "name": "加美東小学校",
        "address": "大阪市平野区加美東5-9-25",
        "lat": 34.62704,
        "lng": 135.57163
    },
    {
        "code": "B127210002917",
        "type": 16001,
        "name": "川辺小学校",
        "address": "大阪市平野区長吉川辺1-4-9",
        "lat": 34.596821,
        "lng": 135.569547
    },
    {
        "code": "B127210002926",
        "type": 16001,
        "name": "新平野西小学校",
        "address": "大阪市平野区背戸口1-5-22",
        "lat": 34.624429,
        "lng": 135.541938
    },
    {
        "code": "B127210009778",
        "type": 16001,
        "name": "大池小学校",
        "address": "大阪市生野区中川3-4-3",
        "lat": 34.659806,
        "lng": 135.544445
    },
    {
        "code": "B127210009787",
        "type": 16001,
        "name": "まつば小学校",
        "address": "大阪市西成区梅南3-2-25",
        "lat": 34.642268,
        "lng": 135.489041
    },
    {
        "code": "B127310000016",
        "type": 16001,
        "name": "追手門学院小学校",
        "address": "大阪市中央区大手前1-3-20",
        "lat": 34.689922,
        "lng": 135.521661
    },
    {
        "code": "B127310000025",
        "type": 16001,
        "name": "城星学園小学校",
        "address": "大阪市中央区玉造2-23-26",
        "lat": 34.678305,
        "lng": 135.528414
    },
    {
        "code": "B127310000034",
        "type": 16001,
        "name": "大阪信愛学院小学校",
        "address": "大阪市城東区古市2-7-30",
        "lat": 34.711557,
        "lng": 135.557633
    },
    {
        "code": "B127310000043",
        "type": 16001,
        "name": "帝塚山学院小学校",
        "address": "大阪市住吉区帝塚山中3-10-51",
        "lat": 34.620901,
        "lng": 135.499025
    },
    {
        "code": "B127310000052",
        "type": 16001,
        "name": "建国小学校",
        "address": "大阪市住吉区遠里小野2-3-13",
        "lat": 34.597171,
        "lng": 135.499443
    },
    {
        "code": "B127310000061",
        "type": 16001,
        "name": "城南学園小学校",
        "address": "大阪市東住吉区湯里6-4-26",
        "lat": 34.608764,
        "lng": 135.5378
    },
    {
        "code": "B127310000070",
        "type": 16001,
        "name": "大阪金剛インターナショナル小学校",
        "address": "大阪市住之江区南港北2-6-10",
        "lat": 34.63956,
        "lng": 135.407333
    },
    {
        "code": "C127110000018",
        "type": 16002,
        "name": "大阪教育大学附属天王寺中学校",
        "address": "大阪市天王寺区南河堀町4-88",
        "lat": 34.647475,
        "lng": 135.521023
    },
    {
        "code": "C127110000027",
        "type": 16002,
        "name": "大阪教育大学附属平野中学校",
        "address": "大阪市平野区流町2-1-24",
        "lat": 34.617791,
        "lng": 135.550798
    },
    {
        "code": "C127210000016",
        "type": 16002,
        "name": "北稜中学校",
        "address": "大阪市北区天満橋1-1-58",
        "lat": 34.698337,
        "lng": 135.520105
    },
    {
        "code": "C127210000025",
        "type": 16002,
        "name": "天満中学校",
        "address": "大阪市北区神山町12-9",
        "lat": 34.703253,
        "lng": 135.506662
    },
    {
        "code": "C127210000034",
        "type": 16002,
        "name": "高倉中学校",
        "address": "大阪市都島区御幸町1-1-10",
        "lat": 34.712836,
        "lng": 135.532659
    },
    {
        "code": "C127210000043",
        "type": 16002,
        "name": "桜宮中学校",
        "address": "大阪市都島区東野田町5-16-10",
        "lat": 34.701642,
        "lng": 135.536326
    },
    {
        "code": "C127210000052",
        "type": 16002,
        "name": "都島中学校",
        "address": "大阪市都島区中野町3-9-33",
        "lat": 34.702948,
        "lng": 135.525605
    },
    {
        "code": "C127210000061",
        "type": 16002,
        "name": "淀川中学校",
        "address": "大阪市都島区毛馬町3-5-12",
        "lat": 34.72214,
        "lng": 135.519271
    },
    {
        "code": "C127210000070",
        "type": 16002,
        "name": "友渕中学校",
        "address": "大阪市都島区友渕町1-5-151",
        "lat": 34.71603,
        "lng": 135.525632
    },
    {
        "code": "C127210000089",
        "type": 16002,
        "name": "八阪中学校",
        "address": "大阪市福島区鷺洲6-1-13",
        "lat": 34.700891,
        "lng": 135.47797
    },
    {
        "code": "C127210000098",
        "type": 16002,
        "name": "下福島中学校",
        "address": "大阪市福島区玉川1-4-11",
        "lat": 34.688476,
        "lng": 135.481831
    },
    {
        "code": "C127210000105",
        "type": 16002,
        "name": "野田中学校",
        "address": "大阪市福島区吉野5-9-4",
        "lat": 34.687226,
        "lng": 135.468915
    },
    {
        "code": "C127210000114",
        "type": 16002,
        "name": "春日出中学校",
        "address": "大阪市此花区春日出南1-2-8",
        "lat": 34.678727,
        "lng": 135.457694
    },
    {
        "code": "C127210000123",
        "type": 16002,
        "name": "梅香中学校",
        "address": "大阪市此花区春日出北3-12-24",
        "lat": 34.681587,
        "lng": 135.445584
    },
    {
        "code": "C127210000132",
        "type": 16002,
        "name": "此花中学校",
        "address": "大阪市此花区高見2-14-31",
        "lat": 34.690003,
        "lng": 135.455416
    },
    {
        "code": "C127210000141",
        "type": 16002,
        "name": "咲くやこの花中学校",
        "address": "大阪市此花区西九条6-1-44",
        "lat": 34.680534,
        "lng": 135.461606
    },