[
    {
        "code": "A127210000984",
        "type": 16011,
        "name": "旭幼稚園",
        "address": "泉大津市昭和町4-38",
        "lat": 34.499619,
        "lng": 135.406128
    },
    {
        "code": "A127210000993",
        "type": 16011,
        "name": "穴師幼稚園",
        "address": "泉大津市我孫子1-12-1",
        "lat": 34.495511,
        "lng": 135.417897
    },
    {
        "code": "A127210001000",
        "type": 16011,
        "name": "条東幼稚園",
        "address": "泉大津市千原町2-11-1",
        "lat": 34.506176,
        "lng": 135.427093
    },
    {
        "code": "A127210001019",
        "type": 16011,
        "name": "条南幼稚園",
        "address": "泉大津市寿町16-16",
        "lat": 34.502727,
        "lng": 135.419363
    },
    {
        "code": "A227210000359",
        "type": 16013,
        "name": "かみじょう認定こども園",
        "address": "泉大津市東助松町4-8-18",
        "lat": 34.512056,
        "lng": 135.421743
    },
    {
        "code": "A227210000368",
        "type": 16013,
        "name": "くすのき認定こども園",
        "address": "泉大津市我孫子2-7-1",
        "lat": 34.4925,
        "lng": 135.411886
    },
    {
        "code": "A227210000377",
        "type": 16013,
        "name": "えびす認定こども園",
        "address": "泉大津市下之町4-7",
        "lat": 34.501099,
        "lng": 135.397623
    },
    {
        "code": "A227310001971",
        "type": 16013,
        "name": "アンビーこども園",
        "address": "泉大津市旭町22-28",
        "lat": 34.501966,
        "lng": 135.409347
    },
    {
        "code": "A227310001980",
        "type": 16013,
        "name": "南海かもめ認定こども園",
        "address": "泉大津市戎町3-4",
        "lat": 34.500877,
        "lng": 135.402692
    },
    {
        "code": "A227310001999",
        "type": 16013,
        "name": "認定こども園ぱる",
        "address": "泉大津市西港町9-7",
        "lat": 34.504629,
        "lng": 135.397743
    },
    {
        "code": "A227310002006",
        "type": 16013,
        "name": "とれぞあ子ども園",
        "address": "泉大津市池浦町3-5-8",
        "lat": 34.497736,
        "lng": 135.415724
    },
    {
        "code": "A227310002015",
        "type": 16013,
        "name": "すこやか認定こども園",
        "address": "泉大津市東豊中町3-1-15",
        "lat": 34.49066,
        "lng": 135.426288
    },
    {
        "code": "A227310002024",
        "type": 16013,
        "name": "認定こども園アイビースクール",
        "address": "泉大津市二田町3-5-32",
        "lat": 34.505985,
        "lng": 135.414611
    },
    {
        "code": "A227310002033",
        "type": 16013,
        "name": "みらいずこども園",
        "address": "泉大津市北豊中町1-2-15",
        "lat": 34.498847,
        "lng": 135.42301
    },
    {
        "code": "A227310002042",
        "type": 16013,
        "name": "認定こども園ぱる分園ぷちぱる",
        "address": "泉大津市西港町3-10",
        "lat": 34.504672,
        "lng": 135.39778
    },
    {
        "code": "A227310002051",
        "type": 16013,
        "name": "みらいずこども園分園",
        "address": "泉大津市北豊中町1-7-4",
        "lat": 34.498869,
        "lng": 135.423182
    },
    {
        "code": "B127210004899",
        "type": 16001,
        "name": "旭小学校",
        "address": "泉大津市昭和町2-27",
        "lat": 34.500691,
        "lng": 135.404786
    },
    {
        "code": "B127210004906",
        "type": 16001,
        "name": "穴師小学校",
        "address": "泉大津市我孫子1-12-10",
        "lat": 34.494942,
        "lng": 135.41748
    },
    {
        "code": "B127210004915",
        "type": 16001,
        "name": "上條小学校",
        "address": "泉大津市東助松町3-13-1",
        "lat": 34.511134,
        "lng": 135.42284
    },
    {
        "code": "B127210004924",
        "type": 16001,
        "name": "浜小学校",
        "address": "泉大津市小松町5-6",
        "lat": 34.50869,
        "lng": 135.40873
    },
    {
        "code": "B127210004933",
        "type": 16001,
        "name": "条東小学校",
        "address": "泉大津市千原町2-12-1",
        "lat": 34.506079,
        "lng": 135.42859
    },
    {
        "code": "B127210004942",
        "type": 16001,
        "name": "条南小学校",
        "address": "泉大津市宮町9-1",
        "lat": 34.501135,
        "lng": 135.419618
    },
    {
        "code": "B127210004951",
        "type": 16001,
        "name": "楠小学校",
        "address": "泉大津市我孫子2-4-7",
        "lat": 34.492997,
        "lng": 135.412564
    },
    {
        "code": "B127210004960",
        "type": 16001,
        "name": "戎小学校",
        "address": "泉大津市河原町3-7",
        "lat": 34.501561,
        "lng": 135.395001
    },
    {
        "code": "C127210002210",
        "type": 16002,
        "name": "東陽中学校",
        "address": "泉大津市池浦町4-4-1",
        "lat": 34.499746,
        "lng": 135.413813
    },
    {
        "code": "C127210002229",
        "type": 16002,
        "name": "誠風中学校",
        "address": "泉大津市池浦町4-1-1",
        "lat": 34.49908,
        "lng": 135.413425
    },
    {
        "code": "C127210002238",
        "type": 16002,
        "name": "小津中学校",
        "address": "泉大津市助松町2-13-1",
        "lat": 34.516022,
        "lng": 135.418202
    },
    {
        "code": "D127210000390",
        "type": 16004,
        "name": "泉大津高等学校",
        "address": "泉大津市北豊中町1-1-1",
        "lat": 34.498052,
        "lng": 135.422674
    },
    {
        "code": "H127310000601",
        "type": 16016,
        "name": "泉大津市医師会附属看護高等専修学校",
        "address": "泉大津市宮町2-25",
        "lat": 34.499913,
        "lng": 135.419805
    },
    {
        "code": "H127310000781",
        "type": 16016,
        "name": "大阪調理製菓専門学校",
        "address": "泉大津市東豊中町3-1-15",
        "lat": 34.490769,
        "lng": 135.426274
    },
    {
        "code": "H127310001584",
        "type": 16016,
        "name": "大阪健康ほいく専門学校",
        "address": "泉大津市東豊中町3-1-15",
        "lat": 34.490905,
        "lng": 135.426523
    }
]