[
    {
        "code": "A127210000868",
        "type": 16011,
        "name": "吹田第一幼稚園",
        "address": "吹田市元町30-44",
        "lat": 34.760157,
        "lng": 135.522862
    },
    {
        "code": "A127210000877",
        "type": 16011,
        "name": "吹田第三幼稚園",
        "address": "吹田市高城町18-39",
        "lat": 34.762325,
        "lng": 135.531036
    },
    {
        "code": "A127210000886",
        "type": 16011,
        "name": "佐竹台幼稚園",
        "address": "吹田市佐竹台5-12-1",
        "lat": 34.789429,
        "lng": 135.519773
    },
    {
        "code": "A127210000895",
        "type": 16011,
        "name": "豊津第一幼稚園",
        "address": "吹田市江坂町1-15-42",
        "lat": 34.761837,
        "lng": 135.499631
    },
    {
        "code": "A127210000902",
        "type": 16011,
        "name": "岸部第一幼稚園",
        "address": "吹田市岸部中2-19-1",
        "lat": 34.777323,
        "lng": 135.536717
    },
    {
        "code": "A127210000911",
        "type": 16011,
        "name": "山田第一幼稚園",
        "address": "吹田市山田東2-33-3",
        "lat": 34.800247,
        "lng": 135.528159
    },
    {
        "code": "A127210000920",
        "type": 16011,
        "name": "吹田南幼稚園",
        "address": "吹田市南吹田1-4-16",
        "lat": 34.756191,
        "lng": 135.508391
    },
    {
        "code": "A127210000939",
        "type": 16011,
        "name": "南山田幼稚園",
        "address": "吹田市千里丘西9-1",
        "lat": 34.794283,
        "lng": 135.543992
    },
    {
        "code": "A127210000948",
        "type": 16011,
        "name": "山田第三幼稚園",
        "address": "吹田市山田西1-4-1",
        "lat": 34.793413,
        "lng": 135.530748
    },
    {
        "code": "A127210000957",
        "type": 16011,
        "name": "江坂大池幼稚園",
        "address": "吹田市江坂町3-13-1",
        "lat": 34.766181,
        "lng": 135.49617
    },
    {
        "code": "A127210000966",
        "type": 16011,
        "name": "千里第二幼稚園",
        "address": "吹田市千里山松が丘25-1",
        "lat": 34.779663,
        "lng": 135.509205
    },
    {
        "code": "A127210000975",
        "type": 16011,
        "name": "千里新田幼稚園",
        "address": "吹田市春日4-10-1",
        "lat": 34.784242,
        "lng": 135.499937
    },
    {
        "code": "A127210002125",
        "type": 16011,
        "name": "片山幼稚園",
        "address": "吹田市朝日が丘町16-1",
        "lat": 34.770367,
        "lng": 135.518757
    },
    {
        "code": "A127210002134",
        "type": 16011,
        "name": "東山田幼稚園",
        "address": "吹田市青葉丘南15-10",
        "lat": 34.804815,
        "lng": 135.548533
    },
    {
        "code": "A127210002143",
        "type": 16011,
        "name": "東佐井寺幼稚園",
        "address": "吹田市五月が丘西4-1",
        "lat": 34.786811,
        "lng": 135.523192
    },
    {
        "code": "A127310001534",
        "type": 16011,
        "name": "関西大学幼稚園",
        "address": "吹田市山手町3-5-34",
        "lat": 34.770242,
        "lng": 135.507069
    },
    {
        "code": "A127310001543",
        "type": 16011,
        "name": "西吹田幼稚園",
        "address": "吹田市泉町4-41-10",
        "lat": 34.760388,
        "lng": 135.508458
    },
    {
        "code": "A127310001552",
        "type": 16011,
        "name": "玉川学園幼稚園",
        "address": "吹田市高野台4-2-1",
        "lat": 34.793395,
        "lng": 135.520934
    },
    {
        "code": "A127310001561",
        "type": 16011,
        "name": "千里丘学園幼稚園",
        "address": "吹田市新芦屋下14-1",
        "lat": 34.799781,
        "lng": 135.553628
    },
    {
        "code": "A127310001570",
        "type": 16011,
        "name": "ふじしろ幼稚園",
        "address": "吹田市藤白台4-9-1",
        "lat": 34.822595,
        "lng": 135.513373
    },
    {
        "code": "A127310001589",
        "type": 16011,
        "name": "カトリックさゆり幼稚園",
        "address": "吹田市古江台1-17-1",
        "lat": 34.811085,
        "lng": 135.510801
    },
    {
        "code": "A127310001598",
        "type": 16011,
        "name": "青山幼稚園",
        "address": "吹田市青山台4-5",
        "lat": 34.824948,
        "lng": 135.503738
    },
    {
        "code": "A127310001605",
        "type": 16011,
        "name": "千里幼稚園",
        "address": "吹田市津雲台4-6-1",
        "lat": 34.801419,
        "lng": 135.508746
    },
    {
        "code": "A127310001614",
        "type": 16011,
        "name": "千里敬愛幼稚園",
        "address": "吹田市桃山台2-1-1",
        "lat": 34.791162,
        "lng": 135.502325
    },
    {
        "code": "A127310001623",
        "type": 16011,
        "name": "まこと幼稚園",
        "address": "吹田市豊津町38-1",
        "lat": 34.761053,
        "lng": 135.48914
    },
    {
        "code": "A127310001632",
        "type": 16011,
        "name": "岸部敬愛幼稚園",
        "address": "吹田市岸部北1-15-8",
        "lat": 34.780474,
        "lng": 135.528309
    },
    {
        "code": "A127310001641",
        "type": 16011,
        "name": "藤ケ丘幼稚園",
        "address": "吹田市藤が丘町9-23",
        "lat": 34.76977,
        "lng": 135.523803
    },
    {
        "code": "A127310001650",
        "type": 16011,
        "name": "朝日幼稚園",
        "address": "吹田市高浜町10-38",
        "lat": 34.760346,
        "lng": 135.527562
    },
    {
        "code": "A127310001669",
        "type": 16011,
        "name": "千里山ナオミ幼稚園",
        "address": "吹田市千里山西5-26-1",
        "lat": 34.780866,
        "lng": 135.505197
    },
    {
        "code": "A127310002720",
        "type": 16011,
        "name": "山手幼稚園",
        "address": "吹田市山手町1-15",
        "lat": 34.767555,
        "lng": 135.513404
    },
    {
        "code": "A127310002980",
        "type": 16011,
        "name": "山田敬愛幼稚園",
        "address": "吹田市山田西2-5-3",
        "lat": 34.795117,
        "lng": 135.528056
    },
    {
        "code": "A227210000340",
        "type": 16013,
        "name": "はぎのきこども園",
        "address": "吹田市古江台2-11-4",
        "lat": 34.81631,
        "lng": 135.507416
    },
    {
        "code": "A227310001873",
        "type": 16013,
        "name": "旭ヶ丘学園",
        "address": "吹田市朝日が丘1-5",
        "lat": 34.768287,
        "lng": 135.519994
    },
    {
        "code": "A227310001882",
        "type": 16013,
        "name": "千里山やまて学園",
        "address": "吹田市山手町2-17-22",
        "lat": 34.767787,
        "lng": 135.510444
    },
    {
        "code": "A227310001891",
        "type": 16013,
        "name": "もみの木保育園",
        "address": "吹田市東御旅町5-53",
        "lat": 34.752392,
        "lng": 135.529386
    },
    {
        "code": "A227310001908",
        "type": 16013,
        "name": "かんらんこども園",
        "address": "吹田市南金田2-18-7",
        "lat": 34.75583,
        "lng": 135.503733
    },
    {
        "code": "A227310001917",
        "type": 16013,
        "name": "千里丘キンダースクール",
        "address": "吹田市千里丘北1-3",
        "lat": 34.799486,
        "lng": 135.543809
    },
    {
        "code": "A227310001926",
        "type": 16013,
        "name": "もみの木千里保育園",
        "address": "吹田市山田北5-15",
        "lat": 34.808461,
        "lng": 135.519215
    },
    {
        "code": "A227310001935",
        "type": 16013,
        "name": "南ヶ丘こども園",
        "address": "吹田市佐井寺南が丘3-5",
        "lat": 34.780902,
        "lng": 135.518204
    },
    {
        "code": "A227310001944",
        "type": 16013,
        "name": "吹田くすのきこども園",
        "address": "吹田市南吹田5-20-7",
        "lat": 34.751249,
        "lng": 135.500773
    },
    {
        "code": "A227310001953",
        "type": 16013,
        "name": "千里ニュータウンこども園",
        "address": "吹田市佐竹台2-3-1",
        "lat": 34.791953,
        "lng": 135.514507
    },
    {
        "code": "A227310001962",
        "type": 16013,
        "name": "旭ヶ丘学園千一分室",
        "address": "吹田市片山町4-34-11",
        "lat": 34.770115,
        "lng": 135.527436
    },
    {
        "code": "A227310004399",
        "type": 16013,
        "name": "彩つばさこども園",
        "address": "吹田市千里丘北1-14",
        "lat": 34.802669,
        "lng": 135.546562
    },
    {
        "code": "A227310004406",
        "type": 16013,
        "name": "千里山グレース幼稚園",
        "address": "吹田市千里山東2-18-43",
        "lat": 34.776893,
        "lng": 135.50735
    },
    {
        "code": "B127210002695",
        "type": 16001,
        "name": "弘済小学校",
        "address": "吹田市古江台6-2-2",
        "lat": 34.809935,
        "lng": 135.514215
    },
    {
        "code": "B127210004531",
        "type": 16001,
        "name": "吹田第一小学校",
        "address": "吹田市元町30-35",
        "lat": 34.759968,
        "lng": 135.523604
    },
    {
        "code": "B127210004540",
        "type": 16001,
        "name": "吹田第二小学校",
        "address": "吹田市泉町3-15-18",
        "lat": 34.758579,
        "lng": 135.510771
    },
    {
        "code": "B127210004559",
        "type": 16001,
        "name": "吹田第三小学校",
        "address": "吹田市高城町18-39",
        "lat": 34.762496,
        "lng": 135.530936
    },
    {
        "code": "B127210004568",
        "type": 16001,
        "name": "吹田東小学校",
        "address": "吹田市幸町20-1",
        "lat": 34.767551,
        "lng": 135.535991
    },
    {
        "code": "B127210004577",
        "type": 16001,
        "name": "千里第一小学校",
        "address": "吹田市片山町4-32-10",
        "lat": 34.769651,
        "lng": 135.526483
    },
    {
        "code": "B127210004586",
        "type": 16001,
        "name": "千里第二小学校",
        "address": "吹田市千里山松が丘25-1",
        "lat": 34.77916,
        "lng": 135.50916
    },
    {
        "code": "B127210004595",
        "type": 16001,
        "name": "千里第三小学校",
        "address": "吹田市千里山西2-13-1",
        "lat": 34.772966,
        "lng": 135.499439
    },
    {
        "code": "B127210004602",
        "type": 16001,
        "name": "岸部第一小学校",
        "address": "吹田市岸部中2-19-1",
        "lat": 34.776967,
        "lng": 135.535547
    },
    {
        "code": "B127210004611",
        "type": 16001,
        "name": "豊津第一小学校",
        "address": "吹田市江坂町1-15-42",
        "lat": 34.761551,
        "lng": 135.499856
    },
    {
        "code": "B127210004620",
        "type": 16001,
        "name": "山手小学校",
        "address": "吹田市山手町2-15-43",
        "lat": 34.767106,
        "lng": 135.511382
    },
    {
        "code": "B127210004639",
        "type": 16001,
        "name": "山田第一小学校",
        "address": "吹田市山田東2-33-2",
        "lat": 34.799853,
        "lng": 135.528992
    },
    {
        "code": "B127210004648",
        "type": 16001,
        "name": "山田第二小学校",
        "address": "吹田市千里丘下19-1",
        "lat": 34.793437,
        "lng": 135.549684
    },
    {
        "code": "B127210004657",
        "type": 16001,
        "name": "佐竹台小学校",
        "address": "吹田市佐竹台4-12-1",
        "lat": 34.787798,
        "lng": 135.51541
    },
    {
        "code": "B127210004666",
        "type": 16001,
        "name": "高野台小学校",
        "address": "吹田市高野台2-16-1",
        "lat": 34.795909,
        "lng": 135.515409
    },
    {
        "code": "B127210004675",
        "type": 16001,
        "name": "津雲台小学校",
        "address": "吹田市津雲台4-7-1",
        "lat": 34.802602,
        "lng": 135.509688
    },
    {
        "code": "B127210004684",
        "type": 16001,
        "name": "古江台小学校",
        "address": "吹田市古江台5-6-1",
        "lat": 34.815712,
        "lng": 135.509548
    },
    {
        "code": "B127210004693",
        "type": 16001,
        "name": "藤白台小学校",
        "address": "吹田市藤白台3-3-1",
        "lat": 34.819489,
        "lng": 135.51552
    },
    {
        "code": "B127210004700",
        "type": 16001,
        "name": "青山台小学校",
        "address": "吹田市青山台2-5-1",
        "lat": 34.822239,
        "lng": 135.504299
    },
    {
        "code": "B127210004719",
        "type": 16001,
        "name": "桃山台小学校",
        "address": "吹田市桃山台1-5-1",
        "lat": 34.792131,
        "lng": 135.50366
    },
    {
        "code": "B127210004728",
        "type": 16001,
        "name": "千里たけみ小学校",
        "address": "吹田市竹見台3-3-1",
        "lat": 34.79577,
        "lng": 135.501688
    },
    {
        "code": "B127210004737",
        "type": 16001,
        "name": "吹田南小学校",
        "address": "吹田市南吹田5-12-1",
        "lat": 34.752219,
        "lng": 135.504189
    },
    {
        "code": "B127210004746",
        "type": 16001,
        "name": "豊津第二小学校",
        "address": "吹田市江坂町2-5-1",
        "lat": 34.762495,
        "lng": 135.49494
    },
    {
        "code": "B127210004755",
        "type": 16001,
        "name": "吹田第六小学校",
        "address": "吹田市南清和園町43-1",
        "lat": 34.752941,
        "lng": 135.51441
    },
    {
        "code": "B127210004764",
        "type": 16001,
        "name": "岸部第二小学校",
        "address": "吹田市岸部北4-12-1",
        "lat": 34.782327,
        "lng": 135.528908
    },
    {
        "code": "B127210004773",
        "type": 16001,
        "name": "山田第三小学校",
        "address": "吹田市山田西1-4-1",
        "lat": 34.792992,
        "lng": 135.531603
    },
    {
        "code": "B127210004782",
        "type": 16001,
        "name": "南山田小学校",
        "address": "吹田市千里丘西9-1",
        "lat": 34.794492,
        "lng": 135.543324
    },
    {
        "code": "B127210004791",
        "type": 16001,
        "name": "江坂大池小学校",
        "address": "吹田市江坂町3-13-1",
        "lat": 34.766106,
        "lng": 135.495578
    },
    {
        "code": "B127210004808",
        "type": 16001,
        "name": "千里新田小学校",
        "address": "吹田市春日4-10-1",
        "lat": 34.784854,
        "lng": 135.500244
    },
    {
        "code": "B127210004817",
        "type": 16001,
        "name": "西山田小学校",
        "address": "吹田市山田西2-10-1",
        "lat": 34.795437,
        "lng": 135.525131
    },
    {
        "code": "B127210004826",
        "type": 16001,
        "name": "北山田小学校",
        "address": "吹田市山田北1-1",
        "lat": 34.807935,
        "lng": 135.520937
    },
    {
        "code": "B127210004835",
        "type": 16001,
        "name": "片山小学校",
        "address": "吹田市朝日が丘町16-1",
        "lat": 34.770134,
        "lng": 135.518465
    },
    {
        "code": "B127210004844",
        "type": 16001,
        "name": "東山田小学校",
        "address": "吹田市青葉丘南15-10",
        "lat": 34.805325,
        "lng": 135.549017
    },
    {
        "code": "B127210004853",
        "type": 16001,
        "name": "東佐井寺小学校",
        "address": "吹田市五月が丘西4-1",
        "lat": 34.78666,
        "lng": 135.522603
    },
    {
        "code": "B127210004862",
        "type": 16001,
        "name": "佐井寺小学校",
        "address": "吹田市佐井寺3-3-1",
        "lat": 34.786326,
        "lng": 135.516659
    },
    {
        "code": "B127210004871",
        "type": 16001,
        "name": "山田第五小学校",
        "address": "吹田市山田西1-6-1",
        "lat": 34.791743,
        "lng": 135.534325
    },
    {
        "code": "B127210004880",
        "type": 16001,
        "name": "千里丘北小学校",
        "address": "吹田市千里丘北1-30",
        "lat": 34.799842,
        "lng": 135.544982
    },
    {
        "code": "C127210001300",
        "type": 16002,
        "name": "弘済中学校",
        "address": "吹田市古江台6-2-2",
        "lat": 34.809324,
        "lng": 135.51377
    },
    {
        "code": "C127210002032",
        "type": 16002,
        "name": "第一中学校",
        "address": "吹田市千里山西2-2-1",
        "lat": 34.772744,
        "lng": 135.502189
    },
    {
        "code": "C127210002041",
        "type": 16002,
        "name": "第二中学校",
        "address": "吹田市岸部北1-21-1",
        "lat": 34.780549,
        "lng": 135.526297
    },
    {
        "code": "C127210002050",
        "type": 16002,
        "name": "第三中学校",
        "address": "吹田市中の島町3-51",
        "lat": 34.751945,
        "lng": 135.52292
    },
    {
        "code": "C127210002069",
        "type": 16002,
        "name": "山田中学校",
        "address": "吹田市山田市場15-1",
        "lat": 34.792381,
        "lng": 135.538824
    },
    {
        "code": "C127210002078",
        "type": 16002,
        "name": "第五中学校",
        "address": "吹田市幸町21-1",
        "lat": 34.768523,
        "lng": 135.536352
    },
    {
        "code": "C127210002087",
        "type": 16002,
        "name": "高野台中学校",
        "address": "吹田市高野台4-5-1",
        "lat": 34.792187,
        "lng": 135.518715
    },
    {
        "code": "C127210002096",
        "type": 16002,
        "name": "青山台中学校",
        "address": "吹田市青山台4-2-1",
        "lat": 34.822711,
        "lng": 135.508243
    },
    {
        "code": "C127210002103",
        "type": 16002,
        "name": "竹見台中学校",
        "address": "吹田市竹見台1-3-1",
        "lat": 34.795964,
        "lng": 135.503994
    },
    {
        "code": "C127210002112",
        "type": 16002,
        "name": "第六中学校",
        "address": "吹田市穂波町16-1",
        "lat": 34.75583,
        "lng": 135.509827
    },
    {
        "code": "C127210002121",
        "type": 16002,
        "name": "古江台中学校",
        "address": "吹田市古江台1-1-1",
        "lat": 34.808352,
        "lng": 135.506549
    },
    {
        "code": "C127210002130",
        "type": 16002,
        "name": "豊津西中学校",
        "address": "吹田市豊津町6-1",
        "lat": 34.760273,
        "lng": 135.494023
    },
    {
        "code": "C127210002149",
        "type": 16002,
        "name": "千里丘中学校",
        "address": "吹田市青葉丘南15-1",
        "lat": 34.803492,
        "lng": 135.548268
    },
    {
        "code": "C127210002158",
        "type": 16002,
        "name": "片山中学校",
        "address": "吹田市竹谷町35-1",
        "lat": 34.778522,
        "lng": 135.520965
    },
    {
        "code": "C127210002167",
        "type": 16002,
        "name": "西山田中学校",
        "address": "吹田市山田西2-11-1",
        "lat": 34.796409,
        "lng": 135.523437
    },
    {
        "code": "C127210002176",
        "type": 16002,
        "name": "南千里中学校",
        "address": "吹田市桃山台4-2-1",
        "lat": 34.787548,
        "lng": 135.50005
    },
    {
        "code": "C127210002185",
        "type": 16002,
        "name": "豊津中学校",
        "address": "吹田市垂水町3-32-50",
        "lat": 34.758441,
        "lng": 135.5043
    },
    {
        "code": "C127210002194",
        "type": 16002,
        "name": "佐井寺中学校",
        "address": "吹田市五月が丘南5-1",
        "lat": 34.784188,
        "lng": 135.526047
    },
    {
        "code": "C127210002201",
        "type": 16002,
        "name": "山田東中学校",
        "address": "吹田市山田東4-33-1",
        "lat": 34.803158,
        "lng": 135.528103
    },
    {
        "code": "C127310000309",
        "type": 16002,
        "name": "関西大学第一中学校",
        "address": "吹田市山手町3-3-24",
        "lat": 34.770356,
        "lng": 135.509882
    },
    {
        "code": "C127310000318",
        "type": 16002,
        "name": "金蘭千里中学校",
        "address": "吹田市藤白台5-25-2",
        "lat": 34.826272,
        "lng": 135.515467
    },
    {
        "code": "D127210000247",
        "type": 16004,
        "name": "吹田高等学校",
        "address": "吹田市原町4-24-14",
        "lat": 34.777855,
        "lng": 135.528492
    },
    {
        "code": "D127210000256",
        "type": 16004,
        "name": "千里高等学校",
        "address": "吹田市高野台2-17-1",
        "lat": 34.799075,
        "lng": 135.514937
    },
    {
        "code": "D127210000522",
        "type": 16004,
        "name": "吹田東高等学校",
        "address": "吹田市青葉丘南16-1",
        "lat": 34.803436,
        "lng": 135.546962
    },
    {
        "code": "D127210000773",
        "type": 16004,
        "name": "北千里高等学校",
        "address": "吹田市藤白台5-6-1",
        "lat": 34.82871,
        "lng": 135.506437
    },
    {
        "code": "D127210000951",
        "type": 16004,
        "name": "山田高等学校",
        "address": "吹田市山田東3-28-1",
        "lat": 34.802019,
        "lng": 135.528769
    },
    {
        "code": "D127310000325",
        "type": 16004,
        "name": "関西大学第一高等学校",
        "address": "吹田市山手町3-3-24",
        "lat": 34.768856,
        "lng": 135.509466
    },
    {
        "code": "D127310000334",
        "type": 16004,
        "name": "大阪学院大学高等学校",
        "address": "吹田市南正雀3-12-1",
        "lat": 34.769496,
        "lng": 135.543296
    },
    {
        "code": "D127310000343",
        "type": 16004,
        "name": "金蘭千里高等学校",
        "address": "吹田市藤白台5-25-2",
        "lat": 34.826266,
        "lng": 135.515464
    },
    {
        "code": "E127210000477",
        "type": 16012,
        "name": "吹田支援学校",
        "address": "吹田市芳野町13-120",
        "lat": 34.75604,
        "lng": 135.488268
    },
    {
        "code": "F127110107852",
        "type": 16007,
        "name": "大阪大学",
        "address": "吹田市山田丘1-1",
        "lat": 34.818551,
        "lng": 135.524076
    },
    {
        "code": "F127310107983",
        "type": 16007,
        "name": "大阪学院大学",
        "address": "吹田市岸部南2-36-1",
        "lat": 34.773051,
        "lng": 135.541852
    },
    {
        "code": "F127310108081",
        "type": 16007,
        "name": "関西大学",
        "address": "吹田市山手町3-3-35",
        "lat": 34.776022,
        "lng": 135.511743
    },
    {
        "code": "F127310108269",
        "type": 16007,
        "name": "千里金蘭大学",
        "address": "吹田市藤白台5-25-1",
        "lat": 34.826676,
        "lng": 135.514911
    },
    {
        "code": "F127310108394",
        "type": 16007,
        "name": "大和大学",
        "address": "吹田市片山町2-5-1",
        "lat": 34.765707,
        "lng": 135.518762
    },
    {
        "code": "F227310108543",
        "type": 16006,
        "name": "大阪学院大学短期大学部",
        "address": "吹田市岸部南2-37-1",
        "lat": 34.773467,
        "lng": 135.54349
    },
    {
        "code": "H127110000017",
        "type": 16016,
        "name": "大阪大学歯学部附属歯科技工士学校",
        "address": "吹田市山田丘1-8",
        "lat": 34.819775,
        "lng": 135.52131
    },
    {
        "code": "H127310000512",
        "type": 16016,
        "name": "明治東洋医学院専門学校",
        "address": "吹田市西御旅町7-53",
        "lat": 34.749098,
        "lng": 135.523489
    },
    {
        "code": "H127310000950",
        "type": 16016,
        "name": "大阪アニメーションカレッジ",
        "address": "吹田市垂水町3-29-18",
        "lat": 34.759483,
        "lng": 135.500736
    },
    {
        "code": "H127310001370",
        "type": 16016,
        "name": "キャットミュージックカレッジ専門学校",
        "address": "吹田市垂水町3-29-18",
        "lat": 34.759545,
        "lng": 135.500748
    }
]