[
    {
        "code": "A127210001536",
        "type": 16011,
        "name": "三日市幼稚園",
        "address": "河内長野市上田町200-1",
        "lat": 34.440714,
        "lng": 135.568517
    },
    {
        "code": "A127310002007",
        "type": 16011,
        "name": "大阪千代田短期大学附属幼稚園",
        "address": "河内長野市楠町西1090",
        "lat": 34.469988,
        "lng": 135.560837
    },
    {
        "code": "A127310002016",
        "type": 16011,
        "name": "清教学園幼稚園",
        "address": "河内長野市西代町9-11",
        "lat": 34.454143,
        "lng": 135.568
    },
    {
        "code": "A127310002025",
        "type": 16011,
        "name": "錦渓幼稚園",
        "address": "河内長野市古野町12-1",
        "lat": 34.455171,
        "lng": 135.574194
    },
    {
        "code": "A127310002034",
        "type": 16011,
        "name": "ひなぎく幼稚園",
        "address": "河内長野市木戸1-5-8",
        "lat": 34.468645,
        "lng": 135.567249
    },
    {
        "code": "A127310002631",
        "type": 16011,
        "name": "奈良佐保短期大学附属河内長野幼稚園",
        "address": "河内長野市大矢船中町10-1",
        "lat": 34.420302,
        "lng": 135.560465
    },
    {
        "code": "A127310002640",
        "type": 16011,
        "name": "長野台幼稚園",
        "address": "河内長野市緑ヶ丘中町8-8",
        "lat": 34.447443,
        "lng": 135.541905
    },
    {
        "code": "A127310002766",
        "type": 16011,
        "name": "くすのき幼稚園",
        "address": "河内長野市大師町13-12",
        "lat": 34.441655,
        "lng": 135.574869
    },
    {
        "code": "A127310003060",
        "type": 16011,
        "name": "おしお幼稚園",
        "address": "河内長野市南花台1-27-1",
        "lat": 34.433739,
        "lng": 135.558985
    },
    {
        "code": "A127310003355",
        "type": 16011,
        "name": "えぴーく幼稚園",
        "address": "河内長野市美加の台2-28-1",
        "lat": 34.428107,
        "lng": 135.581394
    },
    {
        "code": "A227310003201",
        "type": 16013,
        "name": "勝山愛和青葉台幼稚園",
        "address": "河内長野市南青葉台1-1",
        "lat": 34.4181,
        "lng": 135.568653
    },
    {
        "code": "A227310003210",
        "type": 16013,
        "name": "長野こども学園",
        "address": "河内長野市古野町2-14",
        "lat": 34.454384,
        "lng": 135.570934
    },
    {
        "code": "B127210007191",
        "type": 16001,
        "name": "千代田小学校",
        "address": "河内長野市木戸町649",
        "lat": 34.469447,
        "lng": 135.571494
    },
    {
        "code": "B127210007208",
        "type": 16001,
        "name": "長野小学校",
        "address": "河内長野市西代町14-1",
        "lat": 34.453726,
        "lng": 135.565078
    },
    {
        "code": "B127210007217",
        "type": 16001,
        "name": "小山田小学校",
        "address": "河内長野市小山田町590-1",
        "lat": 34.456948,
        "lng": 135.557273
    },
    {
        "code": "B127210007226",
        "type": 16001,
        "name": "天野小学校",
        "address": "河内長野市下里町365",
        "lat": 34.437672,
        "lng": 135.539025
    },
    {
        "code": "B127210007235",
        "type": 16001,
        "name": "高向小学校",
        "address": "河内長野市高向86",
        "lat": 34.434089,
        "lng": 135.545802
    },
    {
        "code": "B127210007244",
        "type": 16001,
        "name": "三日市小学校",
        "address": "河内長野市上田町380",
        "lat": 34.438311,
        "lng": 135.565384
    },
    {
        "code": "B127210007253",
        "type": 16001,
        "name": "加賀田小学校",
        "address": "河内長野市加賀田568-1",
        "lat": 34.423952,
        "lng": 135.56419
    },
    {
        "code": "B127210007262",
        "type": 16001,
        "name": "天見小学校",
        "address": "河内長野市天見2370-1",
        "lat": 34.399065,
        "lng": 135.594853
    },
    {
        "code": "B127210007271",
        "type": 16001,
        "name": "楠小学校",
        "address": "河内長野市楠町東1011",
        "lat": 34.470474,
        "lng": 135.562911
    },
    {
        "code": "B127210007280",
        "type": 16001,
        "name": "石仏小学校",
        "address": "河内長野市石仏662",
        "lat": 34.421535,
        "lng": 135.574106
    },
    {
        "code": "B127210007299",
        "type": 16001,
        "name": "川上小学校",
        "address": "河内長野市清見台4-18-1",
        "lat": 34.436006,
        "lng": 135.585771
    },
    {
        "code": "B127210007306",
        "type": 16001,
        "name": "美加の台小学校",
        "address": "河内長野市美加の台3-25-1",
        "lat": 34.426313,
        "lng": 135.586938
    },
    {
        "code": "B127210007315",
        "type": 16001,
        "name": "南花台小学校",
        "address": "河内長野市南花台2-11-1",
        "lat": 34.429752,
        "lng": 135.560719
    },
    {
        "code": "C127210003264",
        "type": 16002,
        "name": "長野中学校",
        "address": "河内長野市本多町3-1",
        "lat": 34.455143,
        "lng": 135.566356
    },
    {
        "code": "C127210003273",
        "type": 16002,
        "name": "東中学校",
        "address": "河内長野市日東町26-1",
        "lat": 34.439117,
        "lng": 135.577716
    },
    {
        "code": "C127210003282",
        "type": 16002,
        "name": "千代田中学校",
        "address": "河内長野市市町1367-1",
        "lat": 34.467225,
        "lng": 135.571105
    },
    {
        "code": "C127210003291",
        "type": 16002,
        "name": "西中学校",
        "address": "河内長野市下里町257-3",
        "lat": 34.436922,
        "lng": 135.53997
    },
    {
        "code": "C127210003308",
        "type": 16002,
        "name": "加賀田中学校",
        "address": "河内長野市石仏570",
        "lat": 34.420341,
        "lng": 135.5743
    },
    {
        "code": "C127210003317",
        "type": 16002,
        "name": "南花台中学校",
        "address": "河内長野市南花台6-6-1",
        "lat": 34.433839,
        "lng": 135.555718
    },
    {
        "code": "C127210003326",
        "type": 16002,
        "name": "美加の台中学校",
        "address": "河内長野市美加の台7-2-1",
        "lat": 34.424313,
        "lng": 135.586354
    },
    {
        "code": "C127310000407",
        "type": 16002,
        "name": "清教学園中学校",
        "address": "河内長野市末広町623",
        "lat": 34.445587,
        "lng": 135.576522
    },
    {
        "code": "D127210000489",
        "type": 16004,
        "name": "長野高等学校",
        "address": "河内長野市原町2-1-1",
        "lat": 34.459705,
        "lng": 135.563596
    },
    {
        "code": "D127310000432",
        "type": 16004,
        "name": "大阪暁光高等学校",
        "address": "河内長野市楠町西1090",
        "lat": 34.470388,
        "lng": 135.560744
    },
    {
        "code": "D127310000441",
        "type": 16004,
        "name": "清教学園高等学校",
        "address": "河内長野市末広町623",
        "lat": 34.445561,
        "lng": 135.576522
    },
    {
        "code": "F227310108552",
        "type": 16006,
        "name": "大阪千代田短期大学",
        "address": "河内長野市小山田町1685",
        "lat": 34.445616,
        "lng": 135.548691
    },
    {
        "code": "H127310000969",
        "type": 16016,
        "name": "大阪南医療センター附属大阪南看護学校",
        "address": "河内長野市木戸東町2-1",
        "lat": 34.471135,
        "lng": 135.572229
    },
    {
        "code": "H127310002128",
        "type": 16016,
        "name": "錦秀会看護専門学校",
        "address": "河内長野市南花台4-24-1",
        "lat": 34.424188,
        "lng": 135.553105
    }
]