[
    {
        "code": "A127210002198",
        "type": 16011,
        "name": "くすのき幼稚園",
        "address": "泉南市馬場1-3-1",
        "lat": 34.362824,
        "lng": 135.270442
    },
    {
        "code": "A127210002214",
        "type": 16011,
        "name": "あおぞら幼稚園",
        "address": "泉南市信達大苗代36-6",
        "lat": 34.371634,
        "lng": 135.292675
    },
    {
        "code": "A127310003088",
        "type": 16011,
        "name": "砂川第二幼稚園",
        "address": "泉南市新家4527",
        "lat": 34.379798,
        "lng": 135.29842
    },
    {
        "code": "A127310003122",
        "type": 16011,
        "name": "砂川幼稚園",
        "address": "泉南市信達大苗代1138",
        "lat": 34.363974,
        "lng": 135.294549
    },
    {
        "code": "A227210000625",
        "type": 16013,
        "name": "なるにっこ認定こども園",
        "address": "泉南市信達市場1946",
        "lat": 34.371154,
        "lng": 135.274722
    },
    {
        "code": "A227310004004",
        "type": 16013,
        "name": "信達こども園",
        "address": "泉南市信達牧野425-1",
        "lat": 34.363366,
        "lng": 135.281224
    },
    {
        "code": "A227310004013",
        "type": 16013,
        "name": "認定こども園西信達くねあ",
        "address": "泉南市岡田5-23-11",
        "lat": 34.385561,
        "lng": 135.276803
    },
    {
        "code": "A227310004022",
        "type": 16013,
        "name": "たるいこども園",
        "address": "泉南市樽井6-9-10",
        "lat": 34.371387,
        "lng": 135.264517
    },
    {
        "code": "A227310004031",
        "type": 16013,
        "name": "幼保連携型認定こども園ココアンジュ新家",
        "address": "泉南市泉南市新家938-1",
        "lat": 34.366169,
        "lng": 135.301434
    },
    {
        "code": "B127210009206",
        "type": 16001,
        "name": "新家小学校",
        "address": "泉南市新家975",
        "lat": 34.366427,
        "lng": 135.300992
    },
    {
        "code": "B127210009215",
        "type": 16001,
        "name": "信達小学校",
        "address": "泉南市信達牧野705",
        "lat": 34.364427,
        "lng": 135.277161
    },
    {
        "code": "B127210009224",
        "type": 16001,
        "name": "東小学校",
        "address": "泉南市信達金熊寺553",
        "lat": 34.337125,
        "lng": 135.291272
    },
    {
        "code": "B127210009233",
        "type": 16001,
        "name": "西信達小学校",
        "address": "泉南市岡田5-24-1",
        "lat": 34.38498,
        "lng": 135.27666
    },
    {
        "code": "B127210009242",
        "type": 16001,
        "name": "樽井小学校",
        "address": "泉南市樽井4-29-1",
        "lat": 34.36987,
        "lng": 135.257829
    },
    {
        "code": "B127210009251",
        "type": 16001,
        "name": "雄信小学校",
        "address": "泉南市男里3-11-1",
        "lat": 34.360066,
        "lng": 135.256413
    },
    {
        "code": "B127210009260",
        "type": 16001,
        "name": "一丘小学校",
        "address": "泉南市新家285-7",
        "lat": 34.370704,
        "lng": 135.293798
    },
    {
        "code": "B127210009279",
        "type": 16001,
        "name": "砂川小学校",
        "address": "泉南市信達市場450-6",
        "lat": 34.363872,
        "lng": 135.293271
    },
    {
        "code": "B127210009288",
        "type": 16001,
        "name": "新家東小学校",
        "address": "泉南市兎田729-3",
        "lat": 34.373399,
        "lng": 135.308769
    },
    {
        "code": "B127210009297",
        "type": 16001,
        "name": "鳴滝小学校",
        "address": "泉南市信達市場1602",
        "lat": 34.369676,
        "lng": 135.275439
    },
    {
        "code": "C127210004272",
        "type": 16002,
        "name": "泉南中学校",
        "address": "泉南市樽井2-9-1",
        "lat": 34.36551,
        "lng": 135.272967
    },
    {
        "code": "C127210004281",
        "type": 16002,
        "name": "西信達中学校",
        "address": "泉南市岡田3-24-1",
        "lat": 34.383175,
        "lng": 135.280105
    },
    {
        "code": "C127210004290",
        "type": 16002,
        "name": "一丘中学校",
        "address": "泉南市信達市場543-12",
        "lat": 34.367704,
        "lng": 135.287743
    },
    {
        "code": "C127210004307",
        "type": 16002,
        "name": "信達中学校",
        "address": "泉南市信達牧野34-1",
        "lat": 34.357094,
        "lng": 135.281966
    },
    {
        "code": "D127210001282",
        "type": 16004,
        "name": "りんくう翔南高等学校",
        "address": "泉南市樽井2-35-54",
        "lat": 34.367648,
        "lng": 135.264995
    },
    {
        "code": "E127210000057",
        "type": 16012,
        "name": "泉南支援学校",
        "address": "泉南市信達牧野40-1",
        "lat": 34.356037,
        "lng": 135.280535
    },
    {
        "code": "E127210000066",
        "type": 16012,
        "name": "すながわ高等支援学校",
        "address": "泉南市信達牧野40-1",
        "lat": 34.355689,
        "lng": 135.280591
    }
]