[
    {
        "code": "A127210001698",
        "type": 16011,
        "name": "堅下幼稚園",
        "address": "柏原市平野2-2-9",
        "lat": 34.591516,
        "lng": 135.632539
    },
    {
        "code": "A127210001723",
        "type": 16011,
        "name": "堅上幼稚園",
        "address": "柏原市雁多尾畑5967",
        "lat": 34.585314,
        "lng": 135.663472
    },
    {
        "code": "A127310002141",
        "type": 16011,
        "name": "関西女子短期大学附属幼稚園",
        "address": "柏原市旭ヶ丘3-11-1",
        "lat": 34.555795,
        "lng": 135.636697
    },
    {
        "code": "A127310002150",
        "type": 16011,
        "name": "第二白鳩幼稚園",
        "address": "柏原市大県1-9-14",
        "lat": 34.587015,
        "lng": 135.62699
    },
    {
        "code": "A227210000821",
        "type": 16013,
        "name": "かしわらこども園",
        "address": "柏原市大正1-9-54",
        "lat": 34.587212,
        "lng": 135.621096
    },
    {
        "code": "A227210000830",
        "type": 16013,
        "name": "たまてこども園",
        "address": "柏原市玉手町12-30",
        "lat": 34.565092,
        "lng": 135.626215
    },
    {
        "code": "A227210000849",
        "type": 16013,
        "name": "こくぶこども園",
        "address": "柏原市国分本町6-11-28",
        "lat": 34.565687,
        "lng": 135.640486
    },
    {
        "code": "A227210000858",
        "type": 16013,
        "name": "かたしもこども園",
        "address": "柏原市平野1-6-2",
        "lat": 34.591934,
        "lng": 135.629731
    },
    {
        "code": "B127210002686",
        "type": 16001,
        "name": "長谷川小学校",
        "address": "柏原市円明町3-15",
        "lat": 34.562012,
        "lng": 135.624486
    },
    {
        "code": "B127210007930",
        "type": 16001,
        "name": "柏原小学校",
        "address": "柏原市大正1-9-53",
        "lat": 34.58774,
        "lng": 135.619904
    },
    {
        "code": "B127210007949",
        "type": 16001,
        "name": "柏原東小学校",
        "address": "柏原市大県1-8-5",
        "lat": 34.587546,
        "lng": 135.626681
    },
    {
        "code": "B127210007958",
        "type": 16001,
        "name": "堅下小学校",
        "address": "柏原市平野2-1-5",
        "lat": 34.591851,
        "lng": 135.631931
    },
    {
        "code": "B127210007967",
        "type": 16001,
        "name": "堅上小学校",
        "address": "柏原市雁多尾畑5955",
        "lat": 34.584767,
        "lng": 135.662928
    },
    {
        "code": "B127210007976",
        "type": 16001,
        "name": "国分小学校",
        "address": "柏原市国分本町6-11-4",
        "lat": 34.565826,
        "lng": 135.639847
    },
    {
        "code": "B127210007985",
        "type": 16001,
        "name": "玉手小学校",
        "address": "柏原市円明町1-1",
        "lat": 34.562993,
        "lng": 135.626488
    },
    {
        "code": "B127210007994",
        "type": 16001,
        "name": "堅下北小学校",
        "address": "柏原市法善寺4-359-5",
        "lat": 34.597184,
        "lng": 135.628264
    },
    {
        "code": "B127210008001",
        "type": 16001,
        "name": "堅下南小学校",
        "address": "柏原市安堂町710",
        "lat": 34.580907,
        "lng": 135.634959
    },
    {
        "code": "B127210008010",
        "type": 16001,
        "name": "旭ヶ丘小学校",
        "address": "柏原市旭ヶ丘3-4896",
        "lat": 34.556243,
        "lng": 135.634626
    },
    {
        "code": "B127210008029",
        "type": 16001,
        "name": "桜坂小学校",
        "address": "柏原市高井田809-1",
        "lat": 34.573053,
        "lng": 135.645417
    },
    {
        "code": "C127210001293",
        "type": 16002,
        "name": "長谷川中学校",
        "address": "柏原市円明町3-15",
        "lat": 34.561993,
        "lng": 135.624488
    },
    {
        "code": "C127210003656",
        "type": 16002,
        "name": "柏原中学校",
        "address": "柏原市堂島町1-28",
        "lat": 34.589462,
        "lng": 135.622321
    },
    {
        "code": "C127210003665",
        "type": 16002,
        "name": "堅上中学校",
        "address": "柏原市雁多尾畑5905",
        "lat": 34.583101,
        "lng": 135.661594
    },
    {
        "code": "C127210003674",
        "type": 16002,
        "name": "国分中学校",
        "address": "柏原市国分本町7-1-20",
        "lat": 34.564381,
        "lng": 135.641847
    },
    {
        "code": "C127210003683",
        "type": 16002,
        "name": "堅下北中学校",
        "address": "柏原市平野2-403-1",
        "lat": 34.596961,
        "lng": 135.634153
    },
    {
        "code": "C127210003692",
        "type": 16002,
        "name": "堅下南中学校",
        "address": "柏原市安堂町878",
        "lat": 34.580463,
        "lng": 135.633764
    },
    {
        "code": "C127210003709",
        "type": 16002,
        "name": "玉手中学校",
        "address": "柏原市玉手町20-17",
        "lat": 34.56502,
        "lng": 135.627432
    },
    {
        "code": "C127210003718",
        "type": 16002,
        "name": "桜坂中学校",
        "address": "柏原市高井田809-1",
        "lat": 34.573434,
        "lng": 135.642993
    },
    {
        "code": "D127310000487",
        "type": 16004,
        "name": "関西福祉科学大学高等学校",
        "address": "柏原市旭ヶ丘3-11-1",
        "lat": 34.55816,
        "lng": 135.637014
    },
    {
        "code": "D127310000496",
        "type": 16004,
        "name": "東大阪大学柏原高等学校",
        "address": "柏原市本郷5-993",
        "lat": 34.590545,
        "lng": 135.60935
    },
    {
        "code": "F127110107861",
        "type": 16007,
        "name": "大阪教育大学",
        "address": "柏原市旭ｹ丘4-698-1",
        "lat": 34.55066,
        "lng": 135.650735
    },
    {
        "code": "F127310108189",
        "type": 16007,
        "name": "関西福祉科学大学",
        "address": "柏原市旭ｹ丘3-11-1",
        "lat": 34.557438,
        "lng": 135.636765
    },
    {
        "code": "F227310108561",
        "type": 16006,
        "name": "関西女子短期大学",
        "address": "柏原市旭ｹ丘3-11-1",
        "lat": 34.558799,
        "lng": 135.636848
    }
]