[
    {
        "code": "A127210001741",
        "type": 16011,
        "name": "古市幼稚園",
        "address": "羽曳野市古市4-2-10",
        "lat": 34.551891,
        "lng": 135.609462
    },
    {
        "code": "A127210001750",
        "type": 16011,
        "name": "西浦幼稚園",
        "address": "羽曳野市西浦1077",
        "lat": 34.536451,
        "lng": 135.60404
    },
    {
        "code": "A127210001769",
        "type": 16011,
        "name": "埴生幼稚園",
        "address": "羽曳野市伊賀5-8-1",
        "lat": 34.559508,
        "lng": 135.583386
    },
    {
        "code": "A127210001778",
        "type": 16011,
        "name": "高鷲南幼稚園",
        "address": "羽曳野市高鷲2-19-10",
        "lat": 34.568462,
        "lng": 135.586035
    },
    {
        "code": "A127210001787",
        "type": 16011,
        "name": "丹比幼稚園",
        "address": "羽曳野市郡戸255-1",
        "lat": 34.551851,
        "lng": 135.573798
    },
    {
        "code": "A127210001796",
        "type": 16011,
        "name": "羽曳が丘幼稚園",
        "address": "羽曳野市羽曳が丘6-8-1",
        "lat": 34.540793,
        "lng": 135.592282
    },
    {
        "code": "A127210001803",
        "type": 16011,
        "name": "駒ケ谷幼稚園",
        "address": "羽曳野市駒ヶ谷327-1",
        "lat": 34.540653,
        "lng": 135.628541
    },
    {
        "code": "A127210002045",
        "type": 16011,
        "name": "白鳥幼稚園",
        "address": "羽曳野市白鳥3-11-8",
        "lat": 34.556621,
        "lng": 135.605429
    },
    {
        "code": "A127210002054",
        "type": 16011,
        "name": "古市南幼稚園",
        "address": "羽曳野市南古市1-9-16",
        "lat": 34.5476,
        "lng": 135.613347
    },
    {
        "code": "A127210002063",
        "type": 16011,
        "name": "恵我之荘幼稚園",
        "address": "羽曳野市南恵我之荘6-14-11",
        "lat": 34.569033,
        "lng": 135.569545
    },
    {
        "code": "A127210002072",
        "type": 16011,
        "name": "埴生南幼稚園",
        "address": "羽曳野市桃山台2-3-28",
        "lat": 34.549877,
        "lng": 135.584822
    },
    {
        "code": "A127210002081",
        "type": 16011,
        "name": "西浦東幼稚園",
        "address": "羽曳野市広瀬97-1",
        "lat": 34.532535,
        "lng": 135.613795
    },
    {
        "code": "A127310002169",
        "type": 16011,
        "name": "白鳩羽曳野幼稚園",
        "address": "羽曳野市羽曳が丘3-5-14",
        "lat": 34.541925,
        "lng": 135.59488
    },
    {
        "code": "A227210000563",
        "type": 16013,
        "name": "認定こども園こども未来館たかわし",
        "address": "羽曳野市恵我之荘2-10-13",
        "lat": 34.575826,
        "lng": 135.577761
    },
    {
        "code": "A227310003461",
        "type": 16013,
        "name": "高屋保育学園",
        "address": "羽曳野市古市7-4-1",
        "lat": 34.546347,
        "lng": 135.607912
    },
    {
        "code": "A227310003470",
        "type": 16013,
        "name": "さかとがはらこども園",
        "address": "羽曳野市東阪田264",
        "lat": 34.530101,
        "lng": 135.611778
    },
    {
        "code": "A227310003489",
        "type": 16013,
        "name": "明の守ようきこども園",
        "address": "羽曳野市島泉9-18-20",
        "lat": 34.574948,
        "lng": 135.582753
    },
    {
        "code": "B127210008038",
        "type": 16001,
        "name": "古市小学校",
        "address": "羽曳野市古市1-2-5",
        "lat": 34.554493,
        "lng": 135.61035
    },
    {
        "code": "B127210008047",
        "type": 16001,
        "name": "駒ヶ谷小学校",
        "address": "羽曳野市駒ヶ谷344-1",
        "lat": 34.5423,
        "lng": 135.627404
    },
    {
        "code": "B127210008056",
        "type": 16001,
        "name": "西浦小学校",
        "address": "羽曳野市西浦1050",
        "lat": 34.536939,
        "lng": 135.603435
    },
    {
        "code": "B127210008065",
        "type": 16001,
        "name": "高鷲小学校",
        "address": "羽曳野市島泉2-1-19",
        "lat": 34.574046,
        "lng": 135.577964
    },
    {
        "code": "B127210008074",
        "type": 16001,
        "name": "丹比小学校",
        "address": "羽曳野市郡戸206",
        "lat": 34.551715,
        "lng": 135.574576
    },
    {
        "code": "B127210008083",
        "type": 16001,
        "name": "羽曳が丘小学校",
        "address": "羽曳野市羽曳が丘6-8-1",
        "lat": 34.540439,
        "lng": 135.59263
    },
    {
        "code": "B127210008092",
        "type": 16001,
        "name": "白鳥小学校",
        "address": "羽曳野市白鳥3-8-17",
        "lat": 34.555771,
        "lng": 135.603601
    },
    {
        "code": "B127210008109",
        "type": 16001,
        "name": "高鷲南小学校",
        "address": "羽曳野市高鷲2-12-1",
        "lat": 34.565683,
        "lng": 135.585613
    },
    {
        "code": "B127210008118",
        "type": 16001,
        "name": "古市南小学校",
        "address": "羽曳野市古市5-14-38",
        "lat": 34.547577,
        "lng": 135.611211
    },
    {
        "code": "B127210008127",
        "type": 16001,
        "name": "恵我之荘小学校",
        "address": "羽曳野市南恵我之荘7-8-35",
        "lat": 34.572241,
        "lng": 135.57052
    },
    {
        "code": "B127210008136",
        "type": 16001,
        "name": "埴生南小学校",
        "address": "羽曳野市はびきの6-6-1",
        "lat": 34.552049,
        "lng": 135.58488
    },
    {
        "code": "B127210008145",
        "type": 16001,
        "name": "高鷲北小学校",
        "address": "羽曳野市島泉4-3-33",
        "lat": 34.579379,
        "lng": 135.578214
    },
    {
        "code": "B127210008154",
        "type": 16001,
        "name": "西浦東小学校",
        "address": "羽曳野市広瀬75-3",
        "lat": 34.531635,
        "lng": 135.61285
    },
    {
        "code": "C127210003727",
        "type": 16002,
        "name": "誉田中学校",
        "address": "羽曳野市誉田6-5-37",
        "lat": 34.56152,
        "lng": 135.612683
    },
    {
        "code": "C127210003736",
        "type": 16002,
        "name": "高鷲中学校",
        "address": "羽曳野市島泉9-15-4",
        "lat": 34.573269,
        "lng": 135.582908
    },
    {
        "code": "C127210003745",
        "type": 16002,
        "name": "峰塚中学校",
        "address": "羽曳野市西浦6-48",
        "lat": 34.549771,
        "lng": 135.59699
    },
    {
        "code": "C127210003754",
        "type": 16002,
        "name": "高鷲南中学校",
        "address": "羽曳野市高鷲2-2-1",
        "lat": 34.568519,
        "lng": 135.584658
    },
    {
        "code": "C127210003763",
        "type": 16002,
        "name": "河原城中学校",
        "address": "羽曳野市桃山台4-123",
        "lat": 34.549632,
        "lng": 135.580325
    },
    {
        "code": "C227210000033",
        "type": 16014,
        "name": "はびきの埴生学園",
        "address": "羽曳野市伊賀5-8-1",
        "lat": 34.559351,
        "lng": 135.583469
    },
    {
        "code": "D127210001273",
        "type": 16004,
        "name": "懐風館高等学校",
        "address": "羽曳野市大黒776",
        "lat": 34.539189,
        "lng": 135.622516
    },
    {
        "code": "E127210000093",
        "type": 16012,
        "name": "西浦支援学校",
        "address": "羽曳野市西浦2-1797",
        "lat": 34.54448,
        "lng": 135.605562
    },
    {
        "code": "E127210000440",
        "type": 16012,
        "name": "羽曳野支援学校",
        "address": "羽曳野市はびきの3-7-1",
        "lat": 34.548382,
        "lng": 135.590213
    },
    {
        "code": "F127310108125",
        "type": 16007,
        "name": "四天王寺大学",
        "address": "羽曳野市学園町3-2-1",
        "lat": 34.546727,
        "lng": 135.590136
    },
    {
        "code": "F227310108598",
        "type": 16006,
        "name": "四天王寺大学短期大学部",
        "address": "羽曳野市学園町3-2-1",
        "lat": 34.546549,
        "lng": 135.583742
    }
]