[
    {
        "code": "A127210001867",
        "type": 16011,
        "name": "藤井寺幼稚園",
        "address": "藤井寺市小山1-7-29",
        "lat": 34.576985,
        "lng": 135.594904
    },
    {
        "code": "A127210001876",
        "type": 16011,
        "name": "藤井寺南幼稚園",
        "address": "藤井寺市藤井寺3-2-19",
        "lat": 34.565947,
        "lng": 135.598471
    },
    {
        "code": "A127210001885",
        "type": 16011,
        "name": "道明寺幼稚園",
        "address": "藤井寺市林3-1-25",
        "lat": 34.575441,
        "lng": 135.610261
    },
    {
        "code": "A127210001894",
        "type": 16011,
        "name": "道明寺南幼稚園",
        "address": "藤井寺市道明寺4-2-18",
        "lat": 34.566034,
        "lng": 135.618288
    },
    {
        "code": "A127310002230",
        "type": 16011,
        "name": "藤井寺カトリック幼稚園",
        "address": "藤井寺市御舟町11-1",
        "lat": 34.573924,
        "lng": 135.600267
    },
    {
        "code": "A227310003782",
        "type": 16013,
        "name": "ななこども園",
        "address": "藤井寺市藤ヶ丘4-1-15",
        "lat": 34.563789,
        "lng": 135.597171
    },
    {
        "code": "A227310003791",
        "type": 16013,
        "name": "ひかりこども園",
        "address": "藤井寺市大井5-5-12",
        "lat": 34.581041,
        "lng": 135.612352
    },
    {
        "code": "B127210008476",
        "type": 16001,
        "name": "藤井寺小学校",
        "address": "藤井寺市北岡1-2-29",
        "lat": 34.576407,
        "lng": 135.595712
    },
    {
        "code": "B127210008485",
        "type": 16001,
        "name": "藤井寺南小学校",
        "address": "藤井寺市藤井寺3-8-1",
        "lat": 34.565047,
        "lng": 135.598018
    },
    {
        "code": "B127210008494",
        "type": 16001,
        "name": "道明寺小学校",
        "address": "藤井寺市沢田3-6-37",
        "lat": 34.572325,
        "lng": 135.613183
    },
    {
        "code": "B127210008500",
        "type": 16001,
        "name": "道明寺東小学校",
        "address": "藤井寺市国府2-5-21",
        "lat": 34.573047,
        "lng": 135.621988
    },
    {
        "code": "B127210008519",
        "type": 16001,
        "name": "藤井寺西小学校",
        "address": "藤井寺市藤井寺4-1-57",
        "lat": 34.568741,
        "lng": 135.594574
    },
    {
        "code": "B127210008528",
        "type": 16001,
        "name": "道明寺南小学校",
        "address": "藤井寺市道明寺4-9-18",
        "lat": 34.565464,
        "lng": 135.617738
    },
    {
        "code": "B127210008537",
        "type": 16001,
        "name": "藤井寺北小学校",
        "address": "藤井寺市小山3-288-1",
        "lat": 34.580684,
        "lng": 135.588268
    },
    {
        "code": "B127310000169",
        "type": 16001,
        "name": "四天王寺小学校",
        "address": "藤井寺市春日丘3-1-78",
        "lat": 34.570746,
        "lng": 135.590862
    },
    {
        "code": "C127210003914",
        "type": 16002,
        "name": "藤井寺中学校",
        "address": "藤井寺市御舟町2-9",
        "lat": 34.573408,
        "lng": 135.599573
    },
    {
        "code": "C127210003923",
        "type": 16002,
        "name": "道明寺中学校",
        "address": "藤井寺市林6-2-21",
        "lat": 34.576908,
        "lng": 135.613738
    },
    {
        "code": "C127210003932",
        "type": 16002,
        "name": "第三中学校",
        "address": "藤井寺市林1-2-1",
        "lat": 34.575578,
        "lng": 135.604703
    },
    {
        "code": "C127310000639",
        "type": 16002,
        "name": "四天王寺東中学校",
        "address": "藤井寺市春日丘3-1-78",
        "lat": 34.570924,
        "lng": 135.591048
    },
    {
        "code": "D127210000577",
        "type": 16004,
        "name": "藤井寺高等学校",
        "address": "藤井寺市津堂3-516",
        "lat": 34.583295,
        "lng": 135.583435
    },
    {
        "code": "D127210001193",
        "type": 16004,
        "name": "藤井寺工科高等学校",
        "address": "藤井寺市御舟町10-1",
        "lat": 34.572602,
        "lng": 135.601267
    },
    {
        "code": "D127310000539",
        "type": 16004,
        "name": "大阪緑涼高等学校",
        "address": "藤井寺市春日丘3-8-1",
        "lat": 34.56788,
        "lng": 135.589435
    },
    {
        "code": "D127310000735",
        "type": 16004,
        "name": "四天王寺東高等学校",
        "address": "藤井寺市春日丘3-1-78",
        "lat": 34.570576,
        "lng": 135.591008
    },
    {
        "code": "E127210000413",
        "type": 16012,
        "name": "藤井寺支援学校",
        "address": "藤井寺市川北2-5-23",
        "lat": 34.586323,
        "lng": 135.612877
    }
]