[
    {
        "code": "A127210002278",
        "type": 16011,
        "name": "東幼稚園",
        "address": "大阪狭山市狭山3-2555-1",
        "lat": 34.507798,
        "lng": 135.554084
    },
    {
        "code": "A127210002287",
        "type": 16011,
        "name": "半田幼稚園",
        "address": "大阪狭山市半田2-269",
        "lat": 34.491924,
        "lng": 135.556498
    },
    {
        "code": "A127210002296",
        "type": 16011,
        "name": "東野幼稚園",
        "address": "大阪狭山市東野中2-22",
        "lat": 34.519335,
        "lng": 135.558939
    },
    {
        "code": "A227210000661",
        "type": 16013,
        "name": "大阪狭山市立こども園",
        "address": "大阪狭山市西山台6-19-12",
        "lat": 34.487647,
        "lng": 135.535978
    },
    {
        "code": "A227310004157",
        "type": 16013,
        "name": "山本こども園",
        "address": "大阪狭山市山本中353-2",
        "lat": 34.510286,
        "lng": 135.536894
    },
    {
        "code": "A227310004166",
        "type": 16013,
        "name": "つぼみこども園",
        "address": "大阪狭山市東茱萸木3-2283-1",
        "lat": 34.489255,
        "lng": 135.55802
    },
    {
        "code": "A227310004175",
        "type": 16013,
        "name": "大野台こども園",
        "address": "大阪狭山市大野台5-7-2",
        "lat": 34.478258,
        "lng": 135.541386
    },
    {
        "code": "A227310004184",
        "type": 16013,
        "name": "大谷さやまこども園",
        "address": "大阪狭山市今熊1-50",
        "lat": 34.49665,
        "lng": 135.545032
    },
    {
        "code": "A227310005600",
        "type": 16013,
        "name": "きらりこども園",
        "address": "大阪狭山市金剛2-13-16",
        "lat": 34.50279,
        "lng": 135.558936
    },
    {
        "code": "A227310005619",
        "type": 16013,
        "name": "池尻ななこども園",
        "address": "大阪狭山市池尻中1-35-41",
        "lat": 34.514977,
        "lng": 135.547518
    },
    {
        "code": "B127210009484",
        "type": 16001,
        "name": "東小学校",
        "address": "大阪狭山市狭山3-2497-1",
        "lat": 34.50597,
        "lng": 135.554689
    },
    {
        "code": "B127210009493",
        "type": 16001,
        "name": "西小学校",
        "address": "大阪狭山市今熊1-22",
        "lat": 34.497304,
        "lng": 135.544968
    },
    {
        "code": "B127210009509",
        "type": 16001,
        "name": "南第一小学校",
        "address": "大阪狭山市西山台3-2-1",
        "lat": 34.487694,
        "lng": 135.541691
    },
    {
        "code": "B127210009518",
        "type": 16001,
        "name": "南第二小学校",
        "address": "大阪狭山市大野台3-23-1",
        "lat": 34.477751,
        "lng": 135.540636
    },
    {
        "code": "B127210009527",
        "type": 16001,
        "name": "北小学校",
        "address": "大阪狭山市池尻北2-20-7",
        "lat": 34.514497,
        "lng": 135.5538
    },
    {
        "code": "B127210009536",
        "type": 16001,
        "name": "南第三小学校",
        "address": "大阪狭山市西山台6-19-7",
        "lat": 34.488277,
        "lng": 135.536469
    },
    {
        "code": "B127210009545",
        "type": 16001,
        "name": "第七小学校",
        "address": "大阪狭山市東茱萸木2-865",
        "lat": 34.486111,
        "lng": 135.554551
    },
    {
        "code": "C127210004398",
        "type": 16002,
        "name": "狭山中学校",
        "address": "大阪狭山市狭山4-2272-2",
        "lat": 34.505026,
        "lng": 135.556606
    },
    {
        "code": "C127210004405",
        "type": 16002,
        "name": "南中学校",
        "address": "大阪狭山市大野台3-2-1",
        "lat": 34.479528,
        "lng": 135.546663
    },
    {
        "code": "C127210004414",
        "type": 16002,
        "name": "第三中学校",
        "address": "大阪狭山市茱萸木2-397",
        "lat": 34.491222,
        "lng": 135.551579
    },
    {
        "code": "D127210000871",
        "type": 16004,
        "name": "狭山高等学校",
        "address": "大阪狭山市半田4-1510",
        "lat": 34.495638,
        "lng": 135.550107
    },
    {
        "code": "H127310000772",
        "type": 16016,
        "name": "ホンダテクニカルカレッジ関西",
        "address": "大阪狭山市東茱萸木2-1937-1",
        "lat": 34.483781,
        "lng": 135.555342
    },
    {
        "code": "H127310001593",
        "type": 16016,
        "name": "近畿大学附属看護専門学校",
        "address": "大阪狭山市大野東102-1",
        "lat": 34.474696,
        "lng": 135.54736
    }
]