[
    {
        "code": "A127310002962",
        "type": 16011,
        "name": "熊取みどり幼稚園",
        "address": "泉南郡熊取町野田1-7-5",
        "lat": 34.400768,
        "lng": 135.359003
    },
    {
        "code": "A227310004264",
        "type": 16013,
        "name": "さくらこども園",
        "address": "泉南郡熊取町七山1-1403-1",
        "lat": 34.410484,
        "lng": 135.357612
    },
    {
        "code": "A227310004273",
        "type": 16013,
        "name": "フレンド幼稚園",
        "address": "泉南郡熊取町大久保東2-1-13",
        "lat": 34.400418,
        "lng": 135.345408
    },
    {
        "code": "B127210009144",
        "type": 16001,
        "name": "中央小学校",
        "address": "泉南郡熊取町野田2-2-1",
        "lat": 34.400203,
        "lng": 135.355852
    },
    {
        "code": "B127210009153",
        "type": 16001,
        "name": "西小学校",
        "address": "泉南郡熊取町大久保南1-1589",
        "lat": 34.394413,
        "lng": 135.344376
    },
    {
        "code": "B127210009162",
        "type": 16001,
        "name": "南小学校",
        "address": "泉南郡熊取町朝代東4-16-1",
        "lat": 34.384407,
        "lng": 135.356291
    },
    {
        "code": "B127210009171",
        "type": 16001,
        "name": "北小学校",
        "address": "泉南郡熊取町希望が丘4-14-1",
        "lat": 34.40609,
        "lng": 135.36493
    },
    {
        "code": "B127210009180",
        "type": 16001,
        "name": "東小学校",
        "address": "泉南郡熊取町久保4-1306-1",
        "lat": 34.391443,
        "lng": 135.370062
    },
    {
        "code": "C127210004236",
        "type": 16002,
        "name": "熊取中学校",
        "address": "泉南郡熊取町五門東1-1-11",
        "lat": 34.397091,
        "lng": 135.356265
    },
    {
        "code": "C127210004245",
        "type": 16002,
        "name": "熊取北中学校",
        "address": "泉南郡熊取町希望ヶ丘2-6-1",
        "lat": 34.404729,
        "lng": 135.365041
    },
    {
        "code": "C127210004254",
        "type": 16002,
        "name": "熊取南中学校",
        "address": "泉南郡熊取町大宮4-1049",
        "lat": 34.389509,
        "lng": 135.363736
    },
    {
        "code": "C127310000443",
        "type": 16002,
        "name": "浪商中学校",
        "address": "泉南郡熊取町朝代台1-1",
        "lat": 34.380121,
        "lng": 135.359042
    },
    {
        "code": "D127310000897",
        "type": 16004,
        "name": "大阪体育大学浪商高等学校",
        "address": "泉南郡熊取町朝代台1-1",
        "lat": 34.380287,
        "lng": 135.35707
    },
    {
        "code": "F127310108036",
        "type": 16007,
        "name": "大阪体育大学",
        "address": "泉南郡熊取町朝代台1-1",
        "lat": 34.380675,
        "lng": 135.359025
    },
    {
        "code": "F127310108214",
        "type": 16007,
        "name": "大阪観光大学",
        "address": "泉南郡熊取町大久保南5-3-1",
        "lat": 34.392712,
        "lng": 135.339595
    },
    {
        "code": "F127310108250",
        "type": 16007,
        "name": "関西医療大学",
        "address": "泉南郡熊取町若葉2-11-1",
        "lat": 34.40693,
        "lng": 135.370352
    }
]