[
    {
        "code": "A128210001517",
        "type": 16011,
        "name": "やまて幼稚園",
        "address": "加古川市神野町石守1489",
        "lat": 34.775523,
        "lng": 134.878096
    },
    {
        "code": "A128210001526",
        "type": 16011,
        "name": "両荘幼稚園",
        "address": "加古川市平荘町山角43-1",
        "lat": 34.802562,
        "lng": 134.871093
    },
    {
        "code": "A128210001535",
        "type": 16011,
        "name": "加古川幼稚園",
        "address": "加古川市加古川町木村35-3",
        "lat": 34.764771,
        "lng": 134.831692
    },
    {
        "code": "A128210001544",
        "type": 16011,
        "name": "氷丘幼稚園",
        "address": "加古川市加古川町中津866",
        "lat": 34.771596,
        "lng": 134.848735
    },
    {
        "code": "A128210001553",
        "type": 16011,
        "name": "鳩里幼稚園",
        "address": "加古川市加古川町備後170",
        "lat": 34.76075,
        "lng": 134.821674
    },
    {
        "code": "A128210001562",
        "type": 16011,
        "name": "野口幼稚園",
        "address": "加古川市野口町野口532-1",
        "lat": 34.754734,
        "lng": 134.85382
    },
    {
        "code": "A128210001571",
        "type": 16011,
        "name": "平岡幼稚園",
        "address": "加古川市平岡町高畑193",
        "lat": 34.736644,
        "lng": 134.872008
    },
    {
        "code": "A128210001580",
        "type": 16011,
        "name": "尾上幼稚園",
        "address": "加古川市尾上町長田517-70",
        "lat": 34.74174,
        "lng": 134.825124
    },
    {
        "code": "A128210001599",
        "type": 16011,
        "name": "別府町幼稚園",
        "address": "加古川市別府町宮田町37",
        "lat": 34.728175,
        "lng": 134.843972
    },
    {
        "code": "A128210001606",
        "type": 16011,
        "name": "西神吉幼稚園",
        "address": "加古川市西神吉町西村139",
        "lat": 34.797562,
        "lng": 134.821423
    },
    {
        "code": "A128210001615",
        "type": 16011,
        "name": "平岡南幼稚園",
        "address": "加古川市平岡町二俣150",
        "lat": 34.734461,
        "lng": 134.861672
    },
    {
        "code": "A128210001624",
        "type": 16011,
        "name": "浜の宮幼稚園",
        "address": "加古川市尾上町口里790-60",
        "lat": 34.736324,
        "lng": 134.831084
    },
    {
        "code": "A128210001633",
        "type": 16011,
        "name": "平岡東幼稚園",
        "address": "加古川市平岡町土山109",
        "lat": 34.725119,
        "lng": 134.890134
    },
    {
        "code": "A128210001642",
        "type": 16011,
        "name": "野口北幼稚園",
        "address": "加古川市野口町北野1110",
        "lat": 34.760581,
        "lng": 134.869779
    },
    {
        "code": "A128210001651",
        "type": 16011,
        "name": "氷丘南幼稚園",
        "address": "加古川市加古川町河原227-1",
        "lat": 34.770579,
        "lng": 134.843746
    },
    {
        "code": "A128210002776",
        "type": 16011,
        "name": "平岡北幼稚園",
        "address": "加古川市平岡町新在家1407-1",
        "lat": 34.747884,
        "lng": 134.872052
    },
    {
        "code": "A128210002785",
        "type": 16011,
        "name": "野口南幼稚園",
        "address": "加古川市野口町古大内245-5",
        "lat": 34.74396,
        "lng": 134.85099
    },
    {
        "code": "A128310001597",
        "type": 16011,
        "name": "別府幼稚園",
        "address": "加古川市別府町新野辺1201",
        "lat": 34.730914,
        "lng": 134.837647
    },
    {
        "code": "A128310001604",
        "type": 16011,
        "name": "兵庫大学附属加古川幼稚園",
        "address": "加古川市平岡町新在家2301",
        "lat": 34.74768,
        "lng": 134.88092
    },
    {
        "code": "A228210000090",
        "type": 16013,
        "name": "しかたこども園",
        "address": "加古川市志方町志方町1721",
        "lat": 34.822201,
        "lng": 134.821556
    },
    {
        "code": "A228210000107",
        "type": 16013,
        "name": "川西こども園",
        "address": "加古川市米田町平津108",
        "lat": 34.780211,
        "lng": 134.822185
    },
    {
        "code": "A228210000116",
        "type": 16013,
        "name": "東神吉こども園",
        "address": "加古川市東神吉町神吉182-1",
        "lat": 34.790685,
        "lng": 134.830242
    },
    {
        "code": "A228310002407",
        "type": 16013,
        "name": "都台こども園",
        "address": "加古川市上荘町都染314-1",
        "lat": 34.800896,
        "lng": 134.893703
    },
    {
        "code": "A228310002416",
        "type": 16013,
        "name": "西神吉こども園",
        "address": "加古川市西神吉町大国675-2",
        "lat": 34.79676,
        "lng": 134.814335
    },
    {
        "code": "A228310002425",
        "type": 16013,
        "name": "せきれい保育園",
        "address": "加古川市平岡町土山1163",
        "lat": 34.724359,
        "lng": 134.888101
    },
    {
        "code": "A228310002434",
        "type": 16013,
        "name": "せきれい保育園分園",
        "address": "加古川市平岡町土山1200-1",
        "lat": 34.723379,
        "lng": 134.889201
    },
    {
        "code": "A228310002443",
        "type": 16013,
        "name": "やはたこども園",
        "address": "加古川市八幡町下村1024-2",
        "lat": 34.789702,
        "lng": 134.905885
    },
    {
        "code": "A228310002452",
        "type": 16013,
        "name": "ゆき保育園",
        "address": "加古川市志方町投松182",
        "lat": 34.815755,
        "lng": 134.836899
    },
    {
        "code": "A228310002461",
        "type": 16013,
        "name": "加古川こども園",
        "address": "加古川市加古川町木村196-3",
        "lat": 34.764727,
        "lng": 134.830631
    },
    {
        "code": "A228310002470",
        "type": 16013,
        "name": "加古のうみこども園",
        "address": "加古川市別府町中島町7",
        "lat": 34.731405,
        "lng": 134.845996
    },
    {
        "code": "A228310002489",
        "type": 16013,
        "name": "孔雀こども園",
        "address": "加古川市野口町北野161",
        "lat": 34.753969,
        "lng": 134.866905
    },
    {
        "code": "A228310002498",
        "type": 16013,
        "name": "加古のみやこども園",
        "address": "加古川市神野町西条481",
        "lat": 34.786558,
        "lng": 134.874671
    },
    {
        "code": "A228310002504",
        "type": 16013,
        "name": "ピュアキューピットこども園",
        "address": "加古川市平岡町山之上32",
        "lat": 34.729275,
        "lng": 134.874719
    },
    {
        "code": "A228310002513",
        "type": 16013,
        "name": "ピュアキッズこども園",
        "address": "加古川市平岡町山之上115-1",
        "lat": 34.729325,
        "lng": 134.873646
    },
    {
        "code": "A228310002522",
        "type": 16013,
        "name": "ルナキューピットこども園",
        "address": "加古川市加古川町南備後67-1",
        "lat": 34.755611,
        "lng": 134.821465
    },
    {
        "code": "A228310002531",
        "type": 16013,
        "name": "光認定こども園",
        "address": "加古川市尾上町池田830-201",
        "lat": 34.73985,
        "lng": 134.820972
    },
    {
        "code": "A228310002540",
        "type": 16013,
        "name": "トベラこども園",
        "address": "加古川市平岡町高畑621-3",
        "lat": 34.734657,
        "lng": 134.880647
    },
    {
        "code": "A228310002559",
        "type": 16013,
        "name": "エミールこども園",
        "address": "加古川市平岡町土山472-1",
        "lat": 34.730354,
        "lng": 134.888718
    },
    {
        "code": "A228310002568",
        "type": 16013,
        "name": "認定こども園子供のお里",
        "address": "加古川市平岡町山之上283-1",
        "lat": 34.733458,
        "lng": 134.869727
    },
    {
        "code": "A228310002577",
        "type": 16013,
        "name": "みどりの森こども園",
        "address": "加古川市平荘町西山254-4",
        "lat": 34.807023,
        "lng": 134.855223
    },
    {
        "code": "A228310002586",
        "type": 16013,
        "name": "幼保連携型認定こども園とうばんの森",
        "address": "加古川市東神吉町出河原551",
        "lat": 34.782342,
        "lng": 134.838077
    },
    {
        "code": "B128210004013",
        "type": 16001,
        "name": "加古川小学校",
        "address": "加古川市加古川町木村222-3",
        "lat": 34.765321,
        "lng": 134.830998
    },
    {
        "code": "B128210004022",
        "type": 16001,
        "name": "氷丘小学校",
        "address": "加古川市加古川町中津886-1",
        "lat": 34.770376,
        "lng": 134.849135
    },
    {
        "code": "B128210004031",
        "type": 16001,
        "name": "神野小学校",
        "address": "加古川市神野町石守1043",
        "lat": 34.776098,
        "lng": 134.877187
    },
    {
        "code": "B128210004040",
        "type": 16001,
        "name": "野口小学校",
        "address": "加古川市野口町野口493",
        "lat": 34.754572,
        "lng": 134.854606
    },
    {
        "code": "B128210004059",
        "type": 16001,
        "name": "平岡小学校",
        "address": "加古川市平岡町高畑164-1",
        "lat": 34.737463,
        "lng": 134.872549
    },
    {
        "code": "B128210004068",
        "type": 16001,
        "name": "尾上小学校",
        "address": "加古川市尾上町長田519-1",
        "lat": 34.741796,
        "lng": 134.823443
    },
    {
        "code": "B128210004077",
        "type": 16001,
        "name": "別府小学校",
        "address": "加古川市別府町西町1",
        "lat": 34.726853,
        "lng": 134.843302
    },
    {
        "code": "B128210004086",
        "type": 16001,
        "name": "八幡小学校",
        "address": "加古川市八幡町宗佐345",
        "lat": 34.794096,
        "lng": 134.914684
    },
    {
        "code": "B128210004095",
        "type": 16001,
        "name": "平荘小学校",
        "address": "加古川市平荘町山角467",
        "lat": 34.802762,
        "lng": 134.872188
    },
    {
        "code": "B128210004102",
        "type": 16001,
        "name": "上荘小学校",
        "address": "加古川市上荘町都染400",
        "lat": 34.799318,
        "lng": 134.897852
    },
    {
        "code": "B128210004111",
        "type": 16001,
        "name": "東神吉小学校",
        "address": "加古川市東神吉町神吉156",
        "lat": 34.790874,
        "lng": 134.829608
    },
    {
        "code": "B128210004120",
        "type": 16001,
        "name": "西神吉小学校",
        "address": "加古川市西神吉町西村121",
        "lat": 34.798262,
        "lng": 134.820887
    },
    {
        "code": "B128210004139",
        "type": 16001,
        "name": "川西小学校",
        "address": "加古川市米田町平津108",
        "lat": 34.779098,
        "lng": 134.822276
    },
    {
        "code": "B128210004148",
        "type": 16001,
        "name": "陵北小学校",
        "address": "加古川市新神野5-1",
        "lat": 34.789,
        "lng": 134.873562
    },
    {
        "code": "B128210004157",
        "type": 16001,
        "name": "平岡南小学校",
        "address": "加古川市平岡町二俣180",
        "lat": 34.733713,
        "lng": 134.862078
    },
    {
        "code": "B128210004166",
        "type": 16001,
        "name": "浜の宮小学校",
        "address": "加古川市尾上町口里770-37",
        "lat": 34.737046,
        "lng": 134.834886
    },
    {
        "code": "B128210004175",
        "type": 16001,
        "name": "鳩里小学校",
        "address": "加古川市加古川町稲屋81",
        "lat": 34.760544,
        "lng": 134.82086
    },
    {
        "code": "B128210004184",
        "type": 16001,
        "name": "平岡東小学校",
        "address": "加古川市平岡町土山109",
        "lat": 34.724159,
        "lng": 134.890242
    },
    {
        "code": "B128210004193",
        "type": 16001,
        "name": "野口北小学校",
        "address": "加古川市野口町北野1110",
        "lat": 34.759961,
        "lng": 134.870521
    },
    {
        "code": "B128210004200",
        "type": 16001,
        "name": "氷丘南小学校",
        "address": "加古川市加古川町溝之口246",
        "lat": 34.769126,
        "lng": 134.844691
    },
    {
        "code": "B128210004219",
        "type": 16001,
        "name": "平岡北小学校",
        "address": "加古川市平岡町新在家1327-1",
        "lat": 34.748573,
        "lng": 134.871355
    },
    {
        "code": "B128210004228",
        "type": 16001,
        "name": "野口南小学校",
        "address": "加古川市野口町古大内245-3",
        "lat": 34.744323,
        "lng": 134.851162
    },
    {
        "code": "B128210004237",
        "type": 16001,
        "name": "東神吉南小学校",
        "address": "加古川市東神吉町砂部393",
        "lat": 34.787097,
        "lng": 134.827248
    },
    {
        "code": "B128210004246",
        "type": 16001,
        "name": "若宮小学校",
        "address": "加古川市尾上町養田218",
        "lat": 34.752406,
        "lng": 134.815361
    },
    {
        "code": "B128210004255",
        "type": 16001,
        "name": "別府西小学校",
        "address": "加古川市別府町新野辺574-175",
        "lat": 34.732104,
        "lng": 134.835822
    },
    {
        "code": "B128210005021",
        "type": 16001,
        "name": "志方東小学校",
        "address": "加古川市志方町細工所146",
        "lat": 34.832453,
        "lng": 134.838385
    },
    {
        "code": "B128210005030",
        "type": 16001,
        "name": "志方小学校",
        "address": "加古川市志方町志方町1050",
        "lat": 34.81901,
        "lng": 134.822525
    },
    {
        "code": "B128210005049",
        "type": 16001,
        "name": "志方西小学校",
        "address": "加古川市志方町原587",
        "lat": 34.81576,
        "lng": 134.808027
    },
    {
        "code": "C128210001899",
        "type": 16002,
        "name": "加古川中学校",
        "address": "加古川市加古川町備後203",
        "lat": 34.760516,
        "lng": 134.824693
    },
    {
        "code": "C128210001906",
        "type": 16002,
        "name": "中部中学校",
        "address": "加古川市野口町良野890-1",
        "lat": 34.750906,
        "lng": 134.851995
    },
    {
        "code": "C128210001915",
        "type": 16002,
        "name": "浜の宮中学校",
        "address": "加古川市別府町新野辺574",
        "lat": 34.73413,
        "lng": 134.836053
    },
    {
        "code": "C128210001924",
        "type": 16002,
        "name": "両荘中学校",
        "address": "加古川市平荘町山角740",
        "lat": 34.802456,
        "lng": 134.880659
    },
    {
        "code": "C128210001933",
        "type": 16002,
        "name": "平岡中学校",
        "address": "加古川市平岡町新在家1801",
        "lat": 34.743101,
        "lng": 134.877688
    },
    {
        "code": "C128210001942",
        "type": 16002,
        "name": "氷丘中学校",
        "address": "加古川市加古川町大野845",
        "lat": 34.770626,
        "lng": 134.857412
    },
    {
        "code": "C128210001951",
        "type": 16002,
        "name": "神吉中学校",
        "address": "加古川市東神吉町神吉591-1",
        "lat": 34.789874,
        "lng": 134.826331
    },
    {
        "code": "C128210001960",
        "type": 16002,
        "name": "平岡南中学校",
        "address": "加古川市平岡町二俣285-4",
        "lat": 34.733352,
        "lng": 134.863605
    },
    {
        "code": "C128210001979",
        "type": 16002,
        "name": "別府中学校",
        "address": "加古川市別府町新野辺北町8-9",
        "lat": 34.736713,
        "lng": 134.845385
    },
    {
        "code": "C128210002335",
        "type": 16002,
        "name": "志方中学校",
        "address": "加古川市志方町志方町宮山",
        "lat": 34.824093,
        "lng": 134.828025
    },
    {
        "code": "C128210002344",
        "type": 16002,
        "name": "陵南中学校",
        "address": "加古川市野口町水足333-333",
        "lat": 34.760516,
        "lng": 134.861689
    },
    {
        "code": "C128210003352",
        "type": 16002,
        "name": "山手中学校",
        "address": "加古川市山手1-9-1",
        "lat": 34.77982,
        "lng": 134.886103
    },
    {
        "code": "D128210000237",
        "type": 16004,
        "name": "加古川東高等学校",
        "address": "加古川市加古川町粟津232-2",
        "lat": 34.761794,
        "lng": 134.837914
    },
    {
        "code": "D128210000246",
        "type": 16004,
        "name": "加古川西高等学校",
        "address": "加古川市加古川町本町118",
        "lat": 34.768127,
        "lng": 134.828053
    },
    {
        "code": "D128210000255",
        "type": 16004,
        "name": "東播工業高等学校",
        "address": "加古川市東神吉町神吉1748-1",
        "lat": 34.798787,
        "lng": 134.832845
    },
    {
        "code": "D128210000497",
        "type": 16004,
        "name": "農業高等学校",
        "address": "加古川市平岡町新在家902-4",
        "lat": 34.752823,
        "lng": 134.874077
    },
    {
        "code": "D128210001110",
        "type": 16004,
        "name": "加古川北高等学校",
        "address": "加古川市野口町水足867-1",
        "lat": 34.769418,
        "lng": 134.859314
    },
    {
        "code": "D128210001183",
        "type": 16004,
        "name": "加古川南高等学校",
        "address": "加古川市加古川町友沢65-1",
        "lat": 34.76796,
        "lng": 134.818971
    },
    {
        "code": "E128210000314",
        "type": 16012,
        "name": "加古川養護学校",
        "address": "加古川市上荘町見土呂34-1",
        "lat": 34.800901,
        "lng": 134.905185
    },
    {
        "code": "F128310108794",
        "type": 16007,
        "name": "兵庫大学",
        "address": "加古川市平岡町新在家2301",
        "lat": 34.74774,
        "lng": 134.882715
    },
    {
        "code": "F228310109140",
        "type": 16006,
        "name": "兵庫大学短期大学部",
        "address": "加古川市平岡町新在家2301",
        "lat": 34.74649,
        "lng": 134.882826
    },
    {
        "code": "H228310000609",
        "type": 16015,
        "name": "加古川ファッションカレッジ",
        "address": "加古川市加古川栗津419-1",
        "lat": 34.762318,
        "lng": 134.835223
    },
    {
        "code": "H228310000618",
        "type": 16015,
        "name": "加古川文化女学院",
        "address": "加古川市加古川町寺家町165",
        "lat": 34.768166,
        "lng": 134.837061
    },
    {
        "code": "H228310000627",
        "type": 16015,
        "name": "英数学館加古川校",
        "address": "加古川市加古川町本町186-4",
        "lat": 34.769678,
        "lng": 134.826234
    }
]