[
    {
        "code": "A128210001802",
        "type": 16011,
        "name": "仁川幼稚園",
        "address": "宝塚市仁川宮西町1-12",
        "lat": 34.780575,
        "lng": 135.351774
    },
    {
        "code": "A128210001811",
        "type": 16011,
        "name": "小浜幼稚園",
        "address": "宝塚市小浜4-7-40",
        "lat": 34.806658,
        "lng": 135.365177
    },
    {
        "code": "A128210001820",
        "type": 16011,
        "name": "宝塚幼稚園",
        "address": "宝塚市川面3-9-5",
        "lat": 34.811213,
        "lng": 135.347951
    },
    {
        "code": "A128210001839",
        "type": 16011,
        "name": "長尾幼稚園",
        "address": "宝塚市山手台東1-3-1",
        "lat": 34.824621,
        "lng": 135.384626
    },
    {
        "code": "A128210001848",
        "type": 16011,
        "name": "西谷幼稚園",
        "address": "宝塚市大原野字石保62-1",
        "lat": 34.909954,
        "lng": 135.303873
    },
    {
        "code": "A128210001857",
        "type": 16011,
        "name": "西山幼稚園",
        "address": "宝塚市野上6-2-2",
        "lat": 34.78999,
        "lng": 135.34111
    },
    {
        "code": "A128210002080",
        "type": 16011,
        "name": "安倉幼稚園",
        "address": "宝塚市安倉中6-1-2",
        "lat": 34.802245,
        "lng": 135.377513
    },
    {
        "code": "A128210002099",
        "type": 16011,
        "name": "末成幼稚園",
        "address": "宝塚市末成町1-2",
        "lat": 34.791687,
        "lng": 135.362872
    },
    {
        "code": "A128210002106",
        "type": 16011,
        "name": "丸橋幼稚園",
        "address": "宝塚市山本丸橋4-13-2",
        "lat": 34.811677,
        "lng": 135.395922
    },
    {
        "code": "A128210002124",
        "type": 16011,
        "name": "長尾南幼稚園",
        "address": "宝塚市山本南2-10-1",
        "lat": 34.81688,
        "lng": 135.391196
    },
    {
        "code": "A128310001622",
        "type": 16011,
        "name": "自然幼稚園",
        "address": "宝塚市川面5-15-9",
        "lat": 34.813826,
        "lng": 135.337688
    },
    {
        "code": "A128310001631",
        "type": 16011,
        "name": "宝塚厚生幼稚園",
        "address": "宝塚市旭町1-2-35",
        "lat": 34.807524,
        "lng": 135.354689
    },
    {
        "code": "A128310001640",
        "type": 16011,
        "name": "雲雀丘学園幼稚園",
        "address": "宝塚市雲雀丘4-1-3",
        "lat": 34.826198,
        "lng": 135.401877
    },
    {
        "code": "A128310001659",
        "type": 16011,
        "name": "生成幼稚園",
        "address": "宝塚市雲雀丘山手1-16-17",
        "lat": 34.83285,
        "lng": 135.403074
    },
    {
        "code": "A128310001668",
        "type": 16011,
        "name": "宝塚武庫山幼稚園",
        "address": "宝塚市武庫山1-1-17",
        "lat": 34.802861,
        "lng": 135.340896
    },
    {
        "code": "A128310001677",
        "type": 16011,
        "name": "宝塚伊和志津学園認定こども園逆瀬川幼稚園",
        "address": "宝塚市伊孑志1-4-50",
        "lat": 34.799522,
        "lng": 135.353201
    },
    {
        "code": "A128310001686",
        "type": 16011,
        "name": "宝塚南口幼稚園",
        "address": "宝塚市南口2-4-4",
        "lat": 34.803061,
        "lng": 135.346438
    },
    {
        "code": "A128310001695",
        "type": 16011,
        "name": "花屋敷幼稚園",
        "address": "宝塚市口谷東2-3-9",
        "lat": 34.818318,
        "lng": 135.400582
    },
    {
        "code": "A128310001702",
        "type": 16011,
        "name": "ルンビニ学園幼稚園",
        "address": "宝塚市売布2-6-21",
        "lat": 34.814296,
        "lng": 135.361403
    },
    {
        "code": "A128310001711",
        "type": 16011,
        "name": "めぐみ学園幼稚園",
        "address": "宝塚市小林3-7-45",
        "lat": 34.79644,
        "lng": 135.357551
    },
    {
        "code": "A128310001720",
        "type": 16011,
        "name": "宝塚ふたば幼稚園",
        "address": "宝塚市星の荘6-18",
        "lat": 34.814168,
        "lng": 135.364719
    },
    {
        "code": "A128310001739",
        "type": 16011,
        "name": "雲雀丘学園中山台幼稚園",
        "address": "宝塚市中山桜台1-1-1",
        "lat": 34.830094,
        "lng": 135.36756
    },
    {
        "code": "A128310001748",
        "type": 16011,
        "name": "野上幼稚園",
        "address": "宝塚市野上5-5-30",
        "lat": 34.792859,
        "lng": 135.337463
    },
    {
        "code": "A128310001757",
        "type": 16011,
        "name": "すみれ幼稚園",
        "address": "宝塚市すみれｶﾞ丘1-5-2",
        "lat": 34.820784,
        "lng": 135.341885
    },
    {
        "code": "B128210002701",
        "type": 16001,
        "name": "良元小学校",
        "address": "宝塚市小林5-2-42",
        "lat": 34.790757,
        "lng": 135.354945
    },
    {
        "code": "B128210002710",
        "type": 16001,
        "name": "仁川小学校",
        "address": "宝塚市仁川宮西町1-25",
        "lat": 34.779075,
        "lng": 135.352646
    },
    {
        "code": "B128210002729",
        "type": 16001,
        "name": "宝塚第一小学校",
        "address": "宝塚市野上1-3-35",
        "lat": 34.800239,
        "lng": 135.347229
    },
    {
        "code": "B128210002738",
        "type": 16001,
        "name": "小浜小学校",
        "address": "宝塚市小浜4-7-10",
        "lat": 34.8061,
        "lng": 135.364533
    },
    {
        "code": "B128210002747",
        "type": 16001,
        "name": "宝塚小学校",
        "address": "宝塚市川面1-7-34",
        "lat": 34.810988,
        "lng": 135.348812
    },
    {
        "code": "B128210002756",
        "type": 16001,
        "name": "長尾小学校",
        "address": "宝塚市山本東1-10-10",
        "lat": 34.823876,
        "lng": 135.383531
    },
    {
        "code": "B128210002765",
        "type": 16001,
        "name": "西谷小学校",
        "address": "宝塚市大原野字石保34-1",
        "lat": 34.910507,
        "lng": 135.303873
    },
    {
        "code": "B128210002774",
        "type": 16001,
        "name": "売布小学校",
        "address": "宝塚市売布が丘1-20",
        "lat": 34.815765,
        "lng": 135.358228
    },
    {
        "code": "B128210002783",
        "type": 16001,
        "name": "西山小学校",
        "address": "宝塚市野上6-2-1",
        "lat": 34.790768,
        "lng": 135.341257
    },
    {
        "code": "B128210002792",
        "type": 16001,
        "name": "長尾南小学校",
        "address": "宝塚市山本南2-10-1",
        "lat": 34.817154,
        "lng": 135.390253
    },
    {
        "code": "B128210002809",
        "type": 16001,
        "name": "末成小学校",
        "address": "宝塚市末成町1-1",
        "lat": 34.791268,
        "lng": 135.362006
    },
    {
        "code": "B128210002818",
        "type": 16001,
        "name": "安倉小学校",
        "address": "宝塚市安倉中6-1-1",
        "lat": 34.801406,
        "lng": 135.376532
    },
    {
        "code": "B128210002827",
        "type": 16001,
        "name": "中山桜台小学校",
        "address": "宝塚市中山桜台4-25-1",
        "lat": 34.834874,
        "lng": 135.360033
    },
    {
        "code": "B128210002836",
        "type": 16001,
        "name": "逆瀬台小学校",
        "address": "宝塚市逆瀬台6-1-1",
        "lat": 34.793323,
        "lng": 135.330203
    },
    {
        "code": "B128210002845",
        "type": 16001,
        "name": "長尾台小学校",
        "address": "宝塚市長尾台1-1-1",
        "lat": 34.834736,
        "lng": 135.399585
    },
    {
        "code": "B128210002854",
        "type": 16001,
        "name": "美座小学校",
        "address": "宝塚市美座2-6-1",
        "lat": 34.804572,
        "lng": 135.357589
    },
    {
        "code": "B128210002863",
        "type": 16001,
        "name": "光明小学校",
        "address": "宝塚市光明町8-40",
        "lat": 34.791185,
        "lng": 135.357645
    },
    {
        "code": "B128210002872",
        "type": 16001,
        "name": "末広小学校",
        "address": "宝塚市末広町3-1",
        "lat": 34.802017,
        "lng": 135.356367
    },
    {
        "code": "B128210002881",
        "type": 16001,
        "name": "丸橋小学校",
        "address": "宝塚市山本丸橋4-13-1",
        "lat": 34.81235,
        "lng": 135.396725
    },
    {
        "code": "B128210002890",
        "type": 16001,
        "name": "中山五月台小学校",
        "address": "宝塚市中山五月台7-4-1",
        "lat": 34.842206,
        "lng": 135.360588
    },
    {
        "code": "B128210003130",
        "type": 16001,
        "name": "高司小学校",
        "address": "宝塚市高司4-4-55",
        "lat": 34.784047,
        "lng": 135.367256
    },
    {
        "code": "B128210003149",
        "type": 16001,
        "name": "安倉北小学校",
        "address": "宝塚市安倉北5-1-1",
        "lat": 34.806628,
        "lng": 135.37356
    },
    {
        "code": "B128210003158",
        "type": 16001,
        "name": "すみれガ丘小学校",
        "address": "宝塚市すみれｶﾞ丘1-5-1",
        "lat": 34.819947,
        "lng": 135.3431
    },
    {
        "code": "B128210003167",
        "type": 16001,
        "name": "山手台小学校",
        "address": "宝塚市山手台西3-1-1",
        "lat": 34.832793,
        "lng": 135.376055
    },
    {
        "code": "B128310000088",
        "type": 16001,
        "name": "小林聖心女子学院小学校",
        "address": "宝塚市塔の町3-113",
        "lat": 34.786856,
        "lng": 135.350144
    },
    {
        "code": "B128310000097",
        "type": 16001,
        "name": "雲雀丘学園小学校",
        "address": "宝塚市雲雀丘4-2-1",
        "lat": 34.825737,
        "lng": 135.400694
    },
    {
        "code": "B128310000104",
        "type": 16001,
        "name": "関西学院初等部",
        "address": "宝塚市武庫川町6-27",
        "lat": 34.806403,
        "lng": 135.352268
    },
    {
        "code": "C128210001345",
        "type": 16002,
        "name": "宝塚第一中学校",
        "address": "宝塚市仁川うぐいす台1-1",
        "lat": 34.781491,
        "lng": 135.347479
    },
    {
        "code": "C128210001354",
        "type": 16002,
        "name": "宝梅中学校",
        "address": "宝塚市宝梅3-4-20",
        "lat": 34.797795,
        "lng": 135.336619
    },
    {
        "code": "C128210001363",
        "type": 16002,
        "name": "宝塚中学校",
        "address": "宝塚市美座1-1-20",
        "lat": 34.803044,
        "lng": 135.361311
    },
    {
        "code": "C128210001372",
        "type": 16002,
        "name": "長尾中学校",
        "address": "宝塚市長尾町7-1",
        "lat": 34.814905,
        "lng": 135.38142
    },
    {
        "code": "C128210001381",
        "type": 16002,
        "name": "西谷中学校",
        "address": "宝塚市大原野字石保46",
        "lat": 34.910757,
        "lng": 135.303484
    },
    {
        "code": "C128210001390",
        "type": 16002,
        "name": "高司中学校",
        "address": "宝塚市高司2-3-1",
        "lat": 34.785935,
        "lng": 135.361811
    },
    {
        "code": "C128210001407",
        "type": 16002,
        "name": "南ひばりガ丘中学校",
        "address": "宝塚市南ひばりｶﾞ丘2-7-1",
        "lat": 34.821599,
        "lng": 135.399085
    },
    {
        "code": "C128210001416",
        "type": 16002,
        "name": "安倉中学校",
        "address": "宝塚市安倉中6-3-1",
        "lat": 34.802295,
        "lng": 135.379254
    },
    {
        "code": "C128210001425",
        "type": 16002,
        "name": "中山五月台中学校",
        "address": "宝塚市中山五月台4-20-1",
        "lat": 34.837485,
        "lng": 135.368921
    },
    {
        "code": "C128210001434",
        "type": 16002,
        "name": "御殿山中学校",
        "address": "宝塚市御殿山1-3-1",
        "lat": 34.816792,
        "lng": 135.348673
    },
    {
        "code": "C128210001513",
        "type": 16002,
        "name": "光が丘中学校",
        "address": "宝塚市光ｶﾞ丘2-15-1",
        "lat": 34.801905,
        "lng": 135.33473
    },
    {
        "code": "C128210001522",
        "type": 16002,
        "name": "山手台中学校",
        "address": "宝塚市山手台西1-4-1",
        "lat": 34.828847,
        "lng": 135.377504
    },
    {
        "code": "C128310000406",
        "type": 16002,
        "name": "小林聖心女子学院中学校",
        "address": "宝塚市塔の町3-113",
        "lat": 34.786824,
        "lng": 135.350118
    },
    {
        "code": "C128310000415",
        "type": 16002,
        "name": "雲雀丘学園中学校",
        "address": "宝塚市雲雀丘4-2-1",
        "lat": 34.825709,
        "lng": 135.400696
    },
    {
        "code": "D128210000282",
        "type": 16004,
        "name": "宝塚高等学校",
        "address": "宝塚市逆瀬台2-2-1",
        "lat": 34.791212,
        "lng": 135.328759
    },
    {
        "code": "D128210000978",
        "type": 16004,
        "name": "宝塚東高等学校",
        "address": "宝塚市中山五月台1-12-1",
        "lat": 34.831208,
        "lng": 135.371365
    },
    {
        "code": "D128210001076",
        "type": 16004,
        "name": "宝塚西高等学校",
        "address": "宝塚市ゆずり葉台1-1-1",
        "lat": 34.78949,
        "lng": 135.324509
    },
    {
        "code": "D128210001245",
        "type": 16004,
        "name": "宝塚北高等学校",
        "address": "宝塚市すみれｶﾞ丘4-1-1",
        "lat": 34.821764,
        "lng": 135.338174
    },
    {
        "code": "D128310000413",
        "type": 16004,
        "name": "小林聖心女子学院高等学校",
        "address": "宝塚市塔の町3-113",
        "lat": 34.786824,
        "lng": 135.350146
    },
    {
        "code": "D128310000422",
        "type": 16004,
        "name": "雲雀丘学園高等学校",
        "address": "宝塚市雲雀丘4-2-1",
        "lat": 34.825237,
        "lng": 135.399641
    },
    {
        "code": "E128210000369",
        "type": 16012,
        "name": "宝塚市立養護学校",
        "address": "宝塚市安倉中6-1-3",
        "lat": 34.801323,
        "lng": 135.377754
    },
    {
        "code": "F128310108810",
        "type": 16007,
        "name": "宝塚医療大学",
        "address": "宝塚市花屋敷緑ｶﾞ丘1",
        "lat": 34.844265,
        "lng": 135.402902
    },
    {
        "code": "F128310108856",
        "type": 16007,
        "name": "甲子園大学",
        "address": "宝塚市紅葉ｶﾞ丘10-1",
        "lat": 34.80671,
        "lng": 135.33348
    },
    {
        "code": "H128210000050",
        "type": 16016,
        "name": "宝塚市立看護専門学校",
        "address": "宝塚市小浜4-5-5",
        "lat": 34.80588,
        "lng": 135.365827
    },
    {
        "code": "H228310000663",
        "type": 16015,
        "name": "宝塚音楽学校",
        "address": "宝塚市武庫川町1-1",
        "lat": 34.806599,
        "lng": 135.347248
    },
    {
        "code": "H228310000672",
        "type": 16015,
        "name": "宝塚学院書道美術学校",
        "address": "宝塚市清荒神3-3-23",
        "lat": 34.813658,
        "lng": 135.352128
    }
]