[
    {
        "code": "A228210000704",
        "type": 16013,
        "name": "生野こども園",
        "address": "朝来市生野町口銀谷546",
        "lat": 35.168305,
        "lng": 134.791392
    },
    {
        "code": "A228210000713",
        "type": 16013,
        "name": "糸井こども園",
        "address": "朝来市和田山町寺内565-1",
        "lat": 35.362529,
        "lng": 134.843576
    },
    {
        "code": "A228210000722",
        "type": 16013,
        "name": "大蔵こども園",
        "address": "朝来市和田山町宮田193-1",
        "lat": 35.357946,
        "lng": 134.825964
    },
    {
        "code": "A228210000731",
        "type": 16013,
        "name": "東河こども園",
        "address": "朝来市和田山町中380",
        "lat": 35.349285,
        "lng": 134.888156
    },
    {
        "code": "A228210000740",
        "type": 16013,
        "name": "竹田こども園",
        "address": "朝来市和田山町竹田592-1",
        "lat": 35.300678,
        "lng": 134.838616
    },
    {
        "code": "A228210000759",
        "type": 16013,
        "name": "中川こども園",
        "address": "朝来市桑市99",
        "lat": 35.264442,
        "lng": 134.806301
    },
    {
        "code": "A228210000768",
        "type": 16013,
        "name": "山口こども園",
        "address": "朝来市羽渕538",
        "lat": 35.226413,
        "lng": 134.792427
    },
    {
        "code": "A228310003861",
        "type": 16013,
        "name": "枚田みのり保育園",
        "address": "朝来市和田山町枚田1652",
        "lat": 35.326515,
        "lng": 134.843294
    },
    {
        "code": "A228310003870",
        "type": 16013,
        "name": "やなせこども園",
        "address": "朝来市山東町矢名瀬町772",
        "lat": 35.31662,
        "lng": 134.882107
    },
    {
        "code": "A228310003889",
        "type": 16013,
        "name": "ひまわりこども園",
        "address": "朝来市和田山町和田山372-1",
        "lat": 35.337739,
        "lng": 134.855868
    },
    {
        "code": "A228310003898",
        "type": 16013,
        "name": "照福こども園",
        "address": "朝来市山東町溝黒123-1",
        "lat": 35.289849,
        "lng": 134.874799
    },
    {
        "code": "B128210006930",
        "type": 16001,
        "name": "枚田小学校",
        "address": "朝来市和田山町和田山474",
        "lat": 35.3346,
        "lng": 134.855732
    },
    {
        "code": "B128210006949",
        "type": 16001,
        "name": "東河小学校",
        "address": "朝来市和田山町東和田505-1",
        "lat": 35.349443,
        "lng": 134.88737
    },
    {
        "code": "B128210006958",
        "type": 16001,
        "name": "大蔵小学校",
        "address": "朝来市和田山町宮田210",
        "lat": 35.357036,
        "lng": 134.826536
    },
    {
        "code": "B128210006967",
        "type": 16001,
        "name": "糸井小学校",
        "address": "朝来市和田山町高生田4-1",
        "lat": 35.36372,
        "lng": 134.850166
    },
    {
        "code": "B128210006976",
        "type": 16001,
        "name": "竹田小学校",
        "address": "朝来市和田山町安井61",
        "lat": 35.306912,
        "lng": 134.837131
    },
    {
        "code": "B128210006985",
        "type": 16001,
        "name": "梁瀬小学校",
        "address": "朝来市山東町未歳688",
        "lat": 35.315636,
        "lng": 134.882635
    },
    {
        "code": "B128210006994",
        "type": 16001,
        "name": "中川小学校",
        "address": "朝来市桑市99",
        "lat": 35.264629,
        "lng": 134.806937
    },
    {
        "code": "B128210007001",
        "type": 16001,
        "name": "山口小学校",
        "address": "朝来市羽渕565-2",
        "lat": 35.225382,
        "lng": 134.792882
    },
    {
        "code": "B128210007010",
        "type": 16001,
        "name": "生野小学校",
        "address": "朝来市生野町口銀谷546",
        "lat": 35.168514,
        "lng": 134.792215
    },
    {
        "code": "C128210003165",
        "type": 16002,
        "name": "和田山中学校",
        "address": "朝来市和田山町柳原90",
        "lat": 35.339982,
        "lng": 134.860712
    },
    {
        "code": "C128210003174",
        "type": 16002,
        "name": "梁瀬中学校",
        "address": "朝来市山東町楽音寺159",
        "lat": 35.312598,
        "lng": 134.882049
    },
    {
        "code": "C128210003183",
        "type": 16002,
        "name": "朝来中学校",
        "address": "朝来市新井92",
        "lat": 35.24588,
        "lng": 134.795799
    },
    {
        "code": "C128210003192",
        "type": 16002,
        "name": "生野中学校",
        "address": "朝来市生野町真弓10-1",
        "lat": 35.162048,
        "lng": 134.792118
    },
    {
        "code": "C128310000175",
        "type": 16002,
        "name": "生野学園中学校",
        "address": "朝来市生野町栃原字西桝渕28-2",
        "lat": 35.141849,
        "lng": 134.754118
    },
    {
        "code": "D128210000807",
        "type": 16004,
        "name": "生野高等学校",
        "address": "朝来市生野町真弓432-1",
        "lat": 35.153802,
        "lng": 134.790263
    },
    {
        "code": "D128210000816",
        "type": 16004,
        "name": "和田山高等学校",
        "address": "朝来市和田山町枚田岡字縄手376-1",
        "lat": 35.331787,
        "lng": 134.857895
    },
    {
        "code": "D128310000501",
        "type": 16004,
        "name": "生野学園高等学校",
        "address": "朝来市生野町栃原字西桝渕28-2",
        "lat": 35.141841,
        "lng": 134.753901
    },
    {
        "code": "E128210000467",
        "type": 16012,
        "name": "和田山特別支援学校",
        "address": "朝来市和田山町竹田1987-1",
        "lat": 35.294059,
        "lng": 134.840267
    }
]