[
    {
        "code": "A228310003022",
        "type": 16013,
        "name": "みどりこども園",
        "address": "多可郡多可町中区牧野52",
        "lat": 35.068571,
        "lng": 134.926544
    },
    {
        "code": "A228310003031",
        "type": 16013,
        "name": "あさかこども園",
        "address": "多可郡多可町中区安坂495",
        "lat": 35.03898,
        "lng": 134.921525
    },
    {
        "code": "A228310003040",
        "type": 16013,
        "name": "四恩こども園",
        "address": "多可郡多可町中区曽我井896-7",
        "lat": 35.031948,
        "lng": 134.935685
    },
    {
        "code": "A228310003059",
        "type": 16013,
        "name": "キッズランドかみ",
        "address": "多可郡多可町加美区的場82-1",
        "lat": 35.088197,
        "lng": 134.887084
    },
    {
        "code": "A228310003068",
        "type": 16013,
        "name": "キッズランドやちよ",
        "address": "多可郡多可町八千代区仕出原353",
        "lat": 35.01336,
        "lng": 134.912257
    },
    {
        "code": "B128210004861",
        "type": 16001,
        "name": "中町南小学校",
        "address": "多可郡多可町中区森本152-1",
        "lat": 35.042186,
        "lng": 134.927851
    },
    {
        "code": "B128210004870",
        "type": 16001,
        "name": "中町北小学校",
        "address": "多可郡多可町中区鍛冶屋434",
        "lat": 35.067921,
        "lng": 134.922578
    },
    {
        "code": "B128210004889",
        "type": 16001,
        "name": "松井小学校",
        "address": "多可郡多可町加美区熊野部835",
        "lat": 35.088187,
        "lng": 134.88928
    },
    {
        "code": "B128210004898",
        "type": 16001,
        "name": "杉原谷小学校",
        "address": "多可郡多可町加美区市原59",
        "lat": 35.136968,
        "lng": 134.924236
    },
    {
        "code": "B128210004905",
        "type": 16001,
        "name": "八千代小学校",
        "address": "多可郡多可町八千代区中野間1137",
        "lat": 34.997789,
        "lng": 134.909446
    },
    {
        "code": "C128210002255",
        "type": 16002,
        "name": "中町中学校",
        "address": "多可郡多可町中区奥中588",
        "lat": 35.052298,
        "lng": 134.920576
    },
    {
        "code": "C128210002264",
        "type": 16002,
        "name": "加美中学校",
        "address": "多可郡多可町加美区豊部300",
        "lat": 35.103377,
        "lng": 134.899337
    },
    {
        "code": "C128210002273",
        "type": 16002,
        "name": "八千代中学校",
        "address": "多可郡多可町八千代区中野間680",
        "lat": 35.004082,
        "lng": 134.908957
    },
    {
        "code": "D128210001058",
        "type": 16004,
        "name": "多可高等学校",
        "address": "多可郡多可町中区東山553",
        "lat": 35.075603,
        "lng": 134.918574
    },
    {
        "code": "E128210000458",
        "type": 16012,
        "name": "北はりま特別支援学校",
        "address": "多可郡多可町中区間子602-1",
        "lat": 35.058436,
        "lng": 134.93168
    },
    {
        "code": "H128310000557",
        "type": 16016,
        "name": "関西野球専門学校",
        "address": "多可郡多可町加美区豊部1879",
        "lat": 35.10036,
        "lng": 134.902887
    }
]