[
    {
        "code": "A228210000401",
        "type": 16013,
        "name": "田原幼児園",
        "address": "神崎郡福崎町西田原1263-4",
        "lat": 34.953954,
        "lng": 134.7616
    },
    {
        "code": "A228210000410",
        "type": 16013,
        "name": "八千種幼児園",
        "address": "神崎郡福崎町八千種276-2",
        "lat": 34.936767,
        "lng": 134.778168
    },
    {
        "code": "A228210000429",
        "type": 16013,
        "name": "福崎幼児園",
        "address": "神崎郡福崎町福崎新448-3",
        "lat": 34.954745,
        "lng": 134.74909
    },
    {
        "code": "A228210000438",
        "type": 16013,
        "name": "高岡幼児園",
        "address": "神崎郡福崎町高岡1956-33",
        "lat": 34.974566,
        "lng": 134.732114
    },
    {
        "code": "A228310003585",
        "type": 16013,
        "name": "姫学こども園",
        "address": "神崎郡福崎町南田原2062",
        "lat": 34.944713,
        "lng": 134.761411
    },
    {
        "code": "A228310003594",
        "type": 16013,
        "name": "サルビアこども園",
        "address": "神崎郡福崎町山崎617-7",
        "lat": 34.965386,
        "lng": 134.753721
    },
    {
        "code": "B128210005959",
        "type": 16001,
        "name": "福崎小学校",
        "address": "神崎郡福崎町馬田169-4",
        "lat": 34.95602,
        "lng": 134.751976
    },
    {
        "code": "B128210005968",
        "type": 16001,
        "name": "高岡小学校",
        "address": "神崎郡福崎町高岡1825-1",
        "lat": 34.974074,
        "lng": 134.731172
    },
    {
        "code": "B128210005977",
        "type": 16001,
        "name": "田原小学校",
        "address": "神崎郡福崎町西田原1274",
        "lat": 34.952882,
        "lng": 134.761808
    },
    {
        "code": "B128210005986",
        "type": 16001,
        "name": "八千種小学校",
        "address": "神崎郡福崎町八千種300",
        "lat": 34.93655,
        "lng": 134.778307
    },
    {
        "code": "C128210002763",
        "type": 16002,
        "name": "福崎西中学校",
        "address": "神崎郡福崎町福田597",
        "lat": 34.958937,
        "lng": 134.743977
    },
    {
        "code": "C128210002772",
        "type": 16002,
        "name": "福崎東中学校",
        "address": "神崎郡福崎町南田原1200-1",
        "lat": 34.940966,
        "lng": 134.770224
    },
    {
        "code": "D128210000709",
        "type": 16004,
        "name": "福崎高等学校",
        "address": "神崎郡福崎町福田234-1",
        "lat": 34.962853,
        "lng": 134.75081
    },
    {
        "code": "F128310108963",
        "type": 16007,
        "name": "神戸医療福祉大学",
        "address": "神崎郡福崎町高岡字塩田1966-5",
        "lat": 34.978646,
        "lng": 134.738612
    }
]