[
    {
        "code": "A128210002393",
        "type": 16011,
        "name": "上郡幼稚園",
        "address": "赤穂郡上郡町上郡375-1",
        "lat": 34.877227,
        "lng": 134.361797
    },
    {
        "code": "A128210002400",
        "type": 16011,
        "name": "山野里幼稚園",
        "address": "赤穂郡上郡町山野里2147",
        "lat": 34.869436,
        "lng": 134.348712
    },
    {
        "code": "A128210002419",
        "type": 16011,
        "name": "高田幼稚園",
        "address": "赤穂郡上郡町中野708-1",
        "lat": 34.858721,
        "lng": 134.389997
    },
    {
        "code": "A228310003754",
        "type": 16013,
        "name": "陽光こども園",
        "address": "赤穂郡上郡町西野山289-4",
        "lat": 34.861051,
        "lng": 134.386914
    },
    {
        "code": "B128210006182",
        "type": 16001,
        "name": "上郡小学校",
        "address": "赤穂郡上郡町上郡306",
        "lat": 34.876774,
        "lng": 134.360211
    },
    {
        "code": "B128210006191",
        "type": 16001,
        "name": "高田小学校",
        "address": "赤穂郡上郡町中野899",
        "lat": 34.859165,
        "lng": 134.391958
    },
    {
        "code": "B128210006208",
        "type": 16001,
        "name": "山野里小学校",
        "address": "赤穂郡上郡町山野里2142-1",
        "lat": 34.868719,
        "lng": 134.349129
    },
    {
        "code": "C128210000015",
        "type": 16002,
        "name": "兵庫県立大学附属中学校",
        "address": "赤穂郡上郡町光都3-11-2",
        "lat": 34.922886,
        "lng": 134.449548
    },
    {
        "code": "C128210002852",
        "type": 16002,
        "name": "上郡中学校",
        "address": "赤穂郡上郡町山野里1178-1",
        "lat": 34.861418,
        "lng": 134.345893
    },
    {
        "code": "D128210000567",
        "type": 16004,
        "name": "上郡高等学校",
        "address": "赤穂郡上郡町大持207-1",
        "lat": 34.871469,
        "lng": 134.354767
    },
    {
        "code": "D128210001290",
        "type": 16004,
        "name": "兵庫県立大学附属高等学校",
        "address": "赤穂郡上郡町光都3-11-1",
        "lat": 34.923464,
        "lng": 134.448201
    },
    {
        "code": "H128310000281",
        "type": 16016,
        "name": "平田調理専門学校",
        "address": "赤穂郡上郡町上郡31-1",
        "lat": 34.867646,
        "lng": 134.35893
    }
]