[
    {
        "code": "A129210000624",
        "type": 16011,
        "name": "御所幼稚園",
        "address": "御所市1-9",
        "lat": 34.464203,
        "lng": 135.739002
    },
    {
        "code": "A129210000642",
        "type": 16011,
        "name": "秋津幼稚園",
        "address": "御所市室484-1",
        "lat": 34.448107,
        "lng": 135.73846
    },
    {
        "code": "A129310000230",
        "type": 16011,
        "name": "葛カトリック幼稚園",
        "address": "御所市戸毛54-3",
        "lat": 34.434014,
        "lng": 135.75695
    },
    {
        "code": "B129210001033",
        "type": 16001,
        "name": "御所小学校",
        "address": "御所市610",
        "lat": 34.464071,
        "lng": 135.741286
    },
    {
        "code": "B129210001042",
        "type": 16001,
        "name": "掖上小学校",
        "address": "御所市大字東寺田55",
        "lat": 34.46054,
        "lng": 135.757066
    },
    {
        "code": "B129210001051",
        "type": 16001,
        "name": "秋津小学校",
        "address": "御所市池之内459-3",
        "lat": 34.448451,
        "lng": 135.73759
    },
    {
        "code": "B129210001060",
        "type": 16001,
        "name": "葛城小学校",
        "address": "御所市林329",
        "lat": 34.419482,
        "lng": 135.71801
    },
    {
        "code": "B129210001079",
        "type": 16001,
        "name": "名柄小学校",
        "address": "御所市名柄185",
        "lat": 34.441063,
        "lng": 135.715593
    },
    {
        "code": "B129210001088",
        "type": 16001,
        "name": "大正小学校",
        "address": "御所市大字櫛羅2198-1",
        "lat": 34.461615,
        "lng": 135.724175
    },
    {
        "code": "B129210001097",
        "type": 16001,
        "name": "葛小学校",
        "address": "御所市大字樋野270",
        "lat": 34.42201,
        "lng": 135.753673
    },
    {
        "code": "C129210000452",
        "type": 16002,
        "name": "御所中学校",
        "address": "御所市665-1",
        "lat": 34.465866,
        "lng": 135.741451
    },
    {
        "code": "C129210000461",
        "type": 16002,
        "name": "葛中学校",
        "address": "御所市樋野270",
        "lat": 34.422005,
        "lng": 135.75367
    },
    {
        "code": "C129210000470",
        "type": 16002,
        "name": "葛上中学校",
        "address": "御所市佐田1-1",
        "lat": 34.433777,
        "lng": 135.71515
    },
    {
        "code": "C129210000489",
        "type": 16002,
        "name": "大正中学校",
        "address": "御所市大字三室206-1",
        "lat": 34.461823,
        "lng": 135.727692
    },
    {
        "code": "C129210000988",
        "type": 16002,
        "name": "青翔中学校",
        "address": "御所市525",
        "lat": 34.458988,
        "lng": 135.732916
    },
    {
        "code": "D129210000076",
        "type": 16004,
        "name": "青翔高等学校",
        "address": "御所市525",
        "lat": 34.458665,
        "lng": 135.733453
    },
    {
        "code": "D129210000325",
        "type": 16004,
        "name": "御所実業高等学校",
        "address": "御所市玉手300",
        "lat": 34.454802,
        "lng": 135.74597
    },
    {
        "code": "H229310000172",
        "type": 16015,
        "name": "御所珠算学校",
        "address": "御所市中本町1231-1",
        "lat": 34.46192,
        "lng": 135.736815
    }
]