[
    {
        "code": "A129210000401",
        "type": 16011,
        "name": "畝傍南幼稚園",
        "address": "橿原市見瀬町2295",
        "lat": 34.480765,
        "lng": 135.79186
    },
    {
        "code": "A129210000410",
        "type": 16011,
        "name": "畝傍北幼稚園",
        "address": "橿原市大久保町152",
        "lat": 34.496482,
        "lng": 135.795523
    },
    {
        "code": "A129210000429",
        "type": 16011,
        "name": "晩成幼稚園",
        "address": "橿原市縄手町2",
        "lat": 34.505323,
        "lng": 135.797392
    },
    {
        "code": "A129210000438",
        "type": 16011,
        "name": "今井幼稚園",
        "address": "橿原市今井町2-11-8",
        "lat": 34.504998,
        "lng": 135.787812
    },
    {
        "code": "A129210000447",
        "type": 16011,
        "name": "真菅幼稚園",
        "address": "橿原市曽我町813",
        "lat": 34.515149,
        "lng": 135.778191
    },
    {
        "code": "A129210000456",
        "type": 16011,
        "name": "金橋幼稚園",
        "address": "橿原市雲梯町289-2",
        "lat": 34.499598,
        "lng": 135.767203
    },
    {
        "code": "A129210000465",
        "type": 16011,
        "name": "香久山幼稚園",
        "address": "橿原市膳天町90-1",
        "lat": 34.503559,
        "lng": 135.821552
    },
    {
        "code": "A129210000474",
        "type": 16011,
        "name": "鴨公幼稚園",
        "address": "橿原市縄手町324",
        "lat": 34.500149,
        "lng": 135.803254
    },
    {
        "code": "A129210000483",
        "type": 16011,
        "name": "新沢幼稚園",
        "address": "橿原市川西町581-1",
        "lat": 34.475818,
        "lng": 135.771611
    },
    {
        "code": "A129210000492",
        "type": 16011,
        "name": "耳成幼稚園",
        "address": "橿原市葛本町593",
        "lat": 34.523735,
        "lng": 135.805919
    },
    {
        "code": "A129210000508",
        "type": 16011,
        "name": "真菅北幼稚園",
        "address": "橿原市大垣町227",
        "lat": 34.529411,
        "lng": 135.779282
    },
    {
        "code": "A129210000517",
        "type": 16011,
        "name": "耳成南幼稚園",
        "address": "橿原市山之坊町109-5",
        "lat": 34.517938,
        "lng": 135.808841
    },
    {
        "code": "A129210000526",
        "type": 16011,
        "name": "畝傍東幼稚園",
        "address": "橿原市大軽町283",
        "lat": 34.478504,
        "lng": 135.800953
    },
    {
        "code": "A129210000535",
        "type": 16011,
        "name": "白橿幼稚園",
        "address": "橿原市白橿町3-10-1",
        "lat": 34.479934,
        "lng": 135.784852
    },
    {
        "code": "A129210000544",
        "type": 16011,
        "name": "耳成西幼稚園",
        "address": "橿原市上品寺町482-1",
        "lat": 34.52154,
        "lng": 135.788429
    },
    {
        "code": "A129310000070",
        "type": 16011,
        "name": "聖心幼稚園",
        "address": "橿原市久米町222",
        "lat": 34.483607,
        "lng": 135.786063
    },
    {
        "code": "A129310000132",
        "type": 16011,
        "name": "常盤幼稚園",
        "address": "橿原市常盤町332-5",
        "lat": 34.519496,
        "lng": 135.813864
    },
    {
        "code": "A129310000294",
        "type": 16011,
        "name": "のぞみ幼稚園",
        "address": "橿原市新賀町310",
        "lat": 34.515563,
        "lng": 135.797503
    },
    {
        "code": "A129310000329",
        "type": 16011,
        "name": "くちなし幼稚園",
        "address": "橿原市葛本町90",
        "lat": 34.527565,
        "lng": 135.805247
    },
    {
        "code": "A229310000202",
        "type": 16013,
        "name": "橿原保育園",
        "address": "橿原市白橿町6-7-15",
        "lat": 34.473728,
        "lng": 135.791101
    },
    {
        "code": "B129210000702",
        "type": 16001,
        "name": "畝傍南小学校",
        "address": "橿原市見瀬町164",
        "lat": 34.480532,
        "lng": 135.793195
    },
    {
        "code": "B129210000711",
        "type": 16001,
        "name": "畝傍北小学校",
        "address": "橿原市大久保町156",
        "lat": 34.496891,
        "lng": 135.794834
    },
    {
        "code": "B129210000720",
        "type": 16001,
        "name": "鴨公小学校",
        "address": "橿原市縄手町324",
        "lat": 34.500946,
        "lng": 135.80375
    },
    {
        "code": "B129210000739",
        "type": 16001,
        "name": "晩成小学校",
        "address": "橿原市小房町1-54",
        "lat": 34.505449,
        "lng": 135.796776
    },
    {
        "code": "B129210000748",
        "type": 16001,
        "name": "今井小学校",
        "address": "橿原市今井町3-4-46",
        "lat": 34.505145,
        "lng": 135.786377
    },
    {
        "code": "B129210000757",
        "type": 16001,
        "name": "真菅小学校",
        "address": "橿原市曽我町710",
        "lat": 34.514249,
        "lng": 135.778252
    },
    {
        "code": "B129210000766",
        "type": 16001,
        "name": "耳成小学校",
        "address": "橿原市葛本町625",
        "lat": 34.522443,
        "lng": 135.806221
    },
    {
        "code": "B129210000775",
        "type": 16001,
        "name": "金橋小学校",
        "address": "橿原市雲梯町216-1",
        "lat": 34.500084,
        "lng": 135.766559
    },
    {
        "code": "B129210000784",
        "type": 16001,
        "name": "香久山小学校",
        "address": "橿原市膳夫町98-1",
        "lat": 34.504168,
        "lng": 135.821165
    },
    {
        "code": "B129210000793",
        "type": 16001,
        "name": "新沢小学校",
        "address": "橿原市一町1296",
        "lat": 34.474976,
        "lng": 135.770475
    },
    {
        "code": "B129210000800",
        "type": 16001,
        "name": "白橿南小学校",
        "address": "橿原市白橿町8-19-1",
        "lat": 34.469906,
        "lng": 135.790772
    },
    {
        "code": "B129210000819",
        "type": 16001,
        "name": "耳成南小学校",
        "address": "橿原市常盤町3",
        "lat": 34.518388,
        "lng": 135.80911
    },
    {
        "code": "B129210000828",
        "type": 16001,
        "name": "真菅北小学校",
        "address": "橿原市大垣町220-1",
        "lat": 34.52847,
        "lng": 135.779418
    },
    {
        "code": "B129210000837",
        "type": 16001,
        "name": "畝傍東小学校",
        "address": "橿原市大軽町283",
        "lat": 34.479421,
        "lng": 135.80125
    },
    {
        "code": "B129210000846",
        "type": 16001,
        "name": "白橿北小学校",
        "address": "橿原市白橿町3-10-2",
        "lat": 34.479193,
        "lng": 135.785596
    },
    {
        "code": "B129210000855",
        "type": 16001,
        "name": "耳成西小学校",
        "address": "橿原市上品寺町455-1",
        "lat": 34.521748,
        "lng": 135.789084
    },
    {
        "code": "C129210000327",
        "type": 16002,
        "name": "畝傍中学校",
        "address": "橿原市石川町204",
        "lat": 34.484365,
        "lng": 135.801417
    },
    {
        "code": "C129210000336",
        "type": 16002,
        "name": "八木中学校",
        "address": "橿原市新賀町33",
        "lat": 34.519443,
        "lng": 135.805333
    },
    {
        "code": "C129210000345",
        "type": 16002,
        "name": "大成中学校",
        "address": "橿原市小綱町77-2",
        "lat": 34.509889,
        "lng": 135.783223
    },
    {
        "code": "C129210000354",
        "type": 16002,
        "name": "光陽中学校",
        "address": "橿原市古川町20",
        "lat": 34.488169,
        "lng": 135.771669
    },
    {
        "code": "C129210000363",
        "type": 16002,
        "name": "橿原中学校",
        "address": "橿原市西新堂町26-1",
        "lat": 34.529747,
        "lng": 135.787418
    },
    {
        "code": "C129210000372",
        "type": 16002,
        "name": "白橿中学校",
        "address": "橿原市白橿町8-12-1",
        "lat": 34.468821,
        "lng": 135.79253
    },
    {
        "code": "D129210000101",
        "type": 16004,
        "name": "橿原高等学校",
        "address": "橿原市北越智町282",
        "lat": 34.476282,
        "lng": 135.776975
    },
    {
        "code": "D129210000254",
        "type": 16004,
        "name": "畝傍高等学校",
        "address": "橿原市八木町3-13-2",
        "lat": 34.509445,
        "lng": 135.799861
    },
    {
        "code": "D129310000056",
        "type": 16004,
        "name": "橿原学院高等学校",
        "address": "橿原市久米町222",
        "lat": 34.484311,
        "lng": 135.786249
    },
    {
        "code": "D229310000019",
        "type": 16003,
        "name": "聖心学園中等教育学校",
        "address": "橿原市久米町222",
        "lat": 34.48375,
        "lng": 135.785157
    },
    {
        "code": "F129210109231",
        "type": 16007,
        "name": "奈良県立医科大学",
        "address": "橿原市四条町840",
        "lat": 34.503917,
        "lng": 135.792889
    },
    {
        "code": "F229310109318",
        "type": 16006,
        "name": "奈良芸術短期大学",
        "address": "橿原市久米町222",
        "lat": 34.484281,
        "lng": 135.786251
    },
    {
        "code": "H129310000244",
        "type": 16016,
        "name": "奈良県医師会看護専門学校",
        "address": "橿原市内膳町5-5-8",
        "lat": 34.516724,
        "lng": 135.79382
    },
    {
        "code": "H129310000262",
        "type": 16016,
        "name": "橿原美容専門学校",
        "address": "橿原市曽我町915-1",
        "lat": 34.519579,
        "lng": 135.775992
    },
    {
        "code": "H129310000271",
        "type": 16016,
        "name": "奈良県病院協会看護専門学校",
        "address": "橿原市大久保町454-10",
        "lat": 34.493458,
        "lng": 135.795106
    },
    {
        "code": "H229310000010",
        "type": 16015,
        "name": "八木服装女学院",
        "address": "橿原市地黄町48",
        "lat": 34.509295,
        "lng": 135.795268
    },
    {
        "code": "H229310000029",
        "type": 16015,
        "name": "奈良朝鮮初中級学校",
        "address": "橿原市法花寺町79",
        "lat": 34.510203,
        "lng": 135.813682
    },
    {
        "code": "H229310000145",
        "type": 16015,
        "name": "橿原女学院",
        "address": "橿原市久米町874",
        "lat": 34.485461,
        "lng": 135.792862
    },
    {
        "code": "H229310000154",
        "type": 16015,
        "name": "大成珠算学校",
        "address": "橿原市内膳町2-6-8",
        "lat": 34.510818,
        "lng": 135.789267
    }
]