[
    {
        "code": "A129210000937",
        "type": 16011,
        "name": "五位堂幼稚園",
        "address": "香芝市五位堂2-345-1",
        "lat": 34.532401,
        "lng": 135.714516
    },
    {
        "code": "A129210000946",
        "type": 16011,
        "name": "二上幼稚園",
        "address": "香芝市畑4-608",
        "lat": 34.541419,
        "lng": 135.688251
    },
    {
        "code": "A129210000955",
        "type": 16011,
        "name": "志都美幼稚園",
        "address": "香芝市今泉78",
        "lat": 34.568369,
        "lng": 135.700466
    },
    {
        "code": "A129210000964",
        "type": 16011,
        "name": "関屋幼稚園",
        "address": "香芝市関屋北5-6-4",
        "lat": 34.560992,
        "lng": 135.666603
    },
    {
        "code": "A129210000973",
        "type": 16011,
        "name": "三和幼稚園",
        "address": "香芝市良福寺666",
        "lat": 34.529868,
        "lng": 135.704478
    },
    {
        "code": "A129210000982",
        "type": 16011,
        "name": "真美ヶ丘東幼稚園",
        "address": "香芝市真美ヶ丘3-3-24",
        "lat": 34.538301,
        "lng": 135.723601
    },
    {
        "code": "A129210000991",
        "type": 16011,
        "name": "旭ヶ丘幼稚園",
        "address": "香芝市旭ｹ丘3-11-1",
        "lat": 34.556009,
        "lng": 135.693995
    },
    {
        "code": "A129310000365",
        "type": 16011,
        "name": "ハルナ幼稚園",
        "address": "香芝市上中1176-1",
        "lat": 34.555237,
        "lng": 135.681954
    },
    {
        "code": "A229210000240",
        "type": 16013,
        "name": "鎌田幼稚園",
        "address": "香芝市鎌田364-1",
        "lat": 34.523694,
        "lng": 135.707136
    },
    {
        "code": "A229210000259",
        "type": 16013,
        "name": "下田幼稚園",
        "address": "香芝市下田西2-9-23",
        "lat": 34.544771,
        "lng": 135.701139
    },
    {
        "code": "A229310000328",
        "type": 16013,
        "name": "せいか幼稚園",
        "address": "香芝市逢坂4-958",
        "lat": 34.548024,
        "lng": 135.695803
    },
    {
        "code": "A229310000337",
        "type": 16013,
        "name": "あけぼの・幼保学院",
        "address": "香芝市関屋北5-8-3",
        "lat": 34.561276,
        "lng": 135.66836
    },
    {
        "code": "A229310000346",
        "type": 16013,
        "name": "関屋こども園",
        "address": "香芝市関屋396",
        "lat": 34.555639,
        "lng": 135.673374
    },
    {
        "code": "A229310000355",
        "type": 16013,
        "name": "志都美こども園",
        "address": "香芝市今泉382",
        "lat": 34.566591,
        "lng": 135.70025
    },
    {
        "code": "A229310000364",
        "type": 16013,
        "name": "せいか保育園",
        "address": "香芝市北今市5-508-1",
        "lat": 34.547813,
        "lng": 135.696622
    },
    {
        "code": "A229310000373",
        "type": 16013,
        "name": "旭ヶ丘せいか保育園",
        "address": "香芝市旭ヶ丘1-12-2",
        "lat": 34.554504,
        "lng": 135.697806
    },
    {
        "code": "A229310000382",
        "type": 16013,
        "name": "ふたかみの森せいか子ども園",
        "address": "香芝市畑2-1590-1",
        "lat": 34.538314,
        "lng": 135.691514
    },
    {
        "code": "B129210001550",
        "type": 16001,
        "name": "五位堂小学校",
        "address": "香芝市五位堂2-300-1",
        "lat": 34.532329,
        "lng": 135.715202
    },
    {
        "code": "B129210001569",
        "type": 16001,
        "name": "下田小学校",
        "address": "香芝市下田西2-9-41",
        "lat": 34.545549,
        "lng": 135.701092
    },
    {
        "code": "B129210001578",
        "type": 16001,
        "name": "二上小学校",
        "address": "香芝市畑4-573",
        "lat": 34.54005,
        "lng": 135.687593
    },
    {
        "code": "B129210001587",
        "type": 16001,
        "name": "関屋小学校",
        "address": "香芝市関屋北5-7-1",
        "lat": 34.560686,
        "lng": 135.667289
    },
    {
        "code": "B129210001596",
        "type": 16001,
        "name": "志都美小学校",
        "address": "香芝市今泉104-1",
        "lat": 34.567491,
        "lng": 135.700035
    },
    {
        "code": "B129210001603",
        "type": 16001,
        "name": "三和小学校",
        "address": "香芝市良福寺665-2",
        "lat": 34.530274,
        "lng": 135.705286
    },
    {
        "code": "B129210001612",
        "type": 16001,
        "name": "鎌田小学校",
        "address": "香芝市鎌田370",
        "lat": 34.524913,
        "lng": 135.706564
    },
    {
        "code": "B129210001621",
        "type": 16001,
        "name": "真美ヶ丘東小学校",
        "address": "香芝市真美ヶ丘3-2-70",
        "lat": 34.539439,
        "lng": 135.72284
    },
    {
        "code": "B129210001630",
        "type": 16001,
        "name": "真美ヶ丘西小学校",
        "address": "香芝市真美ｹ丘5-4-20",
        "lat": 34.546522,
        "lng": 135.720395
    },
    {
        "code": "B129210001649",
        "type": 16001,
        "name": "旭ヶ丘小学校",
        "address": "香芝市旭ｹ丘3-1-3",
        "lat": 34.555881,
        "lng": 135.695147
    },
    {
        "code": "B129310000041",
        "type": 16001,
        "name": "智辯学園奈良カレッジ小学部",
        "address": "香芝市田尻265",
        "lat": 34.551168,
        "lng": 135.658468
    },
    {
        "code": "C129210000773",
        "type": 16002,
        "name": "香芝中学校",
        "address": "香芝市磯壁1-1058-2",
        "lat": 34.538661,
        "lng": 135.698703
    },
    {
        "code": "C129210000782",
        "type": 16002,
        "name": "香芝西中学校",
        "address": "香芝市穴虫3096-2",
        "lat": 34.549021,
        "lng": 135.673677
    },
    {
        "code": "C129210000791",
        "type": 16002,
        "name": "香芝東中学校",
        "address": "香芝市真美ヶ丘2-12-27",
        "lat": 34.539439,
        "lng": 135.720201
    },
    {
        "code": "C129210000808",
        "type": 16002,
        "name": "香芝北中学校",
        "address": "香芝市旭ヶ丘4-14",
        "lat": 34.554159,
        "lng": 135.691064
    },
    {
        "code": "C129310000101",
        "type": 16002,
        "name": "智辯学園奈良カレッジ中学部",
        "address": "香芝市田尻265",
        "lat": 34.551138,
        "lng": 135.658479
    },
    {
        "code": "D129210000156",
        "type": 16004,
        "name": "香芝高等学校",
        "address": "香芝市真美ヶ丘5-1-53",
        "lat": 34.545078,
        "lng": 135.719396
    },
    {
        "code": "D129310000154",
        "type": 16004,
        "name": "智辯学園奈良カレッジ高等部",
        "address": "香芝市田尻265",
        "lat": 34.551144,
        "lng": 135.658507
    },
    {
        "code": "H229310000216",
        "type": 16015,
        "name": "二上珠算学校",
        "address": "香芝市畑4-564-1",
        "lat": 34.541522,
        "lng": 135.687409
    },
    {
        "code": "H229310000225",
        "type": 16015,
        "name": "香芝自動車学校",
        "address": "香芝市別所88-1",
        "lat": 34.530938,
        "lng": 135.727145
    },
    {
        "code": "H229310000261",
        "type": 16015,
        "name": "葛城自動車学校",
        "address": "香芝市瓦口2226",
        "lat": 34.535902,
        "lng": 135.716486
    }
]