[
    {
        "code": "A129210000740",
        "type": 16011,
        "name": "斑鳩幼稚園",
        "address": "生駒郡斑鳩町法隆寺南1-13-15",
        "lat": 34.607123,
        "lng": 135.73246
    },
    {
        "code": "A129210000759",
        "type": 16011,
        "name": "斑鳩西幼稚園",
        "address": "生駒郡斑鳩町神南2-4-31",
        "lat": 34.598004,
        "lng": 135.720136
    },
    {
        "code": "A129210000768",
        "type": 16011,
        "name": "斑鳩東幼稚園",
        "address": "生駒郡斑鳩町興留東1-1-16",
        "lat": 34.609176,
        "lng": 135.741387
    },
    {
        "code": "A129310000089",
        "type": 16011,
        "name": "斑鳩学苑法隆寺幼稚園",
        "address": "生駒郡斑鳩町法隆寺2-9-35",
        "lat": 34.612087,
        "lng": 135.738011
    },
    {
        "code": "B129210001300",
        "type": 16001,
        "name": "斑鳩小学校",
        "address": "生駒郡斑鳩町法隆寺南1-13-46",
        "lat": 34.607876,
        "lng": 135.731726
    },
    {
        "code": "B129210001319",
        "type": 16001,
        "name": "斑鳩西小学校",
        "address": "生駒郡斑鳩町神南2-4-25",
        "lat": 34.597654,
        "lng": 135.718894
    },
    {
        "code": "B129210001328",
        "type": 16001,
        "name": "斑鳩東小学校",
        "address": "生駒郡斑鳩町法隆寺南2-11-5",
        "lat": 34.61007,
        "lng": 135.744031
    },
    {
        "code": "C129210000620",
        "type": 16002,
        "name": "斑鳩中学校",
        "address": "生駒郡斑鳩町龍田北1-20-1",
        "lat": 34.613069,
        "lng": 135.72556
    },
    {
        "code": "C129210000639",
        "type": 16002,
        "name": "斑鳩南中学校",
        "address": "生駒郡斑鳩町目安北3-1-77",
        "lat": 34.596405,
        "lng": 135.735282
    },
    {
        "code": "D129210000272",
        "type": 16004,
        "name": "法隆寺国際高等学校",
        "address": "生駒郡斑鳩町高安2-1-1",
        "lat": 34.609793,
        "lng": 135.748919
    }
]