[
    {
        "code": "A129210000777",
        "type": 16011,
        "name": "川西幼稚園",
        "address": "磯城郡川西町結崎30-5",
        "lat": 34.585272,
        "lng": 135.774468
    },
    {
        "code": "A229310000391",
        "type": 16013,
        "name": "川西こども園",
        "address": "磯城郡川西町大字結崎1201-1",
        "lat": 34.591165,
        "lng": 135.77629
    },
    {
        "code": "B129210001346",
        "type": 16001,
        "name": "川西小学校",
        "address": "磯城郡川西町結崎255",
        "lat": 34.584639,
        "lng": 135.776784
    },
    {
        "code": "C129210000657",
        "type": 16002,
        "name": "式下中学校",
        "address": "磯城郡川西町結崎1866",
        "lat": 34.580297,
        "lng": 135.771113
    },
    {
        "code": "H229310000181",
        "type": 16015,
        "name": "川西珠算学校",
        "address": "磯城郡川西町結崎93",
        "lat": 34.583532,
        "lng": 135.773096
    }
]