[
    {
        "code": "A129210001008",
        "type": 16011,
        "name": "上牧幼稚園",
        "address": "北葛城郡上牧町桜ヶ丘3-34",
        "lat": 34.574609,
        "lng": 135.720555
    },
    {
        "code": "A129310000150",
        "type": 16011,
        "name": "片岡台幼稚園",
        "address": "北葛城郡上牧町片岡台1-9",
        "lat": 34.580003,
        "lng": 135.715004
    },
    {
        "code": "B129210001658",
        "type": 16001,
        "name": "上牧小学校",
        "address": "北葛城郡上牧町上牧1866",
        "lat": 34.561353,
        "lng": 135.717173
    },
    {
        "code": "B129210001667",
        "type": 16001,
        "name": "上牧第二小学校",
        "address": "北葛城郡上牧町片岡台3-2",
        "lat": 34.575352,
        "lng": 135.715617
    },
    {
        "code": "B129210001676",
        "type": 16001,
        "name": "上牧第三小学校",
        "address": "北葛城郡上牧町上牧3100",
        "lat": 34.570658,
        "lng": 135.721534
    },
    {
        "code": "C129210000817",
        "type": 16002,
        "name": "上牧中学校",
        "address": "北葛城郡上牧町上牧3349",
        "lat": 34.561575,
        "lng": 135.715396
    },
    {
        "code": "C129210000826",
        "type": 16002,
        "name": "上牧第二中学校",
        "address": "北葛城郡上牧町下牧35",
        "lat": 34.570991,
        "lng": 135.706924
    },
    {
        "code": "E129210000091",
        "type": 16012,
        "name": "西和養護学校",
        "address": "北葛城郡上牧町下牧1010",
        "lat": 34.572714,
        "lng": 135.72153
    }
]