[
    {
        "code": "A129210001044",
        "type": 16011,
        "name": "広陵西幼稚園",
        "address": "北葛城郡広陵町大字三吉24",
        "lat": 34.548511,
        "lng": 135.741544
    },
    {
        "code": "A129210001053",
        "type": 16011,
        "name": "広陵西第二幼稚園",
        "address": "北葛城郡広陵町平尾512",
        "lat": 34.54047,
        "lng": 135.736686
    },
    {
        "code": "A129210001062",
        "type": 16011,
        "name": "広陵東小学校附属幼稚園",
        "address": "北葛城郡広陵町大字百済1831-1",
        "lat": 34.546412,
        "lng": 135.75751
    },
    {
        "code": "A129210001071",
        "type": 16011,
        "name": "真美ヶ丘第一小学校附属幼稚園",
        "address": "北葛城郡広陵町馬見南2-1-30",
        "lat": 34.539787,
        "lng": 135.731005
    },
    {
        "code": "A129210001080",
        "type": 16011,
        "name": "真美ヶ丘第二小学校附属幼稚園",
        "address": "北葛城郡広陵町馬見北7-1-32",
        "lat": 34.551913,
        "lng": 135.724476
    },
    {
        "code": "A229210000339",
        "type": 16013,
        "name": "広陵北かぐやこども園",
        "address": "北葛城郡広陵町大字弁財天297-2",
        "lat": 34.563578,
        "lng": 135.74884
    },
    {
        "code": "B129210001710",
        "type": 16001,
        "name": "広陵東小学校",
        "address": "北葛城郡広陵町百済1625-1",
        "lat": 34.545884,
        "lng": 135.757365
    },
    {
        "code": "B129210001729",
        "type": 16001,
        "name": "広陵西小学校",
        "address": "北葛城郡広陵町平尾542",
        "lat": 34.541162,
        "lng": 135.73595
    },
    {
        "code": "B129210001738",
        "type": 16001,
        "name": "広陵北小学校",
        "address": "北葛城郡広陵町弁財天303",
        "lat": 34.563715,
        "lng": 135.749254
    },
    {
        "code": "B129210001747",
        "type": 16001,
        "name": "真美ヶ丘第一小学校",
        "address": "北葛城郡広陵町馬見南2-1-30",
        "lat": 34.539634,
        "lng": 135.732256
    },
    {
        "code": "B129210001756",
        "type": 16001,
        "name": "真美ヶ丘第二小学校",
        "address": "北葛城郡広陵町馬見北7-1-32",
        "lat": 34.551382,
        "lng": 135.723701
    },
    {
        "code": "C129210000853",
        "type": 16002,
        "name": "広陵中学校",
        "address": "北葛城郡広陵町笠355",
        "lat": 34.551577,
        "lng": 135.747977
    },
    {
        "code": "C129210000862",
        "type": 16002,
        "name": "真美ヶ丘中学校",
        "address": "北葛城郡広陵町馬見中2-17-32",
        "lat": 34.548883,
        "lng": 135.7277
    },
    {
        "code": "D129210000307",
        "type": 16004,
        "name": "大和広陵高等学校",
        "address": "北葛城郡広陵町的場401",
        "lat": 34.56777,
        "lng": 135.759225
    },
    {
        "code": "F129310109293",
        "type": 16007,
        "name": "畿央大学",
        "address": "北葛城郡広陵町馬見中4-2-2",
        "lat": 34.546892,
        "lng": 135.723345
    }
]