[
    {
        "code": "A229210000348",
        "type": 16013,
        "name": "かがやきの森こども園",
        "address": "北葛城郡河合町大字山坊85",
        "lat": 34.574558,
        "lng": 135.737941
    },
    {
        "code": "B129210001765",
        "type": 16001,
        "name": "河合第一小学校",
        "address": "北葛城郡河合町池部1-15-10",
        "lat": 34.580048,
        "lng": 135.735404
    },
    {
        "code": "B129210001774",
        "type": 16001,
        "name": "河合第二小学校",
        "address": "北葛城郡河合町星和台2-7",
        "lat": 34.584223,
        "lng": 135.71568
    },
    {
        "code": "C129210000871",
        "type": 16002,
        "name": "河合第一中学校",
        "address": "北葛城郡河合町池部1-13-1",
        "lat": 34.580178,
        "lng": 135.737259
    },
    {
        "code": "C129210000880",
        "type": 16002,
        "name": "河合第二中学校",
        "address": "北葛城郡河合町星和台2-7-2",
        "lat": 34.583045,
        "lng": 135.715423
    },
    {
        "code": "C129310000094",
        "type": 16002,
        "name": "西大和学園中学校",
        "address": "北葛城郡河合町大字薬井295",
        "lat": 34.58791,
        "lng": 135.713878
    },
    {
        "code": "D129310000136",
        "type": 16004,
        "name": "西大和学園高等学校",
        "address": "北葛城郡河合町大字薬井295",
        "lat": 34.587878,
        "lng": 135.713867
    }
]