[
    {
        "code": "A130310000157",
        "type": 16011,
        "name": "初島幼稚園",
        "address": "有田市初島町浜1769-1",
        "lat": 34.100804,
        "lng": 135.114421
    },
    {
        "code": "A130310000255",
        "type": 16011,
        "name": "ぶっとく幼稚園",
        "address": "有田市箕島341",
        "lat": 34.086247,
        "lng": 135.119119
    },
    {
        "code": "B130210000745",
        "type": 16001,
        "name": "箕島小学校",
        "address": "有田市箕島155",
        "lat": 34.084595,
        "lng": 135.122957
    },
    {
        "code": "B130210000754",
        "type": 16001,
        "name": "田鶴小学校",
        "address": "有田市宮崎町2131",
        "lat": 34.077179,
        "lng": 135.097294
    },
    {
        "code": "B130210000763",
        "type": 16001,
        "name": "保田小学校",
        "address": "有田市辻堂474",
        "lat": 34.078235,
        "lng": 135.145844
    },
    {
        "code": "B130210000772",
        "type": 16001,
        "name": "宮原小学校",
        "address": "有田市宮原町滝川原1",
        "lat": 34.08043,
        "lng": 135.172952
    },
    {
        "code": "B130210000781",
        "type": 16001,
        "name": "糸我小学校",
        "address": "有田市糸我町中番330",
        "lat": 34.067488,
        "lng": 135.177063
    },
    {
        "code": "B130210000790",
        "type": 16001,
        "name": "初島小学校",
        "address": "有田市初島町里1242",
        "lat": 34.099176,
        "lng": 135.118318
    },
    {
        "code": "B130210000807",
        "type": 16001,
        "name": "港小学校",
        "address": "有田市港町261",
        "lat": 34.091011,
        "lng": 135.109681
    },
    {
        "code": "C130210000262",
        "type": 16002,
        "name": "箕島中学校",
        "address": "有田市箕島79",
        "lat": 34.083762,
        "lng": 135.125429
    },
    {
        "code": "C130210000271",
        "type": 16002,
        "name": "保田中学校",
        "address": "有田市辻堂468",
        "lat": 34.077624,
        "lng": 135.147066
    },
    {
        "code": "C130210000280",
        "type": 16002,
        "name": "文成中学校",
        "address": "有田市宮原町新町1",
        "lat": 34.07943,
        "lng": 135.172619
    },
    {
        "code": "C130210000299",
        "type": 16002,
        "name": "初島中学校",
        "address": "有田市初島町里1350-1",
        "lat": 34.100287,
        "lng": 135.122401
    },
    {
        "code": "D130210000153",
        "type": 16004,
        "name": "箕島高等学校",
        "address": "有田市箕島55",
        "lat": 34.083512,
        "lng": 135.129262
    }
]