[
    {
        "code": "A130210000266",
        "type": 16011,
        "name": "丹鶴幼稚園",
        "address": "新宮市新宮451-22",
        "lat": 33.726979,
        "lng": 135.989813
    },
    {
        "code": "A230310000370",
        "type": 16013,
        "name": "木の川認定こども園",
        "address": "新宮市木ﾉ川380-1",
        "lat": 33.682345,
        "lng": 135.962248
    },
    {
        "code": "B130210001030",
        "type": 16001,
        "name": "三輪崎小学校",
        "address": "新宮市三輪崎3-6-7",
        "lat": 33.68496,
        "lng": 135.980912
    },
    {
        "code": "B130210001049",
        "type": 16001,
        "name": "高田小学校",
        "address": "新宮市高田3465-1",
        "lat": 33.734453,
        "lng": 135.910389
    },
    {
        "code": "B130210001058",
        "type": 16001,
        "name": "神倉小学校",
        "address": "新宮市千穂1-2-40",
        "lat": 33.725344,
        "lng": 135.985161
    },
    {
        "code": "B130210002379",
        "type": 16001,
        "name": "熊野川小学校",
        "address": "新宮市熊野川町日足570",
        "lat": 33.801929,
        "lng": 135.873097
    },
    {
        "code": "B130210002440",
        "type": 16001,
        "name": "王子ヶ浜小学校",
        "address": "新宮市田鶴原町2-10-1",
        "lat": 33.718872,
        "lng": 135.999215
    },
    {
        "code": "C130210000431",
        "type": 16002,
        "name": "緑丘中学校",
        "address": "新宮市緑ヶ丘2-1-15",
        "lat": 33.720344,
        "lng": 135.990188
    },
    {
        "code": "C130210000440",
        "type": 16002,
        "name": "城南中学校",
        "address": "新宮市清水元1-5-44",
        "lat": 33.718316,
        "lng": 135.997687
    },
    {
        "code": "C130210000459",
        "type": 16002,
        "name": "光洋中学校",
        "address": "新宮市三輪崎1199-2",
        "lat": 33.688404,
        "lng": 135.977412
    },
    {
        "code": "C130210000468",
        "type": 16002,
        "name": "高田中学校",
        "address": "新宮市高田3465-1",
        "lat": 33.734425,
        "lng": 135.910001
    },
    {
        "code": "C130210001056",
        "type": 16002,
        "name": "熊野川中学校",
        "address": "新宮市熊野川町日足646",
        "lat": 33.799715,
        "lng": 135.87129
    },
    {
        "code": "C130310000046",
        "type": 16002,
        "name": "近畿大学附属新宮中学校",
        "address": "新宮市新宮4966",
        "lat": 33.715765,
        "lng": 135.997906
    },
    {
        "code": "D130210000288",
        "type": 16004,
        "name": "新宮高等学校",
        "address": "新宮市神倉3-2-39",
        "lat": 33.719761,
        "lng": 135.98555
    },
    {
        "code": "D130210000297",
        "type": 16004,
        "name": "新翔高等学校",
        "address": "新宮市佐野1005",
        "lat": 33.685571,
        "lng": 135.970829
    },
    {
        "code": "D130310000044",
        "type": 16004,
        "name": "近畿大学附属新宮高等学校",
        "address": "新宮市新宮4966",
        "lat": 33.715733,
        "lng": 135.99791
    },
    {
        "code": "E130210000089",
        "type": 16012,
        "name": "みくまの支援学校",
        "address": "新宮市蜂伏13-26",
        "lat": 33.685098,
        "lng": 135.960664
    },
    {
        "code": "H130210000038",
        "type": 16016,
        "name": "なぎ看護学校",
        "address": "新宮市蜂伏20-39",
        "lat": 33.687248,
        "lng": 135.963222
    },
    {
        "code": "H230310000188",
        "type": 16015,
        "name": "新宮市医師会准看護学院",
        "address": "新宮市伊佐田町1-2-12",
        "lat": 33.728295,
        "lng": 135.993689
    },
    {
        "code": "H230310000204",
        "type": 16015,
        "name": "新宮料理学院",
        "address": "新宮市千穂1-1-48",
        "lat": 33.725187,
        "lng": 135.986398
    },
    {
        "code": "H230310000213",
        "type": 16015,
        "name": "萩原きもの総合学院",
        "address": "新宮市井の沢5-16",
        "lat": 33.723158,
        "lng": 135.990814
    }
]