[
    {
        "code": "A230210000023",
        "type": 16013,
        "name": "ひまわりこども園",
        "address": "日高郡美浜町吉原602-1",
        "lat": 33.893625,
        "lng": 135.139187
    },
    {
        "code": "B130210001717",
        "type": 16001,
        "name": "松原小学校",
        "address": "日高郡美浜町吉原774-5",
        "lat": 33.889019,
        "lng": 135.144258
    },
    {
        "code": "B130210001726",
        "type": 16001,
        "name": "和田小学校",
        "address": "日高郡美浜町和田1138-176",
        "lat": 33.895285,
        "lng": 135.13157
    },
    {
        "code": "C130210000752",
        "type": 16002,
        "name": "松洋中学校",
        "address": "日高郡美浜町吉原958",
        "lat": 33.89048,
        "lng": 135.137542
    },
    {
        "code": "E130210000061",
        "type": 16012,
        "name": "みはま支援学校",
        "address": "日高郡美浜町和田字松原1138-259",
        "lat": 33.892286,
        "lng": 135.13307
    }
]