[
    {
        "code": "A130210000364",
        "type": 16011,
        "name": "南部幼稚園",
        "address": "日高郡みなべ町芝503",
        "lat": 33.765798,
        "lng": 135.322138
    },
    {
        "code": "A130310000264",
        "type": 16011,
        "name": "白梅幼稚園",
        "address": "日高郡みなべ町晩稲438-1",
        "lat": 33.786902,
        "lng": 135.339502
    },
    {
        "code": "B130210001897",
        "type": 16001,
        "name": "清川小学校",
        "address": "日高郡みなべ町清川2340",
        "lat": 33.84971,
        "lng": 135.399881
    },
    {
        "code": "B130210001904",
        "type": 16001,
        "name": "上南部小学校",
        "address": "日高郡みなべ町谷口549",
        "lat": 33.791494,
        "lng": 135.328
    },
    {
        "code": "B130210001913",
        "type": 16001,
        "name": "南部小学校",
        "address": "日高郡みなべ町北道289",
        "lat": 33.766608,
        "lng": 135.32164
    },
    {
        "code": "B130210001922",
        "type": 16001,
        "name": "岩代小学校",
        "address": "日高郡みなべ町西岩代2162",
        "lat": 33.781717,
        "lng": 135.281393
    },
    {
        "code": "B130210001986",
        "type": 16001,
        "name": "高城小学校",
        "address": "日高郡みなべ町土井431",
        "lat": 33.853098,
        "lng": 135.350886
    },
    {
        "code": "C130210000805",
        "type": 16002,
        "name": "高城中学校",
        "address": "日高郡みなべ町滝81",
        "lat": 33.841183,
        "lng": 135.350053
    },
    {
        "code": "C130210000814",
        "type": 16002,
        "name": "上南部中学校",
        "address": "日高郡みなべ町東本庄91",
        "lat": 33.791939,
        "lng": 135.331472
    },
    {
        "code": "C130210000823",
        "type": 16002,
        "name": "南部中学校",
        "address": "日高郡みなべ町芝510",
        "lat": 33.764469,
        "lng": 135.322362
    },
    {
        "code": "D130210000224",
        "type": 16004,
        "name": "南部高等学校",
        "address": "日高郡みなべ町芝407",
        "lat": 33.764969,
        "lng": 135.325445
    },
    {
        "code": "H230310000240",
        "type": 16015,
        "name": "南部珠算学校",
        "address": "日高郡みなべ町芝729",
        "lat": 33.771164,
        "lng": 135.321846
    },
    {
        "code": "H230310000259",
        "type": 16015,
        "name": "みなべ自動車学校",
        "address": "日高郡みなべ町芝519",
        "lat": 33.768619,
        "lng": 135.324109
    }
]