[
    {
        "code": "A130210000373",
        "type": 16011,
        "name": "白浜第一幼稚園",
        "address": "西牟婁郡白浜町190",
        "lat": 33.690351,
        "lng": 135.349693
    },
    {
        "code": "A130210000382",
        "type": 16011,
        "name": "富田幼稚園",
        "address": "西牟婁郡白浜町十九渕52-1",
        "lat": 33.661803,
        "lng": 135.399179
    },
    {
        "code": "B130210001995",
        "type": 16001,
        "name": "白浜第一小学校",
        "address": "西牟婁郡白浜町196",
        "lat": 33.690118,
        "lng": 135.348053
    },
    {
        "code": "B130210002002",
        "type": 16001,
        "name": "白浜第二小学校",
        "address": "西牟婁郡白浜町2234",
        "lat": 33.675342,
        "lng": 135.345415
    },
    {
        "code": "B130210002011",
        "type": 16001,
        "name": "南白浜小学校",
        "address": "西牟婁郡白浜町中1696-2",
        "lat": 33.649624,
        "lng": 135.389633
    },
    {
        "code": "B130210002020",
        "type": 16001,
        "name": "富田小学校",
        "address": "西牟婁郡白浜町十九渕545",
        "lat": 33.646874,
        "lng": 135.405799
    },
    {
        "code": "B130210002039",
        "type": 16001,
        "name": "北富田小学校",
        "address": "西牟婁郡白浜町内ﾉ川579",
        "lat": 33.673482,
        "lng": 135.408993
    },
    {
        "code": "B130210002048",
        "type": 16001,
        "name": "西富田小学校",
        "address": "西牟婁郡白浜町才野47",
        "lat": 33.662761,
        "lng": 135.386661
    },
    {
        "code": "B130210002119",
        "type": 16001,
        "name": "日置小学校",
        "address": "西牟婁郡白浜町日置979-1",
        "lat": 33.56569,
        "lng": 135.441907
    },
    {
        "code": "B130210002128",
        "type": 16001,
        "name": "安宅小学校",
        "address": "西牟婁郡白浜町安宅217",
        "lat": 33.578355,
        "lng": 135.465599
    },
    {
        "code": "B130210002137",
        "type": 16001,
        "name": "安居小学校",
        "address": "西牟婁郡白浜町安居626",
        "lat": 33.607296,
        "lng": 135.480847
    },
    {
        "code": "C130210000869",
        "type": 16002,
        "name": "白浜中学校",
        "address": "西牟婁郡白浜町2601",
        "lat": 33.680366,
        "lng": 135.35264
    },
    {
        "code": "C130210000878",
        "type": 16002,
        "name": "富田中学校",
        "address": "西牟婁郡白浜町栄320",
        "lat": 33.655873,
        "lng": 135.392133
    },
    {
        "code": "C130210000903",
        "type": 16002,
        "name": "日置中学校",
        "address": "西牟婁郡白浜町日置979-2",
        "lat": 33.566448,
        "lng": 135.440767
    },
    {
        "code": "C130210000912",
        "type": 16002,
        "name": "三舞中学校",
        "address": "西牟婁郡白浜町安居626",
        "lat": 33.606518,
        "lng": 135.480708
    },
    {
        "code": "H230310000268",
        "type": 16015,
        "name": "叶計算実務学校",
        "address": "西牟婁郡白浜町堅田716-4",
        "lat": 33.664023,
        "lng": 135.386248
    },
    {
        "code": "H230310000277",
        "type": 16015,
        "name": "栗栖珠算学校",
        "address": "西牟婁郡白浜町富田397-6",
        "lat": 33.649944,
        "lng": 135.398653
    }
]