[
    {
        "code": "B130210002226",
        "type": 16001,
        "name": "宇久井小学校",
        "address": "東牟婁郡那智勝浦町宇久井214",
        "lat": 33.660713,
        "lng": 135.971691
    },
    {
        "code": "B130210002235",
        "type": 16001,
        "name": "市野々小学校",
        "address": "東牟婁郡那智勝浦町市野々2604",
        "lat": 33.663177,
        "lng": 135.910299
    },
    {
        "code": "B130210002244",
        "type": 16001,
        "name": "勝浦小学校",
        "address": "東牟婁郡那智勝浦町勝浦816",
        "lat": 33.631493,
        "lng": 135.946666
    },
    {
        "code": "B130210002253",
        "type": 16001,
        "name": "色川小学校",
        "address": "東牟婁郡那智勝浦町大字大野2410-1",
        "lat": 33.675069,
        "lng": 135.848008
    },
    {
        "code": "B130210002262",
        "type": 16001,
        "name": "太田小学校",
        "address": "東牟婁郡那智勝浦町南大居200",
        "lat": 33.596357,
        "lng": 135.888617
    },
    {
        "code": "B130210002271",
        "type": 16001,
        "name": "下里小学校",
        "address": "東牟婁郡那智勝浦町下里2862",
        "lat": 33.575916,
        "lng": 135.91967
    },
    {
        "code": "C130210000976",
        "type": 16002,
        "name": "宇久井中学校",
        "address": "東牟婁郡那智勝浦町宇久井1073",
        "lat": 33.659074,
        "lng": 135.971163
    },
    {
        "code": "C130210000985",
        "type": 16002,
        "name": "那智中学校",
        "address": "東牟婁郡那智勝浦町天満1693",
        "lat": 33.638575,
        "lng": 135.931139
    },
    {
        "code": "C130210000994",
        "type": 16002,
        "name": "色川中学校",
        "address": "東牟婁郡那智勝浦町大野2410-1",
        "lat": 33.675153,
        "lng": 135.84873
    },
    {
        "code": "C130210001001",
        "type": 16002,
        "name": "下里中学校",
        "address": "東牟婁郡那智勝浦町大字下里480",
        "lat": 33.584526,
        "lng": 135.921336
    },
    {
        "code": "H230310000286",
        "type": 16015,
        "name": "米川計算実務学校",
        "address": "東牟婁郡那智勝浦町天満1675-3",
        "lat": 33.638745,
        "lng": 135.931797
    }
]