[
    {
        "code": "A131110000016",
        "type": 16011,
        "name": "鳥取大学附属幼稚園",
        "address": "鳥取市湖山町北2-465",
        "lat": 35.520931,
        "lng": 134.17556
    },
    {
        "code": "A131210000014",
        "type": 16011,
        "name": "福部未来学園幼稚園",
        "address": "鳥取市福部町高江188",
        "lat": 35.54391,
        "lng": 134.281433
    },
    {
        "code": "A131210000023",
        "type": 16011,
        "name": "河原幼稚園",
        "address": "鳥取市河原町長瀬48-1",
        "lat": 35.409006,
        "lng": 134.199283
    },
    {
        "code": "A131210000032",
        "type": 16011,
        "name": "こじか幼稚園",
        "address": "鳥取市鹿野町鹿野583-3",
        "lat": 35.462908,
        "lng": 134.068311
    },
    {
        "code": "A131310000012",
        "type": 16011,
        "name": "小さき花園幼稚園",
        "address": "鳥取市西町1-455",
        "lat": 35.504019,
        "lng": 134.236128
    },
    {
        "code": "A131310000021",
        "type": 16011,
        "name": "鳥取第一幼稚園",
        "address": "鳥取市吉方温泉1-609",
        "lat": 35.495658,
        "lng": 134.232695
    },
    {
        "code": "A131310000030",
        "type": 16011,
        "name": "愛真幼稚園",
        "address": "鳥取市西町1-226",
        "lat": 35.503395,
        "lng": 134.23503
    },
    {
        "code": "A131310000049",
        "type": 16011,
        "name": "鳥取第三幼稚園",
        "address": "鳥取市浜坂3-16-3",
        "lat": 35.532575,
        "lng": 134.214867
    },
    {
        "code": "A131310000058",
        "type": 16011,
        "name": "鳥取ルーテル幼稚園",
        "address": "鳥取市元大工町46",
        "lat": 35.499488,
        "lng": 134.235192
    },
    {
        "code": "A131310000138",
        "type": 16011,
        "name": "修立幼稚園",
        "address": "鳥取市立川町5-260-6",
        "lat": 35.487973,
        "lng": 134.24423
    },
    {
        "code": "A131310000165",
        "type": 16011,
        "name": "鳥取第五幼稚園",
        "address": "鳥取市美萩野2-233",
        "lat": 35.521563,
        "lng": 134.138755
    },
    {
        "code": "A231310000011",
        "type": 16013,
        "name": "鳥取第二幼稚園",
        "address": "鳥取市西品治856",
        "lat": 35.509747,
        "lng": 134.225228
    },
    {
        "code": "A231310000020",
        "type": 16013,
        "name": "ひかりこども園",
        "address": "鳥取市湖山町北3-405",
        "lat": 35.519973,
        "lng": 134.179576
    },
    {
        "code": "A231310000039",
        "type": 16013,
        "name": "さくら幼稚園・さくら保育園",
        "address": "鳥取市桜谷347",
        "lat": 35.47285,
        "lng": 134.25365
    },
    {
        "code": "A231310000048",
        "type": 16013,
        "name": "稲葉幼稚園・稲葉保育園",
        "address": "鳥取市滝山449-1",
        "lat": 35.493378,
        "lng": 134.259351
    },
    {
        "code": "A231310000057",
        "type": 16013,
        "name": "鳥取第四幼稚園",
        "address": "鳥取市的場151",
        "lat": 35.476435,
        "lng": 134.227193
    },
    {
        "code": "A231310000217",
        "type": 16013,
        "name": "鳥取みどり園",
        "address": "鳥取市立川町5-417",
        "lat": 35.490783,
        "lng": 134.240975
    },
    {
        "code": "A231310000226",
        "type": 16013,
        "name": "わかば台こども園",
        "address": "鳥取市若葉台南2-205-2",
        "lat": 35.44755,
        "lng": 134.263882
    },
    {
        "code": "B131110000014",
        "type": 16001,
        "name": "鳥取大学附属小学校",
        "address": "鳥取市湖山町南4-101",
        "lat": 35.513035,
        "lng": 134.174342
    },
    {
        "code": "B131210000012",
        "type": 16001,
        "name": "久松小学校",
        "address": "鳥取市東町2-201",
        "lat": 35.50587,
        "lng": 134.236397
    },
    {
        "code": "B131210000021",
        "type": 16001,
        "name": "醇風小学校",
        "address": "鳥取市西町5-353",
        "lat": 35.505759,
        "lng": 134.231119
    },
    {
        "code": "B131210000030",
        "type": 16001,
        "name": "遷喬小学校",
        "address": "鳥取市本町1-108-1",
        "lat": 35.501315,
        "lng": 134.233119
    },
    {
        "code": "B131210000049",
        "type": 16001,
        "name": "修立小学校",
        "address": "鳥取市立川町5-339",
        "lat": 35.489039,
        "lng": 134.243369
    },
    {
        "code": "B131210000058",
        "type": 16001,
        "name": "日進小学校",
        "address": "鳥取市吉方温泉1-131",
        "lat": 35.495901,
        "lng": 134.233712
    },
    {
        "code": "B131210000067",
        "type": 16001,
        "name": "富桑小学校",
        "address": "鳥取市西品治134",
        "lat": 35.504342,
        "lng": 134.219454
    },
    {
        "code": "B131210000076",
        "type": 16001,
        "name": "稲葉山小学校",
        "address": "鳥取市卯垣2-657",
        "lat": 35.490844,
        "lng": 134.25109
    },
    {
        "code": "B131210000085",
        "type": 16001,
        "name": "城北小学校",
        "address": "鳥取市田園町4-324",
        "lat": 35.515119,
        "lng": 134.221064
    },
    {
        "code": "B131210000094",
        "type": 16001,
        "name": "美保小学校",
        "address": "鳥取市吉成1-10-25",
        "lat": 35.483984,
        "lng": 134.223954
    },
    {
        "code": "B131210000101",
        "type": 16001,
        "name": "賀露小学校",
        "address": "鳥取市賀露町4150",
        "lat": 35.530533,
        "lng": 134.196233
    },
    {
        "code": "B131210000110",
        "type": 16001,
        "name": "明徳小学校",
        "address": "鳥取市行徳1-201-3",
        "lat": 35.497038,
        "lng": 134.220621
    },
    {
        "code": "B131210000129",
        "type": 16001,
        "name": "倉田小学校",
        "address": "鳥取市八坂54-1",
        "lat": 35.45096,
        "lng": 134.215373
    },
    {
        "code": "B131210000138",
        "type": 16001,
        "name": "米里小学校",
        "address": "鳥取市古郡家75-1",
        "lat": 35.46007,
        "lng": 134.238037
    },
    {
        "code": "B131210000147",
        "type": 16001,
        "name": "面影小学校",
        "address": "鳥取市雲山42",
        "lat": 35.481623,
        "lng": 134.240147
    },
    {
        "code": "B131210000156",
        "type": 16001,
        "name": "大正小学校",
        "address": "鳥取市古海291-3",
        "lat": 35.494566,
        "lng": 134.208233
    },
    {
        "code": "B131210000165",
        "type": 16001,
        "name": "東郷小学校",
        "address": "鳥取市篠坂6-1",
        "lat": 35.469568,
        "lng": 134.18493
    },
    {
        "code": "B131210000174",
        "type": 16001,
        "name": "明治小学校",
        "address": "鳥取市松上159",
        "lat": 35.442236,
        "lng": 134.134908
    },
    {
        "code": "B131210000183",
        "type": 16001,
        "name": "世紀小学校",
        "address": "鳥取市徳尾407",
        "lat": 35.502453,
        "lng": 134.198039
    },
    {
        "code": "B131210000192",
        "type": 16001,
        "name": "湖山小学校",
        "address": "鳥取市湖山町南1-656",
        "lat": 35.516034,
        "lng": 134.177763
    },
    {
        "code": "B131210000209",
        "type": 16001,
        "name": "末恒小学校",
        "address": "鳥取市伏野2256-61",
        "lat": 35.525977,
        "lng": 134.135572
    },
    {
        "code": "B131210000218",
        "type": 16001,
        "name": "津ノ井小学校",
        "address": "鳥取市桂木238-1",
        "lat": 35.459293,
        "lng": 134.250647
    },
    {
        "code": "B131210000227",
        "type": 16001,
        "name": "浜坂小学校",
        "address": "鳥取市浜坂1-14-1",
        "lat": 35.529006,
        "lng": 134.217564
    },
    {
        "code": "B131210000236",
        "type": 16001,
        "name": "岩倉小学校",
        "address": "鳥取市立川町7-110",
        "lat": 35.484651,
        "lng": 134.255868
    },
    {
        "code": "B131210000245",
        "type": 16001,
        "name": "美保南小学校",
        "address": "鳥取市宮長200-1",
        "lat": 35.478846,
        "lng": 134.22251
    },
    {
        "code": "B131210000637",
        "type": 16001,
        "name": "宮ノ下小学校",
        "address": "鳥取市国府町宮下26",
        "lat": 35.478846,
        "lng": 134.2716
    },
    {
        "code": "B131210000664",
        "type": 16001,
        "name": "河原第一小学校",
        "address": "鳥取市河原町渡一木179-1",
        "lat": 35.401033,
        "lng": 134.200613
    },
    {
        "code": "B131210000673",
        "type": 16001,
        "name": "西郷小学校",
        "address": "鳥取市河原町牛戸14-1",
        "lat": 35.37994,
        "lng": 134.164776
    },
    {
        "code": "B131210000682",
        "type": 16001,
        "name": "散岐小学校",
        "address": "鳥取市河原町佐貫761-5",
        "lat": 35.376253,
        "lng": 134.198318
    },
    {
        "code": "B131210000708",
        "type": 16001,
        "name": "用瀬小学校",
        "address": "鳥取市用瀬町用瀬75-1",
        "lat": 35.336979,
        "lng": 134.201541
    },
    {
        "code": "B131210000717",
        "type": 16001,
        "name": "佐治小学校",
        "address": "鳥取市佐治町福園41",
        "lat": 35.330509,
        "lng": 134.111266
    },
    {
        "code": "B131210000726",
        "type": 16001,
        "name": "宝木小学校",
        "address": "鳥取市気高町宝木989",
        "lat": 35.512519,
        "lng": 134.081186
    },
    {
        "code": "B131210000735",
        "type": 16001,
        "name": "瑞穂小学校",
        "address": "鳥取市気高町下坂本48",
        "lat": 35.492903,
        "lng": 134.068932
    },
    {
        "code": "B131210000744",
        "type": 16001,
        "name": "浜村小学校",
        "address": "鳥取市気高町八幡382-3",
        "lat": 35.510174,
        "lng": 134.043738
    },
    {
        "code": "B131210000753",
        "type": 16001,
        "name": "逢坂小学校",
        "address": "鳥取市気高町山宮369-2",
        "lat": 35.480881,
        "lng": 134.038369
    },
    {
        "code": "B131210000762",
        "type": 16001,
        "name": "青谷小学校",
        "address": "鳥取市青谷町青谷3459",
        "lat": 35.523279,
        "lng": 133.999845
    },
    {
        "code": "B131210000977",
        "type": 16001,
        "name": "湖山西小学校",
        "address": "鳥取市湖山町西1-541",
        "lat": 35.522506,
        "lng": 134.170791
    },
    {
        "code": "B131210001011",
        "type": 16001,
        "name": "中ノ郷小学校",
        "address": "鳥取市円護寺268",
        "lat": 35.51898,
        "lng": 134.236396
    },
    {
        "code": "B131210001039",
        "type": 16001,
        "name": "若葉台小学校",
        "address": "鳥取市若葉台南2-17-1",
        "lat": 35.447488,
        "lng": 134.26134
    },
    {
        "code": "B131210001057",
        "type": 16001,
        "name": "国府東小学校",
        "address": "鳥取市国府町谷3",
        "lat": 35.461097,
        "lng": 134.296452
    },
    {
        "code": "C131110000012",
        "type": 16002,
        "name": "鳥取大学附属中学校",
        "address": "鳥取市湖山町南4-101",
        "lat": 35.513007,
        "lng": 134.174346
    },
    {
        "code": "C131210000010",
        "type": 16002,
        "name": "東中学校",
        "address": "鳥取市立川町6-164",
        "lat": 35.486317,
        "lng": 134.25109
    },
    {
        "code": "C131210000029",
        "type": 16002,
        "name": "西中学校",
        "address": "鳥取市寿町907",
        "lat": 35.50637,
        "lng": 134.225648
    },
    {
        "code": "C131210000038",
        "type": 16002,
        "name": "南中学校",
        "address": "鳥取市興南町91",
        "lat": 35.486706,
        "lng": 134.230231
    },
    {
        "code": "C131210000047",
        "type": 16002,
        "name": "北中学校",
        "address": "鳥取市東町3-371-1",
        "lat": 35.509286,
        "lng": 134.235063
    },
    {
        "code": "C131210000056",
        "type": 16002,
        "name": "高草中学校",
        "address": "鳥取市徳尾108-1",
        "lat": 35.502509,
        "lng": 134.205511
    },
    {
        "code": "C131210000065",
        "type": 16002,
        "name": "湖東中学校",
        "address": "鳥取市湖山町北6-323",
        "lat": 35.519867,
        "lng": 134.182346
    },
    {
        "code": "C131210000074",
        "type": 16002,
        "name": "桜ヶ丘中学校",
        "address": "鳥取市桜谷227",
        "lat": 35.469625,
        "lng": 134.248591
    },
    {
        "code": "C131210000083",
        "type": 16002,
        "name": "中ノ郷中学校",
        "address": "鳥取市浜坂東1-22-17",
        "lat": 35.528951,
        "lng": 134.227008
    },
    {
        "code": "C131210000261",
        "type": 16002,
        "name": "国府中学校",
        "address": "鳥取市国府町町屋720",
        "lat": 35.473986,
        "lng": 134.275213
    },
    {
        "code": "C131210000289",
        "type": 16002,
        "name": "河原中学校",
        "address": "鳥取市河原町曳田298",
        "lat": 35.395565,
        "lng": 134.198904
    },
    {
        "code": "C131210000314",
        "type": 16002,
        "name": "気高中学校",
        "address": "鳥取市気高町浜村784-51",
        "lat": 35.517813,
        "lng": 134.061217
    },
    {
        "code": "C131210000323",
        "type": 16002,
        "name": "青谷中学校",
        "address": "鳥取市青谷町青谷4190-1",
        "lat": 35.511866,
        "lng": 133.996037
    },
    {
        "code": "C131210000519",
        "type": 16002,
        "name": "東中学校のぞみ分校",
        "address": "鳥取市立川町5-417",
        "lat": 35.490838,
        "lng": 134.240983
    },
    {
        "code": "C131210000528",
        "type": 16002,
        "name": "千代南中学校",
        "address": "鳥取市用瀬町別府65",
        "lat": 35.342013,
        "lng": 134.196854
    },
    {
        "code": "C131310000036",
        "type": 16002,
        "name": "青翔開智中学校",
        "address": "鳥取市国府町新通り3-301-2",
        "lat": 35.482116,
        "lng": 134.256387
    },
    {
        "code": "C231210000019",
        "type": 16014,
        "name": "湖南学園",
        "address": "鳥取市六反田1-5",
        "lat": 35.48827,
        "lng": 134.130604
    },
    {
        "code": "C231210000028",
        "type": 16014,
        "name": "福部未来学園",
        "address": "鳥取市福部町高江188",
        "lat": 35.543842,
        "lng": 134.282042
    },
    {
        "code": "C231210000037",
        "type": 16014,
        "name": "鹿野学園",
        "address": "鳥取市鹿野町鹿野2888",
        "lat": 35.460483,
        "lng": 134.055795
    },
    {
        "code": "C231210000046",
        "type": 16014,
        "name": "江山学園",
        "address": "鳥取市竹生64",
        "lat": 35.45415,
        "lng": 134.204128
    },
    {
        "code": "D131210000018",
        "type": 16004,
        "name": "鳥取東高等学校",
        "address": "鳥取市立川町5-210",
        "lat": 35.489706,
        "lng": 134.24423
    },
    {
        "code": "D131210000027",
        "type": 16004,
        "name": "鳥取西高等学校",
        "address": "鳥取市東町2-112",
        "lat": 35.505926,
        "lng": 134.238952
    },
    {
        "code": "D131210000036",
        "type": 16004,
        "name": "鳥取商業高等学校",
        "address": "鳥取市湖山町北2-401",
        "lat": 35.519284,
        "lng": 134.175791
    },
    {
        "code": "D131210000045",
        "type": 16004,
        "name": "鳥取工業高等学校",
        "address": "鳥取市生山111",
        "lat": 35.459265,
        "lng": 134.254813
    },
    {
        "code": "D131210000081",
        "type": 16004,
        "name": "青谷高等学校",
        "address": "鳥取市青谷町青谷2912",
        "lat": 35.52163,
        "lng": 134.000138
    },
    {
        "code": "D131210000198",
        "type": 16004,
        "name": "鳥取湖陵高等学校",
        "address": "鳥取市湖山町北3-250",
        "lat": 35.521678,
        "lng": 134.177076
    },
    {
        "code": "D131210000232",
        "type": 16004,
        "name": "鳥取緑風高等学校",
        "address": "鳥取市湖山町南3-848",
        "lat": 35.508869,
        "lng": 134.177596
    },
    {
        "code": "D131310000016",
        "type": 16004,
        "name": "鳥取敬愛高等学校",
        "address": "鳥取市西町1-111",
        "lat": 35.502954,
        "lng": 134.235869
    },
    {
        "code": "D131310000025",
        "type": 16004,
        "name": "鳥取城北高等学校",
        "address": "鳥取市西品治848",
        "lat": 35.50887,
        "lng": 134.22412
    },
    {
        "code": "D131310000089",
        "type": 16004,
        "name": "青翔開智高等学校",
        "address": "鳥取市国府町新通り3-301-2",
        "lat": 35.482204,
        "lng": 134.256382
    },
    {
        "code": "E131110000017",
        "type": 16012,
        "name": "鳥取大学附属特別支援学校",
        "address": "鳥取市湖山町西2-149",
        "lat": 35.523811,
        "lng": 134.163208
    },
    {
        "code": "E131210000015",
        "type": 16012,
        "name": "鳥取盲学校",
        "address": "鳥取市国府町宮下1265",
        "lat": 35.479401,
        "lng": 134.256479
    },
    {
        "code": "E131210000024",
        "type": 16012,
        "name": "鳥取聾学校",
        "address": "鳥取市国府町宮下1261",
        "lat": 35.479374,
        "lng": 134.258618
    },
    {
        "code": "E131210000051",
        "type": 16012,
        "name": "白兎養護学校",
        "address": "鳥取市伏野1550-1",
        "lat": 35.525449,
        "lng": 134.12274
    },
    {
        "code": "E131210000060",
        "type": 16012,
        "name": "鳥取養護学校",
        "address": "鳥取市江津260",
        "lat": 35.522756,
        "lng": 134.212676
    },
    {
        "code": "F131110109417",
        "type": 16007,
        "name": "鳥取大学",
        "address": "鳥取市湖山町南4-101",
        "lat": 35.516673,
        "lng": 134.172402
    },
    {
        "code": "F131210109424",
        "type": 16007,
        "name": "鳥取環境大学",
        "address": "鳥取市若葉台北1-1-1",
        "lat": 35.451028,
        "lng": 134.256709
    },
    {
        "code": "H131210000019",
        "type": 16016,
        "name": "鳥取看護専門学校",
        "address": "鳥取市江津260",
        "lat": 35.522607,
        "lng": 134.21111
    },
    {
        "code": "H131210000037",
        "type": 16016,
        "name": "鳥取県立歯科衛生専門学校",
        "address": "鳥取市吉方温泉3-751-5",
        "lat": 35.491639,
        "lng": 134.233656
    },
    {
        "code": "H131310000017",
        "type": 16016,
        "name": "鳥取県理容美容専門学校",
        "address": "鳥取市南吉方1-71-3",
        "lat": 35.49034,
        "lng": 134.232234
    },
    {
        "code": "H131310000026",
        "type": 16016,
        "name": "鳥取看護高等専修学校",
        "address": "鳥取市富安1-27",
        "lat": 35.487489,
        "lng": 134.227823
    },
    {
        "code": "H131310000062",
        "type": 16016,
        "name": "鳥取歯科技工専門学校",
        "address": "鳥取市富安2-84",
        "lat": 35.490097,
        "lng": 134.229167
    },
    {
        "code": "H131310000115",
        "type": 16016,
        "name": "鳥取社会福祉専門学校",
        "address": "鳥取市気高町日光969-1",
        "lat": 35.51802,
        "lng": 134.062965
    },
    {
        "code": "H131310000124",
        "type": 16016,
        "name": "あすなろ予備校",
        "address": "鳥取市永楽温泉町385",
        "lat": 35.493641,
        "lng": 134.22927
    },
    {
        "code": "H131310000160",
        "type": 16016,
        "name": "あすなろ高等専修学校",
        "address": "鳥取市湖山町西2-228-1",
        "lat": 35.52163,
        "lng": 134.158185
    },
    {
        "code": "H131310000179",
        "type": 16016,
        "name": "鳥取市医療看護専門学校",
        "address": "鳥取市東品治町103-2",
        "lat": 35.493729,
        "lng": 134.227641
    },
    {
        "code": "H131310000188",
        "type": 16016,
        "name": "鳥取予備校",
        "address": "鳥取市幸町26-9",
        "lat": 35.494882,
        "lng": 134.221318
    },
    {
        "code": "H231310000016",
        "type": 16015,
        "name": "イナバ自動車学校",
        "address": "鳥取市里仁97-1",
        "lat": 35.498579,
        "lng": 134.191357
    },
    {
        "code": "H231310000025",
        "type": 16015,
        "name": "鳥取県東部自動車学校",
        "address": "鳥取市松並町3-122",
        "lat": 35.518913,
        "lng": 134.220759
    },
    {
        "code": "H231310000034",
        "type": 16015,
        "name": "日本海自動車学校",
        "address": "鳥取市湖山町東4-55",
        "lat": 35.51511,
        "lng": 134.190147
    },
    {
        "code": "H231310000169",
        "type": 16015,
        "name": "鳥取城北日本語学校",
        "address": "鳥取市古海字中土居37-4",
        "lat": 35.495338,
        "lng": 134.211572
    }
]