[
    {
        "code": "A231310000100",
        "type": 16013,
        "name": "倉吉幼稚園",
        "address": "倉吉市仲ﾉ町742-1",
        "lat": 35.430998,
        "lng": 133.821397
    },
    {
        "code": "A231310000119",
        "type": 16013,
        "name": "聖テレジアこども園",
        "address": "倉吉市福吉町1376-6",
        "lat": 35.434809,
        "lng": 133.81847
    },
    {
        "code": "A231310000128",
        "type": 16013,
        "name": "鳥取短期大学付属こども園",
        "address": "倉吉市福庭854",
        "lat": 35.455909,
        "lng": 133.860609
    },
    {
        "code": "A231310000146",
        "type": 16013,
        "name": "倉吉東こども園",
        "address": "倉吉市上井781-1",
        "lat": 35.446811,
        "lng": 133.844173
    },
    {
        "code": "A231310000182",
        "type": 16013,
        "name": "倉吉愛児園",
        "address": "倉吉市東町342",
        "lat": 35.430218,
        "lng": 133.829674
    },
    {
        "code": "A231310000208",
        "type": 16013,
        "name": "どんぐりこども園",
        "address": "倉吉市上灘町41-1",
        "lat": 35.431937,
        "lng": 133.840818
    },
    {
        "code": "B131210000469",
        "type": 16001,
        "name": "西郷小学校",
        "address": "倉吉市下余戸114",
        "lat": 35.435426,
        "lng": 133.852544
    },
    {
        "code": "B131210000478",
        "type": 16001,
        "name": "河北小学校",
        "address": "倉吉市海田西町1-130",
        "lat": 35.463061,
        "lng": 133.843267
    },
    {
        "code": "B131210000487",
        "type": 16001,
        "name": "明倫小学校",
        "address": "倉吉市余戸谷町3059",
        "lat": 35.427648,
        "lng": 133.812493
    },
    {
        "code": "B131210000496",
        "type": 16001,
        "name": "成徳小学校",
        "address": "倉吉市仲ﾉ町733",
        "lat": 35.430482,
        "lng": 133.824464
    },
    {
        "code": "B131210000502",
        "type": 16001,
        "name": "上灘小学校",
        "address": "倉吉市上灘町136",
        "lat": 35.429204,
        "lng": 133.840796
    },
    {
        "code": "B131210000511",
        "type": 16001,
        "name": "小鴨小学校",
        "address": "倉吉市中河原775-1",
        "lat": 35.413955,
        "lng": 133.802966
    },
    {
        "code": "B131210000520",
        "type": 16001,
        "name": "上小鴨小学校",
        "address": "倉吉市福山30",
        "lat": 35.392207,
        "lng": 133.782079
    },
    {
        "code": "B131210000539",
        "type": 16001,
        "name": "北谷小学校",
        "address": "倉吉市沢谷204",
        "lat": 35.407011,
        "lng": 133.750776
    },
    {
        "code": "B131210000548",
        "type": 16001,
        "name": "高城小学校",
        "address": "倉吉市上福田722-2",
        "lat": 35.430147,
        "lng": 133.74636
    },
    {
        "code": "B131210000557",
        "type": 16001,
        "name": "社小学校",
        "address": "倉吉市国分寺88",
        "lat": 35.431842,
        "lng": 133.792661
    },
    {
        "code": "B131210000566",
        "type": 16001,
        "name": "灘手小学校",
        "address": "倉吉市尾原500",
        "lat": 35.461949,
        "lng": 133.775829
    },
    {
        "code": "B131210000995",
        "type": 16001,
        "name": "上北条小学校",
        "address": "倉吉市新田405-1",
        "lat": 35.465061,
        "lng": 133.835712
    },
    {
        "code": "B131210001137",
        "type": 16001,
        "name": "関金小学校",
        "address": "倉吉市関金町関金宿666",
        "lat": 35.365526,
        "lng": 133.749773
    },
    {
        "code": "C131210000190",
        "type": 16002,
        "name": "東中学校",
        "address": "倉吉市宮川町2-76",
        "lat": 35.434203,
        "lng": 133.83088
    },
    {
        "code": "C131210000207",
        "type": 16002,
        "name": "西中学校",
        "address": "倉吉市西倉吉町170",
        "lat": 35.426343,
        "lng": 133.802771
    },
    {
        "code": "C131210000216",
        "type": 16002,
        "name": "久米中学校",
        "address": "倉吉市横田568-1",
        "lat": 35.422842,
        "lng": 133.775552
    },
    {
        "code": "C131210000225",
        "type": 16002,
        "name": "河北中学校",
        "address": "倉吉市上井430",
        "lat": 35.452979,
        "lng": 133.843489
    },
    {
        "code": "C131210000341",
        "type": 16002,
        "name": "鴨川中学校",
        "address": "倉吉市関金町大鳥居25",
        "lat": 35.371933,
        "lng": 133.754637
    },
    {
        "code": "D131210000090",
        "type": 16004,
        "name": "倉吉東高等学校",
        "address": "倉吉市下田中町801",
        "lat": 35.43462,
        "lng": 133.844851
    },
    {
        "code": "D131210000107",
        "type": 16004,
        "name": "倉吉西高等学校",
        "address": "倉吉市秋喜20",
        "lat": 35.428398,
        "lng": 133.802049
    },
    {
        "code": "D131210000116",
        "type": 16004,
        "name": "倉吉農業高等学校",
        "address": "倉吉市大谷166",
        "lat": 35.434657,
        "lng": 133.782973
    },
    {
        "code": "D131210000205",
        "type": 16004,
        "name": "倉吉総合産業高等学校",
        "address": "倉吉市小田204-5",
        "lat": 35.459978,
        "lng": 133.83274
    },
    {
        "code": "D131310000034",
        "type": 16004,
        "name": "倉吉北高等学校",
        "address": "倉吉市福庭町1-180",
        "lat": 35.465478,
        "lng": 133.848572
    },
    {
        "code": "E131210000088",
        "type": 16012,
        "name": "倉吉養護学校",
        "address": "倉吉市長坂新町1231",
        "lat": 35.409983,
        "lng": 133.808077
    },
    {
        "code": "F131310109431",
        "type": 16007,
        "name": "鳥取看護大学",
        "address": "倉吉市福庭854",
        "lat": 35.456482,
        "lng": 133.858869
    },
    {
        "code": "F231310109449",
        "type": 16006,
        "name": "鳥取短期大学",
        "address": "倉吉市福庭854",
        "lat": 35.456118,
        "lng": 133.85971
    },
    {
        "code": "H131210000028",
        "type": 16016,
        "name": "倉吉総合看護専門学校",
        "address": "倉吉市南昭和町15",
        "lat": 35.434498,
        "lng": 133.842023
    },
    {
        "code": "H131210000046",
        "type": 16016,
        "name": "鳥取県立農業大学校",
        "address": "倉吉市関金町大鳥居1238",
        "lat": 35.380287,
        "lng": 133.75684
    },
    {
        "code": "H131310000044",
        "type": 16016,
        "name": "倉吉女子洋裁専修学校",
        "address": "倉吉市西町2705",
        "lat": 35.431802,
        "lng": 133.820186
    },
    {
        "code": "H131310000080",
        "type": 16016,
        "name": "倉吉看護高等専修学校",
        "address": "倉吉市旭田町18",
        "lat": 35.436641,
        "lng": 133.819433
    },
    {
        "code": "H231310000070",
        "type": 16015,
        "name": "鳥取県自動車学校",
        "address": "倉吉市西倉吉町137",
        "lat": 35.42539,
        "lng": 133.803555
    },
    {
        "code": "H231310000089",
        "type": 16015,
        "name": "鳥取県中央自動車学校",
        "address": "倉吉市福庭町1-97",
        "lat": 35.462437,
        "lng": 133.848597
    },
    {
        "code": "H231310000105",
        "type": 16015,
        "name": "倉吉予備校",
        "address": "倉吉市東巌城180",
        "lat": 35.436951,
        "lng": 133.843143
    },
    {
        "code": "H231310000123",
        "type": 16015,
        "name": "中央予備校",
        "address": "倉吉市東巌城162-2",
        "lat": 35.435581,
        "lng": 133.843657
    },
    {
        "code": "H231310000150",
        "type": 16015,
        "name": "倉吉鴨水館",
        "address": "倉吉市下田中町801",
        "lat": 35.434342,
        "lng": 133.845895
    }
]