[
    {
        "code": "B131210000833",
        "type": 16001,
        "name": "西伯小学校",
        "address": "西伯郡南部町法勝寺336",
        "lat": 35.342843,
        "lng": 133.327676
    },
    {
        "code": "B131210000842",
        "type": 16001,
        "name": "会見小学校",
        "address": "西伯郡南部町宮前568",
        "lat": 35.36387,
        "lng": 133.369533
    },
    {
        "code": "B131210000851",
        "type": 16001,
        "name": "会見第二小学校",
        "address": "西伯郡南部町池野451-1",
        "lat": 35.343678,
        "lng": 133.414112
    },
    {
        "code": "C131210000387",
        "type": 16002,
        "name": "法勝寺中学校",
        "address": "西伯郡南部町馬場630-1",
        "lat": 35.336705,
        "lng": 133.323316
    },
    {
        "code": "C131210000396",
        "type": 16002,
        "name": "南部中学校",
        "address": "西伯郡南部町天萬583",
        "lat": 35.371592,
        "lng": 133.363477
    }
]