[
    {
        "code": "A103320200013",
        "type": 16011,
        "name": "宮古泉幼稚園",
        "address": "宮古市上鼻2-6-6",
        "lat": 39.631323,
        "lng": 141.912254
    },
    {
        "code": "A103320200022",
        "type": 16011,
        "name": "東北カトリック学園小百合幼稚園",
        "address": "宮古市宮町1-2-14",
        "lat": 39.640008,
        "lng": 141.944005
    },
    {
        "code": "A103320200031",
        "type": 16011,
        "name": "そけい幼稚園",
        "address": "宮古市磯鶏沖4-20",
        "lat": 39.628885,
        "lng": 141.962789
    },
    {
        "code": "A203320200012",
        "type": 16013,
        "name": "認定こども園宮古ひかり",
        "address": "宮古市西町3-3-26",
        "lat": 39.647319,
        "lng": 141.940871
    },
    {
        "code": "A203320200021",
        "type": 16013,
        "name": "あかまえこども園",
        "address": "宮古市赤前3-14-11",
        "lat": 39.575137,
        "lng": 141.94817
    },
    {
        "code": "A203320200030",
        "type": 16013,
        "name": "あかまえこども園分園",
        "address": "宮古市黒森町2-15",
        "lat": 39.648857,
        "lng": 141.938694
    },
    {
        "code": "B103220200013",
        "type": 16001,
        "name": "宮古小学校",
        "address": "宮古市横町5-1",
        "lat": 39.64423,
        "lng": 141.949746
    },
    {
        "code": "B103220200022",
        "type": 16001,
        "name": "鍬ケ崎小学校",
        "address": "宮古市熊野町6-33",
        "lat": 39.649827,
        "lng": 141.965662
    },
    {
        "code": "B103220200031",
        "type": 16001,
        "name": "磯鶏小学校",
        "address": "宮古市上村2-4-1",
        "lat": 39.627566,
        "lng": 141.954468
    },
    {
        "code": "B103220200040",
        "type": 16001,
        "name": "山口小学校",
        "address": "宮古市鴨崎町3-25",
        "lat": 39.645063,
        "lng": 141.941691
    },
    {
        "code": "B103220200059",
        "type": 16001,
        "name": "高浜小学校",
        "address": "宮古市高浜4-7-22",
        "lat": 39.599027,
        "lng": 141.944266
    },
    {
        "code": "B103220200077",
        "type": 16001,
        "name": "花輪小学校",
        "address": "宮古市花輪4-26",
        "lat": 39.608877,
        "lng": 141.89925
    },
    {
        "code": "B103220200086",
        "type": 16001,
        "name": "津軽石小学校",
        "address": "宮古市津軽石4-82",
        "lat": 39.581111,
        "lng": 141.933691
    },
    {
        "code": "B103220200095",
        "type": 16001,
        "name": "赤前小学校",
        "address": "宮古市赤前11-49-2",
        "lat": 39.582083,
        "lng": 141.956583
    },
    {
        "code": "B103220200102",
        "type": 16001,
        "name": "重茂小学校",
        "address": "宮古市重茂2-12",
        "lat": 39.585229,
        "lng": 142.022043
    },
    {
        "code": "B103220200111",
        "type": 16001,
        "name": "崎山小学校",
        "address": "宮古市崎山3-2",
        "lat": 39.678824,
        "lng": 141.959731
    },
    {
        "code": "B103220200120",
        "type": 16001,
        "name": "千徳小学校",
        "address": "宮古市西ヶ丘1-2-1",
        "lat": 39.640063,
        "lng": 141.916415
    },
    {
        "code": "B103220200139",
        "type": 16001,
        "name": "新里小学校",
        "address": "宮古市刈屋11-48-3",
        "lat": 39.6449,
        "lng": 141.753504
    },
    {
        "code": "B103220200148",
        "type": 16001,
        "name": "田老第一小学校",
        "address": "宮古市田老字館が森155-2",
        "lat": 39.73599,
        "lng": 141.79475
    },
    {
        "code": "B103220200157",
        "type": 16001,
        "name": "川井小学校",
        "address": "宮古市川井5-101-1",
        "lat": 39.598587,
        "lng": 141.682229
    },
    {
        "code": "C103220200011",
        "type": 16002,
        "name": "第一中学校",
        "address": "宮古市宮町2-5-7",
        "lat": 39.637842,
        "lng": 141.945024
    },
    {
        "code": "C103220200020",
        "type": 16002,
        "name": "第二中学校",
        "address": "宮古市日の出町7-1",
        "lat": 39.653396,
        "lng": 141.955301
    },
    {
        "code": "C103220200039",
        "type": 16002,
        "name": "河南中学校",
        "address": "宮古市河南1-1-1",
        "lat": 39.622566,
        "lng": 141.95419
    },
    {
        "code": "C103220200048",
        "type": 16002,
        "name": "宮古西中学校",
        "address": "宮古市西ヶ丘2-1-1",
        "lat": 39.640618,
        "lng": 141.913082
    },
    {
        "code": "C103220200057",
        "type": 16002,
        "name": "花輪中学校",
        "address": "宮古市花輪第5-132",
        "lat": 39.6138,
        "lng": 141.898509
    },
    {
        "code": "C103220200066",
        "type": 16002,
        "name": "津軽石中学校",
        "address": "宮古市津軽石11-57",
        "lat": 39.572034,
        "lng": 141.938945
    },
    {
        "code": "C103220200075",
        "type": 16002,
        "name": "重茂中学校",
        "address": "宮古市重茂2-1",
        "lat": 39.587526,
        "lng": 142.019165
    },
    {
        "code": "C103220200084",
        "type": 16002,
        "name": "崎山中学校",
        "address": "宮古市崎山3-1-1",
        "lat": 39.679307,
        "lng": 141.961447
    },
    {
        "code": "C103220200093",
        "type": 16002,
        "name": "田老第一中学校",
        "address": "宮古市田老字館が森3",
        "lat": 39.738594,
        "lng": 141.969748
    },
    {
        "code": "C103220200100",
        "type": 16002,
        "name": "新里中学校",
        "address": "宮古市刈屋15-133",
        "lat": 39.641337,
        "lng": 141.773918
    },
    {
        "code": "C103220200119",
        "type": 16002,
        "name": "川井中学校",
        "address": "宮古市箱石1-4",
        "lat": 39.623669,
        "lng": 141.622956
    },
    {
        "code": "D103210000502",
        "type": 16004,
        "name": "宮古高等学校",
        "address": "宮古市宮町2-1-1",
        "lat": 39.637287,
        "lng": 141.947802
    },
    {
        "code": "D103210000511",
        "type": 16004,
        "name": "宮古北高等学校",
        "address": "宮古市田老字八幡水神43-2",
        "lat": 39.729437,
        "lng": 141.951684
    },
    {
        "code": "D103210000520",
        "type": 16004,
        "name": "宮古商工高等学校",
        "address": "宮古市磯鶏3-5-1",
        "lat": 39.618056,
        "lng": 141.958933
    },
    {
        "code": "D103210000539",
        "type": 16004,
        "name": "宮古水産高等学校",
        "address": "宮古市磯鶏3-9-1",
        "lat": 39.621178,
        "lng": 141.958912
    },
    {
        "code": "E103220200016",
        "type": 16012,
        "name": "宮古恵風支援学校",
        "address": "宮古市崎山第5-88",
        "lat": 39.696724,
        "lng": 141.9503
    },
    {
        "code": "F203210100809",
        "type": 16006,
        "name": "宮古短期大学部",
        "address": "宮古市河南1-5-1",
        "lat": 39.618956,
        "lng": 141.950857
    },
    {
        "code": "H103220200010",
        "type": 16016,
        "name": "宮古高等看護学院",
        "address": "宮古市崎鍬ヶ崎4-1-13",
        "lat": 39.659841,
        "lng": 141.950599
    }
]