[
    {
        "code": "A103320300012",
        "type": 16011,
        "name": "東北カトリック学園海の星幼稚園",
        "address": "大船渡市大船渡町字地ﾉ森47-3",
        "lat": 39.072647,
        "lng": 141.717294
    },
    {
        "code": "A203220300013",
        "type": 16013,
        "name": "綾里こども園",
        "address": "大船渡市三陸町綾里字中曽根113-1",
        "lat": 39.051524,
        "lng": 141.800147
    },
    {
        "code": "A203220300022",
        "type": 16013,
        "name": "吉浜こども園",
        "address": "大船渡市三陸町吉浜字扇洞186",
        "lat": 39.154871,
        "lng": 141.841884
    },
    {
        "code": "A203220300031",
        "type": 16013,
        "name": "越喜来こども園",
        "address": "大船渡市三陸町越喜来字小出24-24",
        "lat": 39.125926,
        "lng": 141.810796
    },
    {
        "code": "A203320300011",
        "type": 16013,
        "name": "盛こども園",
        "address": "大船渡市盛町字沢川47-1",
        "lat": 39.081629,
        "lng": 141.706344
    },
    {
        "code": "A203320300020",
        "type": 16013,
        "name": "いかわこども園",
        "address": "大船渡市猪川町字轆轤石34-1",
        "lat": 39.094983,
        "lng": 141.710585
    },
    {
        "code": "A203320300039",
        "type": 16013,
        "name": "立根こども園",
        "address": "大船渡市立根町字関谷58-1",
        "lat": 39.114598,
        "lng": 141.719219
    },
    {
        "code": "A203320300048",
        "type": 16013,
        "name": "末崎こども園",
        "address": "大船渡市末崎町鶴巻88-2",
        "lat": 39.003952,
        "lng": 141.714923
    },
    {
        "code": "A203320300057",
        "type": 16013,
        "name": "あかさきこども園",
        "address": "大船渡市赤崎町字山口15-1",
        "lat": 39.066711,
        "lng": 141.741604
    },
    {
        "code": "B103220300012",
        "type": 16001,
        "name": "盛小学校",
        "address": "大船渡市盛町字沢川30",
        "lat": 39.08179,
        "lng": 141.704789
    },
    {
        "code": "B103220300021",
        "type": 16001,
        "name": "大船渡小学校",
        "address": "大船渡市大船渡町字笹崎67",
        "lat": 39.057071,
        "lng": 141.719232
    },
    {
        "code": "B103220300030",
        "type": 16001,
        "name": "末崎小学校",
        "address": "大船渡市末崎町字山岸122",
        "lat": 39.004577,
        "lng": 141.71729
    },
    {
        "code": "B103220300049",
        "type": 16001,
        "name": "猪川小学校",
        "address": "大船渡市猪川町字轆轤石23",
        "lat": 39.094011,
        "lng": 141.711176
    },
    {
        "code": "B103220300058",
        "type": 16001,
        "name": "立根小学校",
        "address": "大船渡市立根町字上ﾉ台19-2",
        "lat": 39.114286,
        "lng": 141.721174
    },
    {
        "code": "B103220300067",
        "type": 16001,
        "name": "日頃市小学校",
        "address": "大船渡市日頃市町字関谷48",
        "lat": 39.127062,
        "lng": 141.673678
    },
    {
        "code": "B103220300076",
        "type": 16001,
        "name": "大船渡北小学校",
        "address": "大船渡市大船渡町字山馬越68-2",
        "lat": 39.065403,
        "lng": 141.713122
    },
    {
        "code": "B103220300085",
        "type": 16001,
        "name": "赤崎小学校",
        "address": "大船渡市赤崎町字山口8-4",
        "lat": 39.066107,
        "lng": 141.741986
    },
    {
        "code": "B103220300094",
        "type": 16001,
        "name": "綾里小学校",
        "address": "大船渡市三陸町綾里字平舘21",
        "lat": 39.049088,
        "lng": 141.795325
    },
    {
        "code": "B103220300101",
        "type": 16001,
        "name": "越喜来小学校",
        "address": "大船渡市三陸町越喜来字小出24-4",
        "lat": 39.126101,
        "lng": 141.810019
    },
    {
        "code": "B103220300110",
        "type": 16001,
        "name": "吉浜小学校",
        "address": "大船渡市三陸町吉浜字扇洞185",
        "lat": 39.158173,
        "lng": 141.836717
    },
    {
        "code": "C103220300010",
        "type": 16002,
        "name": "第一中学校",
        "address": "大船渡市立根町字宮田86",
        "lat": 39.102439,
        "lng": 141.71398
    },
    {
        "code": "C103220300029",
        "type": 16002,
        "name": "大船渡中学校",
        "address": "大船渡市大船渡町永沢94-1",
        "lat": 39.052905,
        "lng": 141.717566
    },
    {
        "code": "C103220300038",
        "type": 16002,
        "name": "末崎中学校",
        "address": "大船渡市末崎町字平林72-13",
        "lat": 39.004577,
        "lng": 141.710901
    },
    {
        "code": "C103220300065",
        "type": 16002,
        "name": "東朋中学校",
        "address": "大船渡市赤崎町字山口107-1",
        "lat": 39.061554,
        "lng": 141.740772
    },
    {
        "code": "D103210000432",
        "type": 16004,
        "name": "大船渡高等学校",
        "address": "大船渡市猪川町字長洞7-1",
        "lat": 39.094289,
        "lng": 141.716731
    },
    {
        "code": "D103210000441",
        "type": 16004,
        "name": "大船渡東高等学校",
        "address": "大船渡市立根町字冷清水1-1",
        "lat": 39.111787,
        "lng": 141.713397
    },
    {
        "code": "E103220300015",
        "type": 16012,
        "name": "気仙光陵支援学校",
        "address": "大船渡市立根町字宮田33-3",
        "lat": 39.100677,
        "lng": 141.714787
    }
]