[
    {
        "code": "A103220600011",
        "type": 16011,
        "name": "黒沢尻幼稚園",
        "address": "北上市常盤台1-7-66",
        "lat": 39.300893,
        "lng": 141.11869
    },
    {
        "code": "A103220600020",
        "type": 16011,
        "name": "更木幼稚園",
        "address": "北上市更木12-61",
        "lat": 39.344166,
        "lng": 141.148578
    },
    {
        "code": "A103220600039",
        "type": 16011,
        "name": "江釣子幼稚園",
        "address": "北上市滑田15-57",
        "lat": 39.317161,
        "lng": 141.068367
    },
    {
        "code": "A103220600057",
        "type": 16011,
        "name": "藤根幼稚園",
        "address": "北上市和賀町長沼6-6-3",
        "lat": 39.299874,
        "lng": 141.03012
    },
    {
        "code": "A103320600028",
        "type": 16011,
        "name": "やさか幼稚園",
        "address": "北上市北鬼柳19-6-1",
        "lat": 39.292966,
        "lng": 141.096957
    },
    {
        "code": "A103320600037",
        "type": 16011,
        "name": "尚恵学園むらさきの幼稚園",
        "address": "北上市村崎野14-441-1",
        "lat": 39.319542,
        "lng": 141.11446
    },
    {
        "code": "A103320600046",
        "type": 16011,
        "name": "東北カトリック学園暁の星幼稚園",
        "address": "北上市中野町2-23-7",
        "lat": 39.293431,
        "lng": 141.126514
    },
    {
        "code": "A103320600055",
        "type": 16011,
        "name": "大堤幼稚園",
        "address": "北上市相去町高前檀6-13",
        "lat": 39.257711,
        "lng": 141.08413
    },
    {
        "code": "A203320600018",
        "type": 16013,
        "name": "ふたば認定こども園双葉幼稚園",
        "address": "北上市花園町2-5-50",
        "lat": 39.289259,
        "lng": 141.120162
    },
    {
        "code": "A203320600027",
        "type": 16013,
        "name": "いわさき認定こども園",
        "address": "北上市和賀町岩崎18-57-14",
        "lat": 39.280964,
        "lng": 141.039186
    },
    {
        "code": "A203320600036",
        "type": 16013,
        "name": "いいとよ保育園",
        "address": "北上市村崎野12-74-1",
        "lat": 39.3328,
        "lng": 141.097311
    },
    {
        "code": "A203320600045",
        "type": 16013,
        "name": "専修大学北上幼稚園",
        "address": "北上市鍛冶町1-4-70",
        "lat": 39.289482,
        "lng": 141.107906
    },
    {
        "code": "A203320600054",
        "type": 16013,
        "name": "横川目こども園",
        "address": "北上市和賀町横川目10地割20-5",
        "lat": 39.306664,
        "lng": 140.979787
    },
    {
        "code": "B103220600019",
        "type": 16001,
        "name": "黒沢尻東小学校",
        "address": "北上市中野町1-8-1",
        "lat": 39.28925,
        "lng": 141.124831
    },
    {
        "code": "B103220600028",
        "type": 16001,
        "name": "黒沢尻西小学校",
        "address": "北上市本石町1-6-71",
        "lat": 39.290916,
        "lng": 141.113999
    },
    {
        "code": "B103220600037",
        "type": 16001,
        "name": "立花小学校",
        "address": "北上市立花18-157",
        "lat": 39.278037,
        "lng": 141.143714
    },
    {
        "code": "B103220600046",
        "type": 16001,
        "name": "黒岩小学校",
        "address": "北上市黒岩7-47-1",
        "lat": 39.313407,
        "lng": 141.160508
    },
    {
        "code": "B103220600055",
        "type": 16001,
        "name": "飯豊小学校",
        "address": "北上市村崎野11-101",
        "lat": 39.341267,
        "lng": 141.095327
    },
    {
        "code": "B103220600064",
        "type": 16001,
        "name": "二子小学校",
        "address": "北上市二子町鳥喰22-2",
        "lat": 39.322303,
        "lng": 141.138718
    },
    {
        "code": "B103220600073",
        "type": 16001,
        "name": "更木小学校",
        "address": "北上市更木12-61",
        "lat": 39.343438,
        "lng": 141.148984
    },
    {
        "code": "B103220600082",
        "type": 16001,
        "name": "口内小学校",
        "address": "北上市口内町新町161",
        "lat": 39.293418,
        "lng": 141.202602
    },
    {
        "code": "B103220600091",
        "type": 16001,
        "name": "照岡小学校",
        "address": "北上市稲瀬町地蔵堂15",
        "lat": 39.237312,
        "lng": 141.120667
    },
    {
        "code": "B103220600108",
        "type": 16001,
        "name": "南小学校",
        "address": "北上市相去町葛西檀12-2",
        "lat": 39.263697,
        "lng": 141.094835
    },
    {
        "code": "B103220600117",
        "type": 16001,
        "name": "黒沢尻北小学校",
        "address": "北上市常盤台1-22-33",
        "lat": 39.303415,
        "lng": 141.117887
    },
    {
        "code": "B103220600126",
        "type": 16001,
        "name": "鬼柳小学校",
        "address": "北上市鬼柳町都鳥35",
        "lat": 39.275918,
        "lng": 141.096501
    },
    {
        "code": "B103220600135",
        "type": 16001,
        "name": "笠松小学校",
        "address": "北上市和賀町竪川目2-18-2",
        "lat": 39.305859,
        "lng": 140.996305
    },
    {
        "code": "B103220600144",
        "type": 16001,
        "name": "和賀西小学校",
        "address": "北上市和賀町横川目7-134-3",
        "lat": 39.312099,
        "lng": 140.971412
    },
    {
        "code": "B103220600153",
        "type": 16001,
        "name": "和賀東小学校",
        "address": "北上市和賀町藤根17-100-2",
        "lat": 39.303248,
        "lng": 141.029708
    },
    {
        "code": "B103220600162",
        "type": 16001,
        "name": "江釣子小学校",
        "address": "北上市上江釣子16-200",
        "lat": 39.299604,
        "lng": 141.072332
    },
    {
        "code": "B103220600171",
        "type": 16001,
        "name": "いわさき小学校",
        "address": "北上市和賀町岩崎18-53-3",
        "lat": 39.28183,
        "lng": 141.041166
    },
    {
        "code": "C103220600017",
        "type": 16002,
        "name": "北上中学校",
        "address": "北上市黒沢尻1-1-1",
        "lat": 39.288695,
        "lng": 141.13122
    },
    {
        "code": "C103220600026",
        "type": 16002,
        "name": "飯豊中学校",
        "address": "北上市村崎野11-200",
        "lat": 39.339444,
        "lng": 141.098354
    },
    {
        "code": "C103220600035",
        "type": 16002,
        "name": "南中学校",
        "address": "北上市相去町滝の沢7-2",
        "lat": 39.264252,
        "lng": 141.090391
    },
    {
        "code": "C103220600044",
        "type": 16002,
        "name": "北上北中学校",
        "address": "北上市二子町秋子沢13",
        "lat": 39.327024,
        "lng": 141.135663
    },
    {
        "code": "C103220600053",
        "type": 16002,
        "name": "上野中学校",
        "address": "北上市上野町4-10-8",
        "lat": 39.30286,
        "lng": 141.127053
    },
    {
        "code": "C103220600062",
        "type": 16002,
        "name": "東陵中学校",
        "address": "北上市立花1-8",
        "lat": 39.289711,
        "lng": 141.144055
    },
    {
        "code": "C103220600071",
        "type": 16002,
        "name": "和賀西中学校",
        "address": "北上市和賀町横川目13-64-1",
        "lat": 39.311752,
        "lng": 140.977418
    },
    {
        "code": "C103220600080",
        "type": 16002,
        "name": "和賀東中学校",
        "address": "北上市和賀町長沼6-1",
        "lat": 39.297259,
        "lng": 141.029367
    },
    {
        "code": "C103220600099",
        "type": 16002,
        "name": "江釣子中学校",
        "address": "北上市上江釣子17-172-1",
        "lat": 39.296653,
        "lng": 141.076726
    },
    {
        "code": "D103210000254",
        "type": 16004,
        "name": "黒沢尻北高等学校",
        "address": "北上市常盤台1-1-69",
        "lat": 39.297027,
        "lng": 141.120943
    },
    {
        "code": "D103210000263",
        "type": 16004,
        "name": "北上翔南高等学校",
        "address": "北上市相去町高前檀13",
        "lat": 39.259504,
        "lng": 141.091229
    },
    {
        "code": "D103210000272",
        "type": 16004,
        "name": "黒沢尻工業高等学校",
        "address": "北上市村崎野24-19",
        "lat": 39.327163,
        "lng": 141.125647
    },
    {
        "code": "D103310000109",
        "type": 16004,
        "name": "専修大学北上高等学校",
        "address": "北上市新殻町2-4-64",
        "lat": 39.290916,
        "lng": 141.110666
    },
    {
        "code": "H103320600014",
        "type": 16016,
        "name": "専修大学北上福祉教育専門学校",
        "address": "北上市鍛冶町1-3-1",
        "lat": 39.288481,
        "lng": 141.107544
    },
    {
        "code": "H203320600013",
        "type": 16015,
        "name": "第一珠算学校",
        "address": "北上市上江釣子17-92",
        "lat": 39.297654,
        "lng": 141.07158
    }
]