[
    {
        "code": "A203320700017",
        "type": 16013,
        "name": "久慈幼稚園",
        "address": "久慈市本町3-11",
        "lat": 40.185213,
        "lng": 141.769125
    },
    {
        "code": "A203320700026",
        "type": 16013,
        "name": "くじあさひ認定こども園",
        "address": "久慈市田屋町2-25-3",
        "lat": 40.197447,
        "lng": 141.77542
    },
    {
        "code": "A203320700035",
        "type": 16013,
        "name": "認定こども園かわぬき",
        "address": "久慈市大沢8-10-8",
        "lat": 40.190161,
        "lng": 141.747679
    },
    {
        "code": "A203320700044",
        "type": 16013,
        "name": "侍浜保育園",
        "address": "久慈市侍浜町外屋敷6-10-4",
        "lat": 40.270553,
        "lng": 141.78734
    },
    {
        "code": "A203320700053",
        "type": 16013,
        "name": "門前保育園",
        "address": "久慈市新中の橋4-11-4",
        "lat": 40.195592,
        "lng": 141.76866
    },
    {
        "code": "B103220700018",
        "type": 16001,
        "name": "久慈小学校",
        "address": "久慈市栄町31-149",
        "lat": 40.195826,
        "lng": 141.753911
    },
    {
        "code": "B103220700027",
        "type": 16001,
        "name": "久慈湊小学校",
        "address": "久慈市湊町15-10-1",
        "lat": 40.196659,
        "lng": 141.785576
    },
    {
        "code": "B103220700036",
        "type": 16001,
        "name": "長内小学校",
        "address": "久慈市長内町25-41",
        "lat": 40.188605,
        "lng": 141.779188
    },
    {
        "code": "B103220700045",
        "type": 16001,
        "name": "小久慈小学校",
        "address": "久慈市小久慈町24-51",
        "lat": 40.170828,
        "lng": 141.748079
    },
    {
        "code": "B103220700054",
        "type": 16001,
        "name": "大川目小学校",
        "address": "久慈市大川目町14-45-1",
        "lat": 40.183604,
        "lng": 141.716415
    },
    {
        "code": "B103220700063",
        "type": 16001,
        "name": "夏井小学校",
        "address": "久慈市夏井町夏井3-57-1",
        "lat": 40.224711,
        "lng": 141.752244
    },
    {
        "code": "B103220700072",
        "type": 16001,
        "name": "平山小学校",
        "address": "久慈市夏井町早坂14-51-7",
        "lat": 40.218046,
        "lng": 141.781686
    },
    {
        "code": "B103220700081",
        "type": 16001,
        "name": "侍浜小学校",
        "address": "久慈市侍浜町保土沢8-27-1",
        "lat": 40.26443,
        "lng": 141.800293
    },
    {
        "code": "B103220700090",
        "type": 16001,
        "name": "宇部小学校",
        "address": "久慈市宇部町5-132-8",
        "lat": 40.133612,
        "lng": 141.789189
    },
    {
        "code": "B103220700107",
        "type": 16001,
        "name": "久喜小学校",
        "address": "久慈市宇部町19-192-1",
        "lat": 40.142778,
        "lng": 141.844461
    },
    {
        "code": "B103220700116",
        "type": 16001,
        "name": "小袖小学校",
        "address": "久慈市宇部町23-128-3",
        "lat": 40.165276,
        "lng": 141.853626
    },
    {
        "code": "B103220700143",
        "type": 16001,
        "name": "来内小学校",
        "address": "久慈市山形町来内22-49-1",
        "lat": 40.111011,
        "lng": 141.502684
    },
    {
        "code": "C103220700016",
        "type": 16002,
        "name": "久慈中学校",
        "address": "久慈市栄町32-88-5",
        "lat": 40.19527,
        "lng": 141.758633
    },
    {
        "code": "C103220700025",
        "type": 16002,
        "name": "長内中学校",
        "address": "久慈市小久慈町39-2-2",
        "lat": 40.172326,
        "lng": 141.763659
    },
    {
        "code": "C103220700034",
        "type": 16002,
        "name": "大川目中学校",
        "address": "久慈市大川目町13-105",
        "lat": 40.180827,
        "lng": 141.714193
    },
    {
        "code": "C103220700043",
        "type": 16002,
        "name": "夏井中学校",
        "address": "久慈市夏井町早坂3-20",
        "lat": 40.218323,
        "lng": 141.76391
    },
    {
        "code": "C103220700052",
        "type": 16002,
        "name": "侍浜中学校",
        "address": "久慈市侍浜町本町9-152",
        "lat": 40.268874,
        "lng": 141.783628
    },
    {
        "code": "C103220700061",
        "type": 16002,
        "name": "宇部中学校",
        "address": "久慈市宇部町6-133-13",
        "lat": 40.126391,
        "lng": 141.78419
    },
    {
        "code": "C103220700070",
        "type": 16002,
        "name": "三崎中学校",
        "address": "久慈市宇部町22-961",
        "lat": 40.149166,
        "lng": 141.851127
    },
    {
        "code": "C103220700089",
        "type": 16002,
        "name": "山形中学校",
        "address": "久慈市山形町川井10-87-11",
        "lat": 40.151001,
        "lng": 141.568205
    },
    {
        "code": "D103210000557",
        "type": 16004,
        "name": "久慈高等学校",
        "address": "久慈市畑田26-96",
        "lat": 40.19218,
        "lng": 141.743238
    },
    {
        "code": "D103210000566",
        "type": 16004,
        "name": "久慈高等学校長内校",
        "address": "久慈市川崎町1-15",
        "lat": 40.191104,
        "lng": 141.776965
    },
    {
        "code": "D103210000575",
        "type": 16004,
        "name": "久慈東高等学校",
        "address": "久慈市門前36-10",
        "lat": 40.200825,
        "lng": 141.763077
    },
    {
        "code": "E103220700011",
        "type": 16012,
        "name": "久慈拓陽支援学校",
        "address": "久慈市侍浜町堀切10-56-46",
        "lat": 40.25693,
        "lng": 141.767796
    }
]