[
    {
        "code": "A103321000013",
        "type": 16011,
        "name": "高田幼稚園",
        "address": "陸前高田市高田町字洞の沢28",
        "lat": 39.01913,
        "lng": 141.631465
    },
    {
        "code": "B103221000013",
        "type": 16001,
        "name": "高田小学校",
        "address": "陸前高田市高田町字下和野1",
        "lat": 39.020571,
        "lng": 141.633085
    },
    {
        "code": "B103221000022",
        "type": 16001,
        "name": "気仙小学校",
        "address": "陸前高田市気仙町字愛宕下1-5",
        "lat": 39.001443,
        "lng": 141.615555
    },
    {
        "code": "B103221000031",
        "type": 16001,
        "name": "広田小学校",
        "address": "陸前高田市広田町字大久保9",
        "lat": 38.965413,
        "lng": 141.695071
    },
    {
        "code": "B103221000040",
        "type": 16001,
        "name": "小友小学校",
        "address": "陸前高田市小友町字宮崎3-2",
        "lat": 38.996007,
        "lng": 141.696599
    },
    {
        "code": "B103221000059",
        "type": 16001,
        "name": "米崎小学校",
        "address": "陸前高田市米崎町字川内1",
        "lat": 39.016796,
        "lng": 141.662572
    },
    {
        "code": "B103221000068",
        "type": 16001,
        "name": "矢作小学校",
        "address": "陸前高田市矢作町字明神前55-1",
        "lat": 39.02815,
        "lng": 141.587573
    },
    {
        "code": "B103221000077",
        "type": 16001,
        "name": "竹駒小学校",
        "address": "陸前高田市竹駒町字仲の沢181",
        "lat": 39.038459,
        "lng": 141.614798
    },
    {
        "code": "B103221000086",
        "type": 16001,
        "name": "横田小学校",
        "address": "陸前高田市横田町字久連坪17-1",
        "lat": 39.080022,
        "lng": 141.580274
    },
    {
        "code": "C103221000011",
        "type": 16002,
        "name": "高田東中学校",
        "address": "陸前高田市米崎町字宇和方130-1",
        "lat": 39.007996,
        "lng": 141.678765
    },
    {
        "code": "C103221000020",
        "type": 16002,
        "name": "高田第一中学校",
        "address": "陸前高田市高田町字鳴石5-1",
        "lat": 39.021813,
        "lng": 141.625397
    },
    {
        "code": "D103210000423",
        "type": 16004,
        "name": "高田高等学校",
        "address": "陸前高田市高田町字長砂78-12",
        "lat": 39.016487,
        "lng": 141.638847
    }
]