[
    {
        "code": "A103321300010",
        "type": 16011,
        "name": "岩手保健医療大学附属認定こども園",
        "address": "二戸市堀野字東側4-14",
        "lat": 40.287802,
        "lng": 141.295855
    },
    {
        "code": "A203321300019",
        "type": 16013,
        "name": "認定こども園ともいき",
        "address": "二戸市福岡字上平27",
        "lat": 40.275837,
        "lng": 141.303813
    },
    {
        "code": "A203321300028",
        "type": 16013,
        "name": "まつのまるこども園",
        "address": "二戸市福岡字橋場19",
        "lat": 40.264889,
        "lng": 141.296429
    },
    {
        "code": "A203321300037",
        "type": 16013,
        "name": "認定こども園ちゃいるどスクール",
        "address": "二戸市石切所字柿ﾉ木平6-1",
        "lat": 40.260853,
        "lng": 141.307732
    },
    {
        "code": "A203321300046",
        "type": 16013,
        "name": "認定こども園ちゃいるどスクール",
        "address": "二戸市石切所字天神下9-1",
        "lat": 40.26058,
        "lng": 141.310089
    },
    {
        "code": "B103221300010",
        "type": 16001,
        "name": "福岡小学校",
        "address": "二戸市福岡字下川又15",
        "lat": 40.272196,
        "lng": 141.303672
    },
    {
        "code": "B103221300029",
        "type": 16001,
        "name": "仁左平小学校",
        "address": "二戸市仁左平字下構55",
        "lat": 40.304692,
        "lng": 141.316447
    },
    {
        "code": "B103221300038",
        "type": 16001,
        "name": "中央小学校",
        "address": "二戸市堀野字下ﾀ川原71-1",
        "lat": 40.290509,
        "lng": 141.29352
    },
    {
        "code": "B103221300047",
        "type": 16001,
        "name": "石切所小学校",
        "address": "二戸市石切所字田尻平4",
        "lat": 40.257753,
        "lng": 141.288118
    },
    {
        "code": "B103221300056",
        "type": 16001,
        "name": "御返地小学校",
        "address": "二戸市安比字上大簗平7-2",
        "lat": 40.235001,
        "lng": 141.220043
    },
    {
        "code": "B103221300065",
        "type": 16001,
        "name": "二戸西小学校",
        "address": "二戸市上斗米字梅木9-1",
        "lat": 40.273581,
        "lng": 141.212292
    },
    {
        "code": "B103221300074",
        "type": 16001,
        "name": "浄法寺小学校",
        "address": "二戸市浄法寺町海上田3-7",
        "lat": 40.182272,
        "lng": 141.15837
    },
    {
        "code": "B103221300083",
        "type": 16001,
        "name": "金田一小学校",
        "address": "二戸市金田一字野月19-2",
        "lat": 40.316357,
        "lng": 141.303115
    },
    {
        "code": "C103221300018",
        "type": 16002,
        "name": "福岡中学校",
        "address": "二戸市福岡字下川又22-1",
        "lat": 40.272752,
        "lng": 141.304505
    },
    {
        "code": "C103221300027",
        "type": 16002,
        "name": "浄法寺中学校",
        "address": "二戸市浄法寺町小池50-1",
        "lat": 40.186829,
        "lng": 141.160383
    },
    {
        "code": "C103221300036",
        "type": 16002,
        "name": "金田一中学校",
        "address": "二戸市金田一字野月55",
        "lat": 40.313857,
        "lng": 141.302004
    },
    {
        "code": "D103210000637",
        "type": 16004,
        "name": "福岡高等学校",
        "address": "二戸市福岡字上平10",
        "lat": 40.274973,
        "lng": 141.30395
    },
    {
        "code": "D103210000646",
        "type": 16004,
        "name": "福岡工業高等学校",
        "address": "二戸市石切所字火行塚2-1",
        "lat": 40.260252,
        "lng": 141.283396
    },
    {
        "code": "H103221300017",
        "type": 16016,
        "name": "二戸高等看護学院",
        "address": "二戸市堀野字大川原毛50-3",
        "lat": 40.301809,
        "lng": 141.306381
    }
]