[
    {
        "code": "A103221500010",
        "type": 16011,
        "name": "佐倉河幼稚園",
        "address": "奥州市水沢佐倉河字曽根15",
        "lat": 39.165545,
        "lng": 141.129049
    },
    {
        "code": "A103221500029",
        "type": 16011,
        "name": "羽田幼稚園",
        "address": "奥州市水沢羽田町字並柳39",
        "lat": 39.138316,
        "lng": 141.180504
    },
    {
        "code": "A103221500038",
        "type": 16011,
        "name": "岩谷堂幼稚園",
        "address": "奥州市江刺南町4-8",
        "lat": 39.19056,
        "lng": 141.181958
    },
    {
        "code": "A103221500047",
        "type": 16011,
        "name": "若柳幼稚園",
        "address": "奥州市胆沢若柳字相馬檀28",
        "lat": 39.130452,
        "lng": 141.060806
    },
    {
        "code": "A103221500056",
        "type": 16011,
        "name": "南都田幼稚園",
        "address": "奥州市胆沢南都田字塚田214-4",
        "lat": 39.138555,
        "lng": 141.089637
    },
    {
        "code": "A103221500074",
        "type": 16011,
        "name": "小山東幼稚園",
        "address": "奥州市胆沢小山字後大畑116",
        "lat": 39.098657,
        "lng": 141.089769
    },
    {
        "code": "A103321500027",
        "type": 16011,
        "name": "ひがし幼稚園",
        "address": "奥州市水沢太日通り3-6-15",
        "lat": 39.136557,
        "lng": 141.154801
    },
    {
        "code": "A103321500036",
        "type": 16011,
        "name": "八日市幼稚園",
        "address": "奥州市江刺岩谷堂字南八日市194",
        "lat": 39.184427,
        "lng": 141.168098
    },
    {
        "code": "A103321500045",
        "type": 16011,
        "name": "こじか幼稚園",
        "address": "奥州市水沢字小石田135-1",
        "lat": 39.149567,
        "lng": 141.135005
    },
    {
        "code": "A203221500019",
        "type": 16013,
        "name": "稲瀬わかば園",
        "address": "奥州市江刺稲瀬字大文字160",
        "lat": 39.214046,
        "lng": 141.153451
    },
    {
        "code": "A203221500028",
        "type": 16013,
        "name": "あゆみ園",
        "address": "奥州市衣川古戸72-1",
        "lat": 39.039213,
        "lng": 141.062663
    },
    {
        "code": "A203221500037",
        "type": 16013,
        "name": "前沢北こども園",
        "address": "奥州市前沢古城字四反田171-1",
        "lat": 39.072752,
        "lng": 141.149143
    },
    {
        "code": "A203321500017",
        "type": 16013,
        "name": "水沢こども園",
        "address": "奥州市水沢字大町26",
        "lat": 39.143126,
        "lng": 141.142724
    },
    {
        "code": "A203321500026",
        "type": 16013,
        "name": "認定こども園日高ななつ星",
        "address": "奥州市水沢字日高小路17",
        "lat": 39.142278,
        "lng": 141.132978
    },
    {
        "code": "A203321500035",
        "type": 16013,
        "name": "こばとこども園",
        "address": "奥州市水沢字大橋6",
        "lat": 39.130239,
        "lng": 141.130108
    },
    {
        "code": "A203321500044",
        "type": 16013,
        "name": "認定こども園日高さくらの木",
        "address": "奥州市水沢字北丑沢72-1",
        "lat": 39.154758,
        "lng": 141.13914
    },
    {
        "code": "A203321500053",
        "type": 16013,
        "name": "幼保連携型認定こども園駒形こどもの杜",
        "address": "奥州市水沢中上野町1-83",
        "lat": 39.136165,
        "lng": 141.137782
    },
    {
        "code": "A203321500062",
        "type": 16013,
        "name": "しんじょう幼稚園",
        "address": "奥州市水沢真城字大檀10-8",
        "lat": 39.118181,
        "lng": 141.145818
    },
    {
        "code": "A203321500071",
        "type": 16013,
        "name": "ドレミこども園",
        "address": "奥州市水沢佐倉河字野田30-7",
        "lat": 39.141857,
        "lng": 141.161505
    },
    {
        "code": "A203321500080",
        "type": 16013,
        "name": "姉体幼稚園",
        "address": "奥州市水沢姉体町字島田40",
        "lat": 39.105318,
        "lng": 141.168305
    },
    {
        "code": "A203321500099",
        "type": 16013,
        "name": "むつみこども園",
        "address": "奥州市水沢秋葉町110",
        "lat": 39.147857,
        "lng": 141.144126
    },
    {
        "code": "A203321500106",
        "type": 16013,
        "name": "常盤幼稚園",
        "address": "奥州市水沢東大通り3-5-31",
        "lat": 39.13822,
        "lng": 141.15602
    },
    {
        "code": "A203321500115",
        "type": 16013,
        "name": "幼保連携型認定こども園ドレミのそら",
        "address": "奥州市水沢佐倉河字前田43-1",
        "lat": 39.141824,
        "lng": 141.161436
    },
    {
        "code": "B103221500018",
        "type": 16001,
        "name": "水沢小学校",
        "address": "奥州市水沢字堀ﾉ内4-2",
        "lat": 39.14576,
        "lng": 141.133221
    },
    {
        "code": "B103221500027",
        "type": 16001,
        "name": "水沢南小学校",
        "address": "奥州市水沢福吉町3-24",
        "lat": 39.131308,
        "lng": 141.131708
    },
    {
        "code": "B103221500036",
        "type": 16001,
        "name": "常盤小学校",
        "address": "奥州市水沢神明町1-1-5",
        "lat": 39.139164,
        "lng": 141.15734
    },
    {
        "code": "B103221500045",
        "type": 16001,
        "name": "佐倉河小学校",
        "address": "奥州市水沢佐倉河字曽根7",
        "lat": 39.164898,
        "lng": 141.128338
    },
    {
        "code": "B103221500054",
        "type": 16001,
        "name": "真城小学校",
        "address": "奥州市水沢真城字高田44-1",
        "lat": 39.114166,
        "lng": 141.145428
    },
    {
        "code": "B103221500063",
        "type": 16001,
        "name": "姉体小学校",
        "address": "奥州市水沢姉体町字京原70",
        "lat": 39.106659,
        "lng": 141.166911
    },
    {
        "code": "B103221500072",
        "type": 16001,
        "name": "羽田小学校",
        "address": "奥州市水沢羽田町字洗田362",
        "lat": 39.135172,
        "lng": 141.19015
    },
    {
        "code": "B103221500081",
        "type": 16001,
        "name": "黒石小学校",
        "address": "奥州市水沢黒石町字長根2-15",
        "lat": 39.090342,
        "lng": 141.196743
    },
    {
        "code": "B103221500090",
        "type": 16001,
        "name": "岩谷堂小学校",
        "address": "奥州市江刺岩谷堂字一本松32",
        "lat": 39.194658,
        "lng": 141.16939
    },
    {
        "code": "B103221500107",
        "type": 16001,
        "name": "江刺愛宕小学校",
        "address": "奥州市江刺愛宕字西下川原8",
        "lat": 39.177042,
        "lng": 141.151222
    },
    {
        "code": "B103221500116",
        "type": 16001,
        "name": "田原小学校",
        "address": "奥州市江刺田原字駒場108",
        "lat": 39.154398,
        "lng": 141.210802
    },
    {
        "code": "B103221500125",
        "type": 16001,
        "name": "大田代小学校",
        "address": "奥州市江刺田原字大平42",
        "lat": 39.120332,
        "lng": 141.253914
    },
    {
        "code": "B103221500134",
        "type": 16001,
        "name": "藤里小学校",
        "address": "奥州市江刺藤里字上長沢38",
        "lat": 39.182608,
        "lng": 141.246832
    },
    {
        "code": "B103221500143",
        "type": 16001,
        "name": "伊手小学校",
        "address": "奥州市江刺伊手字西風102",
        "lat": 39.178573,
        "lng": 141.300783
    },
    {
        "code": "B103221500152",
        "type": 16001,
        "name": "人首小学校",
        "address": "奥州市江刺米里字荒田表85-1",
        "lat": 39.235424,
        "lng": 141.311083
    },
    {
        "code": "B103221500161",
        "type": 16001,
        "name": "木細工小学校",
        "address": "奥州市江刺米里字向木細工228",
        "lat": 39.196758,
        "lng": 141.348972
    },
    {
        "code": "B103221500189",
        "type": 16001,
        "name": "梁川小学校",
        "address": "奥州市江刺梁川字日の神112",
        "lat": 39.280427,
        "lng": 141.26465
    },
    {
        "code": "B103221500198",
        "type": 16001,
        "name": "広瀬小学校",
        "address": "奥州市江刺広瀬字柿ﾉ木421-3",
        "lat": 39.254474,
        "lng": 141.210749
    },
    {
        "code": "B103221500205",
        "type": 16001,
        "name": "稲瀬小学校",
        "address": "奥州市江刺稲瀬字下台12",
        "lat": 39.216022,
        "lng": 141.1568
    },
    {
        "code": "B103221500214",
        "type": 16001,
        "name": "前沢小学校",
        "address": "奥州市前沢字河ﾉ畑71-1",
        "lat": 39.062826,
        "lng": 141.133583
    },
    {
        "code": "B103221500223",
        "type": 16001,
        "name": "南都田小学校",
        "address": "奥州市胆沢南都田字塚田126",
        "lat": 39.138902,
        "lng": 141.087278
    },
    {
        "code": "B103221500232",
        "type": 16001,
        "name": "若柳小学校",
        "address": "奥州市胆沢若柳字箸塚181",
        "lat": 39.1297,
        "lng": 141.058179
    },
    {
        "code": "B103221500241",
        "type": 16001,
        "name": "胆沢愛宕小学校",
        "address": "奥州市胆沢若柳字愛宕350",
        "lat": 39.126765,
        "lng": 140.987627
    },
    {
        "code": "B103221500250",
        "type": 16001,
        "name": "胆沢第一小学校",
        "address": "奥州市胆沢小山字道場30",
        "lat": 39.096328,
        "lng": 141.079956
    },
    {
        "code": "B103221500269",
        "type": 16001,
        "name": "衣里小学校",
        "address": "奥州市衣川堰下7-2",
        "lat": 39.020097,
        "lng": 141.094934
    },
    {
        "code": "B103221500278",
        "type": 16001,
        "name": "衣川小学校",
        "address": "奥州市衣川古戸414-1",
        "lat": 39.041386,
        "lng": 141.067509
    },
    {
        "code": "C103221500016",
        "type": 16002,
        "name": "水沢中学校",
        "address": "奥州市水沢字南丑沢10-1",
        "lat": 39.15253,
        "lng": 141.136932
    },
    {
        "code": "C103221500025",
        "type": 16002,
        "name": "東水沢中学校",
        "address": "奥州市水沢佐倉河字瀬ﾉ上2-5",
        "lat": 39.139642,
        "lng": 141.166421
    },
    {
        "code": "C103221500034",
        "type": 16002,
        "name": "水沢南中学校",
        "address": "奥州市水沢真城字大檀39-1",
        "lat": 39.117638,
        "lng": 141.142645
    },
    {
        "code": "C103221500043",
        "type": 16002,
        "name": "江刺南中学校",
        "address": "奥州市江刺藤里字外ﾉ沢875",
        "lat": 39.179701,
        "lng": 141.272807
    },
    {
        "code": "C103221500052",
        "type": 16002,
        "name": "江刺第一中学校",
        "address": "奥州市江刺岩谷堂字小境1",
        "lat": 39.191589,
        "lng": 141.169496
    },
    {
        "code": "C103221500061",
        "type": 16002,
        "name": "江刺東中学校",
        "address": "奥州市江刺玉里字後沢76-1",
        "lat": 39.235727,
        "lng": 141.245952
    },
    {
        "code": "C103221500070",
        "type": 16002,
        "name": "前沢中学校",
        "address": "奥州市前沢字久田31",
        "lat": 39.057445,
        "lng": 141.138155
    },
    {
        "code": "C103221500089",
        "type": 16002,
        "name": "衣川中学校",
        "address": "奥州市衣川古戸403-1",
        "lat": 39.04169,
        "lng": 141.066727
    },
    {
        "code": "C103221500098",
        "type": 16002,
        "name": "胆沢中学校",
        "address": "奥州市胆沢南都田字蛸ﾉ手6-1",
        "lat": 39.114961,
        "lng": 141.069763
    },
    {
        "code": "D103210000094",
        "type": 16004,
        "name": "杜陵高等学校奥州校",
        "address": "奥州市水沢西町3-20",
        "lat": 39.137485,
        "lng": 141.136051
    },
    {
        "code": "D103210000290",
        "type": 16004,
        "name": "水沢高等学校",
        "address": "奥州市水沢龍ｹ馬場5-1",
        "lat": 39.12315,
        "lng": 141.139032
    },
    {
        "code": "D103210000307",
        "type": 16004,
        "name": "水沢農業高等学校",
        "address": "奥州市胆沢小山字笹森1",
        "lat": 39.111779,
        "lng": 141.116134
    },
    {
        "code": "D103210000316",
        "type": 16004,
        "name": "水沢工業高等学校",
        "address": "奥州市水沢佐倉河字道下100-1",
        "lat": 39.155612,
        "lng": 141.150309
    },
    {
        "code": "D103210000325",
        "type": 16004,
        "name": "水沢商業高等学校",
        "address": "奥州市水沢字土器田1",
        "lat": 39.144197,
        "lng": 141.125996
    },
    {
        "code": "D103210000334",
        "type": 16004,
        "name": "前沢高等学校",
        "address": "奥州市前沢字狐石36-1",
        "lat": 39.064084,
        "lng": 141.122629
    },
    {
        "code": "D103210000352",
        "type": 16004,
        "name": "岩谷堂高等学校",
        "address": "奥州市江刺岩谷堂字根岸116",
        "lat": 39.204701,
        "lng": 141.169769
    },
    {
        "code": "D103310000118",
        "type": 16004,
        "name": "協和学院水沢第一高等学校",
        "address": "奥州市水沢字森下20-1",
        "lat": 39.123019,
        "lng": 141.112863
    },
    {
        "code": "E103221500011",
        "type": 16012,
        "name": "前沢明峰支援学校",
        "address": "奥州市前沢字田畠18-1",
        "lat": 39.059554,
        "lng": 141.126506
    },
    {
        "code": "H103321500013",
        "type": 16016,
        "name": "水沢学苑看護専門学校",
        "address": "奥州市水沢字多賀21-2",
        "lat": 39.151025,
        "lng": 141.145201
    }
]