[
    {
        "code": "A132220500543",
        "type": 16011,
        "name": "大田幼稚園",
        "address": "大田市大田町大田ｲ597",
        "lat": 35.194322,
        "lng": 132.508664
    },
    {
        "code": "A132220500721",
        "type": 16011,
        "name": "井田幼稚園",
        "address": "大田市温泉津町井田ﾛ255",
        "lat": 35.032184,
        "lng": 132.38651
    },
    {
        "code": "B132220501336",
        "type": 16001,
        "name": "大田小学校",
        "address": "大田市大田町大田ｲ590",
        "lat": 35.194542,
        "lng": 132.507845
    },
    {
        "code": "B132220501345",
        "type": 16001,
        "name": "長久小学校",
        "address": "大田市長久町長久ｲ782",
        "lat": 35.195774,
        "lng": 132.483005
    },
    {
        "code": "B132220501354",
        "type": 16001,
        "name": "五十猛小学校",
        "address": "大田市五十猛町1518",
        "lat": 35.188041,
        "lng": 132.43052
    },
    {
        "code": "B132220501363",
        "type": 16001,
        "name": "静間小学校",
        "address": "大田市静間町548",
        "lat": 35.203346,
        "lng": 132.462321
    },
    {
        "code": "B132220501372",
        "type": 16001,
        "name": "鳥井小学校",
        "address": "大田市鳥井町鳥井417",
        "lat": 35.218955,
        "lng": 132.480792
    },
    {
        "code": "B132220501381",
        "type": 16001,
        "name": "久手小学校",
        "address": "大田市久手町刺鹿2585",
        "lat": 35.227789,
        "lng": 132.509733
    },
    {
        "code": "B132220501390",
        "type": 16001,
        "name": "朝波小学校",
        "address": "大田市波根町15",
        "lat": 35.24423,
        "lng": 132.541424
    },
    {
        "code": "B132220501407",
        "type": 16001,
        "name": "北三瓶小学校",
        "address": "大田市三瓶町多根ｲ934",
        "lat": 35.168906,
        "lng": 132.618724
    },
    {
        "code": "B132220501416",
        "type": 16001,
        "name": "志学小学校",
        "address": "大田市三瓶町志学2065",
        "lat": 35.11533,
        "lng": 132.635112
    },
    {
        "code": "B132220501425",
        "type": 16001,
        "name": "池田小学校",
        "address": "大田市三瓶町池田2242",
        "lat": 35.147187,
        "lng": 132.583978
    },
    {
        "code": "B132220501434",
        "type": 16001,
        "name": "川合小学校",
        "address": "大田市川合町川合3025",
        "lat": 35.152019,
        "lng": 132.514038
    },
    {
        "code": "B132220501443",
        "type": 16001,
        "name": "久屋小学校",
        "address": "大田市久利町久利794-2",
        "lat": 35.152797,
        "lng": 132.474181
    },
    {
        "code": "B132220501452",
        "type": 16001,
        "name": "大森小学校",
        "address": "大田市大森町ﾆ32",
        "lat": 35.111192,
        "lng": 132.439993
    },
    {
        "code": "B132220501461",
        "type": 16001,
        "name": "高山小学校",
        "address": "大田市水上町白坏140",
        "lat": 35.074056,
        "lng": 132.456075
    },
    {
        "code": "B132220501470",
        "type": 16001,
        "name": "温泉津小学校",
        "address": "大田市温泉津町福光ﾊ467-1",
        "lat": 35.072514,
        "lng": 132.333824
    },
    {
        "code": "B132220501489",
        "type": 16001,
        "name": "仁摩小学校",
        "address": "大田市仁摩町仁万176-2",
        "lat": 35.15012,
        "lng": 132.399127
    },
    {
        "code": "C132220500576",
        "type": 16002,
        "name": "第一中学校",
        "address": "大田市大田町大田ﾛ656",
        "lat": 35.184654,
        "lng": 132.508233
    },
    {
        "code": "C132220500585",
        "type": 16002,
        "name": "第二中学校",
        "address": "大田市久手町刺鹿522-1",
        "lat": 35.2164,
        "lng": 132.504401
    },
    {
        "code": "C132220500594",
        "type": 16002,
        "name": "北三瓶中学校",
        "address": "大田市三瓶町多根ｲ938-13",
        "lat": 35.169212,
        "lng": 132.619279
    },
    {
        "code": "C132220500601",
        "type": 16002,
        "name": "志学中学校",
        "address": "大田市三瓶町志学ﾛ367",
        "lat": 35.114969,
        "lng": 132.635629
    },
    {
        "code": "C132220500610",
        "type": 16002,
        "name": "第三中学校",
        "address": "大田市水上町福原601",
        "lat": 35.093804,
        "lng": 132.459352
    },
    {
        "code": "C132220500629",
        "type": 16002,
        "name": "大田西中学校",
        "address": "大田市仁摩町仁万387-2",
        "lat": 35.150901,
        "lng": 132.400104
    },
    {
        "code": "D132220500217",
        "type": 16004,
        "name": "大田高等学校",
        "address": "大田市大田町大田ｲ568",
        "lat": 35.193625,
        "lng": 132.509678
    },
    {
        "code": "D132220500226",
        "type": 16004,
        "name": "邇摩高等学校",
        "address": "大田市仁摩町仁万907",
        "lat": 35.153592,
        "lng": 132.407086
    }
]