[
    {
        "code": "B132250101827",
        "type": 16001,
        "name": "津和野小学校",
        "address": "鹿足郡津和野町森村ﾛ104",
        "lat": 34.464141,
        "lng": 131.771896
    },
    {
        "code": "B132250101836",
        "type": 16001,
        "name": "木部小学校",
        "address": "鹿足郡津和野町中川424",
        "lat": 34.526216,
        "lng": 131.723122
    },
    {
        "code": "B132250101845",
        "type": 16001,
        "name": "日原小学校",
        "address": "鹿足郡津和野町日原235",
        "lat": 34.544621,
        "lng": 131.836883
    },
    {
        "code": "B132250101854",
        "type": 16001,
        "name": "青原小学校",
        "address": "鹿足郡津和野町青原300",
        "lat": 34.578738,
        "lng": 131.795141
    },
    {
        "code": "C132250100835",
        "type": 16002,
        "name": "津和野中学校",
        "address": "鹿足郡津和野町町田ｲ26",
        "lat": 34.456133,
        "lng": 131.769948
    },
    {
        "code": "C132250100844",
        "type": 16002,
        "name": "日原中学校",
        "address": "鹿足郡津和野町日原564",
        "lat": 34.552324,
        "lng": 131.835305
    },
    {
        "code": "D132250100334",
        "type": 16004,
        "name": "津和野高等学校",
        "address": "鹿足郡津和野町後田ﾊ12-3",
        "lat": 34.461447,
        "lng": 131.769202
    }
]