[
    {
        "code": "A133210001921",
        "type": 16011,
        "name": "つやま東幼稚園",
        "address": "津山市高野本郷1270-1",
        "lat": 35.072685,
        "lng": 134.050333
    },
    {
        "code": "A133210001930",
        "type": 16011,
        "name": "つやま西幼稚園",
        "address": "津山市二宮1982-2",
        "lat": 35.060762,
        "lng": 133.968354
    },
    {
        "code": "A133310000289",
        "type": 16011,
        "name": "明星幼稚園",
        "address": "津山市平福875-1",
        "lat": 35.046166,
        "lng": 133.965701
    },
    {
        "code": "A133310000298",
        "type": 16011,
        "name": "美作大学附属幼稚園",
        "address": "津山市北園町75",
        "lat": 35.075392,
        "lng": 134.007478
    },
    {
        "code": "A233210000253",
        "type": 16013,
        "name": "勝北風の子こども園",
        "address": "津山市新野東600-1",
        "lat": 35.105643,
        "lng": 134.109563
    },
    {
        "code": "A233310000091",
        "type": 16013,
        "name": "しらゆり幼稚園",
        "address": "津山市上河原153",
        "lat": 35.081233,
        "lng": 134.005603
    },
    {
        "code": "B133210000877",
        "type": 16001,
        "name": "東小学校",
        "address": "津山市山北740",
        "lat": 35.07144,
        "lng": 134.009097
    },
    {
        "code": "B133210000886",
        "type": 16001,
        "name": "西小学校",
        "address": "津山市小田中1360",
        "lat": 35.062246,
        "lng": 133.992377
    },
    {
        "code": "B133210000895",
        "type": 16001,
        "name": "南小学校",
        "address": "津山市昭和町2-73-1",
        "lat": 35.055025,
        "lng": 133.995627
    },
    {
        "code": "B133210000902",
        "type": 16001,
        "name": "北小学校",
        "address": "津山市山北238",
        "lat": 35.069523,
        "lng": 134.000932
    },
    {
        "code": "B133210000911",
        "type": 16001,
        "name": "林田小学校",
        "address": "津山市川崎850",
        "lat": 35.064386,
        "lng": 134.025457
    },
    {
        "code": "B133210000920",
        "type": 16001,
        "name": "院庄小学校",
        "address": "津山市院庄1041",
        "lat": 35.060773,
        "lng": 133.947409
    },
    {
        "code": "B133210000939",
        "type": 16001,
        "name": "佐良山小学校",
        "address": "津山市皿657-2",
        "lat": 35.044442,
        "lng": 133.969602
    },
    {
        "code": "B133210000948",
        "type": 16001,
        "name": "一宮小学校",
        "address": "津山市東一宮87-1",
        "lat": 35.101742,
        "lng": 133.999875
    },
    {
        "code": "B133210000957",
        "type": 16001,
        "name": "高田小学校",
        "address": "津山市下横野1075",
        "lat": 35.116102,
        "lng": 134.024344
    },
    {
        "code": "B133210000966",
        "type": 16001,
        "name": "清泉小学校",
        "address": "津山市綾部407",
        "lat": 35.119269,
        "lng": 134.070645
    },
    {
        "code": "B133210000975",
        "type": 16001,
        "name": "高倉小学校",
        "address": "津山市下高倉西12",
        "lat": 35.099659,
        "lng": 134.043426
    },
    {
        "code": "B133210000984",
        "type": 16001,
        "name": "高野小学校",
        "address": "津山市高野本郷1041",
        "lat": 35.076162,
        "lng": 134.052566
    },
    {
        "code": "B133210000993",
        "type": 16001,
        "name": "成名小学校",
        "address": "津山市野村135-2",
        "lat": 35.09055,
        "lng": 134.074118
    },
    {
        "code": "B133210001000",
        "type": 16001,
        "name": "河辺小学校",
        "address": "津山市国分寺505",
        "lat": 35.049665,
        "lng": 134.042818
    },
    {
        "code": "B133210001019",
        "type": 16001,
        "name": "大崎小学校",
        "address": "津山市金井76",
        "lat": 35.044195,
        "lng": 134.065232
    },
    {
        "code": "B133210001028",
        "type": 16001,
        "name": "広野小学校",
        "address": "津山市田熊1943",
        "lat": 35.069775,
        "lng": 134.082368
    },
    {
        "code": "B133210001037",
        "type": 16001,
        "name": "向陽小学校",
        "address": "津山市二宮608-1",
        "lat": 35.060134,
        "lng": 133.964852
    },
    {
        "code": "B133210001046",
        "type": 16001,
        "name": "鶴山小学校",
        "address": "津山市志戸部121",
        "lat": 35.079245,
        "lng": 134.023012
    },
    {
        "code": "B133210001055",
        "type": 16001,
        "name": "弥生小学校",
        "address": "津山市大田121",
        "lat": 35.085855,
        "lng": 134.00968
    },
    {
        "code": "B133210003419",
        "type": 16001,
        "name": "加茂小学校",
        "address": "津山市加茂町塔中80",
        "lat": 35.177702,
        "lng": 134.056198
    },
    {
        "code": "B133210003552",
        "type": 16001,
        "name": "広戸小学校",
        "address": "津山市市場1080-1",
        "lat": 35.127769,
        "lng": 134.123085
    },
    {
        "code": "B133210003561",
        "type": 16001,
        "name": "新野小学校",
        "address": "津山市西中591",
        "lat": 35.109632,
        "lng": 134.108142
    },
    {
        "code": "B133210003570",
        "type": 16001,
        "name": "勝加茂小学校",
        "address": "津山市中村125",
        "lat": 35.090162,
        "lng": 134.102004
    },
    {
        "code": "B133210003712",
        "type": 16001,
        "name": "喬松小学校",
        "address": "津山市坪井上100-1",
        "lat": 35.061687,
        "lng": 133.853361
    },
    {
        "code": "B133210003721",
        "type": 16001,
        "name": "中正小学校",
        "address": "津山市宮部下686",
        "lat": 35.07102,
        "lng": 133.884275
    },
    {
        "code": "B133210003730",
        "type": 16001,
        "name": "誠道小学校",
        "address": "津山市久米川南919",
        "lat": 35.053912,
        "lng": 133.919106
    },
    {
        "code": "B133210003749",
        "type": 16001,
        "name": "秀実小学校",
        "address": "津山市桑上1",
        "lat": 35.023721,
        "lng": 133.91019
    },
    {
        "code": "C133210000438",
        "type": 16002,
        "name": "北陵中学校",
        "address": "津山市大田160",
        "lat": 35.086661,
        "lng": 134.009402
    },
    {
        "code": "C133210000447",
        "type": 16002,
        "name": "鶴山中学校",
        "address": "津山市山北290",
        "lat": 35.071606,
        "lng": 133.999654
    },
    {
        "code": "C133210000456",
        "type": 16002,
        "name": "津山東中学校",
        "address": "津山市押入1110",
        "lat": 35.066358,
        "lng": 134.038095
    },
    {
        "code": "C133210000465",
        "type": 16002,
        "name": "津山西中学校",
        "address": "津山市二宮1256-1",
        "lat": 35.062607,
        "lng": 133.972768
    },
    {
        "code": "C133210000474",
        "type": 16002,
        "name": "中道中学校",
        "address": "津山市勝部355",
        "lat": 35.0858,
        "lng": 134.021068
    },
    {
        "code": "C133210000483",
        "type": 16002,
        "name": "津山中学校",
        "address": "津山市椿高下62",
        "lat": 35.067518,
        "lng": 134.000896
    },
    {
        "code": "C133210001393",
        "type": 16002,
        "name": "加茂中学校",
        "address": "津山市加茂町桑原280",
        "lat": 35.174447,
        "lng": 134.057517
    },
    {
        "code": "C133210001446",
        "type": 16002,
        "name": "勝北中学校",
        "address": "津山市原371",
        "lat": 35.100022,
        "lng": 134.106031
    },
    {
        "code": "C133210001534",
        "type": 16002,
        "name": "久米中学校",
        "address": "津山市南方中1487-1",
        "lat": 35.054939,
        "lng": 133.897052
    },
    {
        "code": "D133210000150",
        "type": 16004,
        "name": "津山高等学校",
        "address": "津山市椿高下62",
        "lat": 35.067357,
        "lng": 134.001265
    },
    {
        "code": "D133210000169",
        "type": 16004,
        "name": "津山工業高等学校",
        "address": "津山市山北411-1",
        "lat": 35.07269,
        "lng": 134.00232
    },
    {
        "code": "D133210000178",
        "type": 16004,
        "name": "津山商業高等学校",
        "address": "津山市山北531",
        "lat": 35.070329,
        "lng": 134.004487
    },
    {
        "code": "D133210000187",
        "type": 16004,
        "name": "津山東高等学校",
        "address": "津山市林田1200",
        "lat": 35.066941,
        "lng": 134.015791
    },
    {
        "code": "D133310000103",
        "type": 16004,
        "name": "岡山県美作高等学校",
        "address": "津山市山北500",
        "lat": 35.067274,
        "lng": 134.005542
    },
    {
        "code": "D133310000112",
        "type": 16004,
        "name": "岡山県作陽高等学校",
        "address": "津山市八出1320",
        "lat": 35.056581,
        "lng": 134.01057
    },
    {
        "code": "F133310109670",
        "type": 16007,
        "name": "美作大学",
        "address": "津山市北園町50",
        "lat": 35.076584,
        "lng": 134.007925
    },
    {
        "code": "F233310109740",
        "type": 16006,
        "name": "美作大学短期大学部",
        "address": "津山市北園町50",
        "lat": 35.076627,
        "lng": 134.008159
    },
    {
        "code": "G133110109770",
        "type": 16005,
        "name": "津山工業高等専門学校",
        "address": "津山市沼624-1",
        "lat": 35.080911,
        "lng": 134.012986
    },
    {
        "code": "H133310000060",
        "type": 16016,
        "name": "文化服装専門学校",
        "address": "津山市元魚町8",
        "lat": 35.060269,
        "lng": 134.000801
    },
    {
        "code": "H133310000391",
        "type": 16016,
        "name": "津山服装専門学校",
        "address": "津山市元魚町62",
        "lat": 35.060277,
        "lng": 134.000471
    },
    {
        "code": "H133310000408",
        "type": 16016,
        "name": "津山中央看護専門学校",
        "address": "津山市川崎1760",
        "lat": 35.063467,
        "lng": 134.038334
    },
    {
        "code": "H233310000069",
        "type": 16015,
        "name": "沼自動車学校",
        "address": "津山市沼121",
        "lat": 35.084036,
        "lng": 134.010091
    }
]