[
    {
        "code": "A133210000575",
        "type": 16011,
        "name": "日比幼稚園",
        "address": "玉野市御崎2-3-7",
        "lat": 34.461,
        "lng": 133.927748
    },
    {
        "code": "A133210000584",
        "type": 16011,
        "name": "荘内幼稚園",
        "address": "玉野市用吉1102",
        "lat": 34.512054,
        "lng": 133.895257
    },
    {
        "code": "A133210000593",
        "type": 16011,
        "name": "宇野幼稚園",
        "address": "玉野市宇野2-14-16",
        "lat": 34.490915,
        "lng": 133.942184
    },
    {
        "code": "A133210000600",
        "type": 16011,
        "name": "和田幼稚園",
        "address": "玉野市和田6-12-2",
        "lat": 34.472739,
        "lng": 133.917069
    },
    {
        "code": "A133210000619",
        "type": 16011,
        "name": "田井幼稚園",
        "address": "玉野市田井3-22-36",
        "lat": 34.516408,
        "lng": 133.948897
    },
    {
        "code": "A133210000628",
        "type": 16011,
        "name": "荘内南幼稚園",
        "address": "玉野市滝58",
        "lat": 34.495886,
        "lng": 133.884263
    },
    {
        "code": "B133210001064",
        "type": 16001,
        "name": "田井小学校",
        "address": "玉野市田井3-4-1",
        "lat": 34.515888,
        "lng": 133.945259
    },
    {
        "code": "B133210001073",
        "type": 16001,
        "name": "築港小学校",
        "address": "玉野市築港3-15-1",
        "lat": 34.501584,
        "lng": 133.946703
    },
    {
        "code": "B133210001082",
        "type": 16001,
        "name": "宇野小学校",
        "address": "玉野市宇野2-23-1",
        "lat": 34.489612,
        "lng": 133.941759
    },
    {
        "code": "B133210001091",
        "type": 16001,
        "name": "玉小学校",
        "address": "玉野市玉6-20-22",
        "lat": 34.485307,
        "lng": 133.928149
    },
    {
        "code": "B133210001108",
        "type": 16001,
        "name": "日比小学校",
        "address": "玉野市御崎1-1-1",
        "lat": 34.464503,
        "lng": 133.926066
    },
    {
        "code": "B133210001117",
        "type": 16001,
        "name": "第二日比小学校",
        "address": "玉野市明神町1-1",
        "lat": 34.459198,
        "lng": 133.923927
    },
    {
        "code": "B133210001126",
        "type": 16001,
        "name": "山田小学校",
        "address": "玉野市山田422",
        "lat": 34.546858,
        "lng": 133.990337
    },
    {
        "code": "B133210001135",
        "type": 16001,
        "name": "後閑小学校",
        "address": "玉野市後閑1421",
        "lat": 34.53572,
        "lng": 133.977506
    },
    {
        "code": "B133210001144",
        "type": 16001,
        "name": "荘内小学校",
        "address": "玉野市木目498",
        "lat": 34.511054,
        "lng": 133.890707
    },
    {
        "code": "B133210001153",
        "type": 16001,
        "name": "八浜小学校",
        "address": "玉野市八浜町波知29",
        "lat": 34.553578,
        "lng": 133.947313
    },
    {
        "code": "B133210001162",
        "type": 16001,
        "name": "大崎小学校",
        "address": "玉野市東七区3-3",
        "lat": 34.535691,
        "lng": 133.929981
    },
    {
        "code": "B133210001171",
        "type": 16001,
        "name": "玉原小学校",
        "address": "玉野市玉原2-22-1",
        "lat": 34.480224,
        "lng": 133.909261
    },
    {
        "code": "B133210002492",
        "type": 16001,
        "name": "鉾立小学校",
        "address": "玉野市北方1274",
        "lat": 34.566383,
        "lng": 134.016417
    },
    {
        "code": "B133210002508",
        "type": 16001,
        "name": "胸上小学校",
        "address": "玉野市梶岡639",
        "lat": 34.554162,
        "lng": 133.99953
    },
    {
        "code": "C133210000492",
        "type": 16002,
        "name": "宇野中学校",
        "address": "玉野市築港2-27-1",
        "lat": 34.498528,
        "lng": 133.949925
    },
    {
        "code": "C133210000508",
        "type": 16002,
        "name": "玉中学校",
        "address": "玉野市奥玉1-27-1",
        "lat": 34.48889,
        "lng": 133.921427
    },
    {
        "code": "C133210000517",
        "type": 16002,
        "name": "日比中学校",
        "address": "玉野市和田6-13-1",
        "lat": 34.47078,
        "lng": 133.917205
    },
    {
        "code": "C133210000526",
        "type": 16002,
        "name": "山田中学校",
        "address": "玉野市後閑1995",
        "lat": 34.529276,
        "lng": 133.98931
    },
    {
        "code": "C133210000535",
        "type": 16002,
        "name": "荘内中学校",
        "address": "玉野市木目1373",
        "lat": 34.506582,
        "lng": 133.889818
    },
    {
        "code": "C133210000544",
        "type": 16002,
        "name": "八浜中学校",
        "address": "玉野市八浜町八浜1438",
        "lat": 34.555439,
        "lng": 133.943591
    },
    {
        "code": "C133210001053",
        "type": 16002,
        "name": "東児中学校",
        "address": "玉野市北方444",
        "lat": 34.566439,
        "lng": 134.00914
    },
    {
        "code": "D133210000196",
        "type": 16004,
        "name": "玉野高等学校",
        "address": "玉野市築港3-11-1",
        "lat": 34.5,
        "lng": 133.947314
    },
    {
        "code": "D133210000436",
        "type": 16004,
        "name": "玉野光南高等学校",
        "address": "玉野市東七区244",
        "lat": 34.544635,
        "lng": 133.935814
    },
    {
        "code": "D133210000490",
        "type": 16004,
        "name": "玉野商工高等学校",
        "address": "玉野市玉6-1-1",
        "lat": 34.486557,
        "lng": 133.931788
    },
    {
        "code": "D133210000560",
        "type": 16004,
        "name": "玉野備南高等学校",
        "address": "玉野市和田4-7-1",
        "lat": 34.469503,
        "lng": 133.916927
    },
    {
        "code": "H133310000417",
        "type": 16016,
        "name": "玉野総合医療専門学校",
        "address": "玉野市築港1-1-20",
        "lat": 34.499262,
        "lng": 133.953006
    },
    {
        "code": "H233310000103",
        "type": 16015,
        "name": "玉野ドレスメーカー女学院",
        "address": "玉野市玉1-16-4",
        "lat": 34.484338,
        "lng": 133.932024
    }
]