[
    {
        "code": "A133210001556",
        "type": 16011,
        "name": "金光幼稚園",
        "address": "浅口市金光町占見新田288-1",
        "lat": 34.542204,
        "lng": 133.61816
    },
    {
        "code": "A133210001565",
        "type": 16011,
        "name": "鴨方東幼稚園",
        "address": "浅口市鴨方町鴨方141",
        "lat": 34.545226,
        "lng": 133.588721
    },
    {
        "code": "A133210001574",
        "type": 16011,
        "name": "鴨方西幼稚園",
        "address": "浅口市鴨方町小坂東2207",
        "lat": 34.548665,
        "lng": 133.568353
    },
    {
        "code": "A233210000271",
        "type": 16013,
        "name": "寄島こども園",
        "address": "浅口市寄島町16089-4",
        "lat": 34.479375,
        "lng": 133.585577
    },
    {
        "code": "A233210000324",
        "type": 16013,
        "name": "六条院こども園",
        "address": "浅口市鴨方町六条院中2072",
        "lat": 34.523317,
        "lng": 133.582813
    },
    {
        "code": "A233310000046",
        "type": 16013,
        "name": "金光学園こども園",
        "address": "浅口市金光町大谷499-1",
        "lat": 34.536756,
        "lng": 133.624303
    },
    {
        "code": "A233310000135",
        "type": 16013,
        "name": "浅口はちまん認定こども園",
        "address": "浅口市鴨方町鴨方1540-1",
        "lat": 34.540415,
        "lng": 133.59264
    },
    {
        "code": "A233310000251",
        "type": 16013,
        "name": "聖華こども園",
        "address": "浅口市鴨方六条院中2347-1",
        "lat": 34.5228,
        "lng": 133.585338
    },
    {
        "code": "B133210002704",
        "type": 16001,
        "name": "金光竹小学校",
        "address": "浅口市金光町下竹315",
        "lat": 34.553238,
        "lng": 133.633647
    },
    {
        "code": "B133210002713",
        "type": 16001,
        "name": "金光小学校",
        "address": "浅口市金光町占見新田288-1",
        "lat": 34.542692,
        "lng": 133.618318
    },
    {
        "code": "B133210002722",
        "type": 16001,
        "name": "金光吉備小学校",
        "address": "浅口市金光町須恵160",
        "lat": 34.535141,
        "lng": 133.616072
    },
    {
        "code": "B133210002731",
        "type": 16001,
        "name": "鴨方東小学校",
        "address": "浅口市鴨方町地頭上65",
        "lat": 34.545297,
        "lng": 133.590245
    },
    {
        "code": "B133210002740",
        "type": 16001,
        "name": "鴨方西小学校",
        "address": "浅口市鴨方町小坂東2223-2",
        "lat": 34.547771,
        "lng": 133.56842
    },
    {
        "code": "B133210002768",
        "type": 16001,
        "name": "六条院小学校",
        "address": "浅口市鴨方町六条院中2072",
        "lat": 34.522339,
        "lng": 133.583214
    },
    {
        "code": "B133210002777",
        "type": 16001,
        "name": "寄島小学校",
        "address": "浅口市寄島町16089-3",
        "lat": 34.478725,
        "lng": 133.585362
    },
    {
        "code": "C133210001142",
        "type": 16002,
        "name": "金光中学校",
        "address": "浅口市金光町占見61-1",
        "lat": 34.543691,
        "lng": 133.618025
    },
    {
        "code": "C133210001151",
        "type": 16002,
        "name": "鴨方中学校",
        "address": "浅口市鴨方町鴨方780",
        "lat": 34.53857,
        "lng": 133.583262
    },
    {
        "code": "C133210001160",
        "type": 16002,
        "name": "寄島中学校",
        "address": "浅口市寄島町7551",
        "lat": 34.47994,
        "lng": 133.584581
    },
    {
        "code": "C133310000098",
        "type": 16002,
        "name": "金光学園中学校",
        "address": "浅口市金光町占見新田1350",
        "lat": 34.545591,
        "lng": 133.624915
    },
    {
        "code": "D133210000338",
        "type": 16004,
        "name": "鴨方高等学校",
        "address": "浅口市鴨方町鴨方819",
        "lat": 34.536053,
        "lng": 133.584825
    },
    {
        "code": "D133310000176",
        "type": 16004,
        "name": "おかやま山陽高等学校",
        "address": "浅口市鴨方町六条院中2069",
        "lat": 34.521797,
        "lng": 133.581763
    },
    {
        "code": "D133310000185",
        "type": 16004,
        "name": "金光学園高等学校",
        "address": "浅口市金光町占見新田1350",
        "lat": 34.545557,
        "lng": 133.624909
    },
    {
        "code": "H133310000444",
        "type": 16016,
        "name": "岡山自動車大学校",
        "address": "浅口市鴨方町六条院中2045",
        "lat": 34.523161,
        "lng": 133.581324
    },
    {
        "code": "H133310000453",
        "type": 16016,
        "name": "倉敷リハビリテーション学院寄島分校",
        "address": "浅口市寄島町16089-31",
        "lat": 34.476004,
        "lng": 133.588473
    },
    {
        "code": "H233310000149",
        "type": 16015,
        "name": "金光教学院",
        "address": "浅口市金光町大谷1486",
        "lat": 34.534634,
        "lng": 133.627497
    }
]