[
    {
        "code": "A133210001271",
        "type": 16011,
        "name": "山陽幼稚園",
        "address": "赤磐市高屋434",
        "lat": 34.758301,
        "lng": 134.023845
    },
    {
        "code": "A133210001280",
        "type": 16011,
        "name": "ひかり幼稚園",
        "address": "赤磐市桜が丘西3-30",
        "lat": 34.774741,
        "lng": 134.039876
    },
    {
        "code": "A133210001299",
        "type": 16011,
        "name": "山陽北幼稚園",
        "address": "赤磐市桜が丘西9-13-1",
        "lat": 34.781352,
        "lng": 134.030988
    },
    {
        "code": "A133210001306",
        "type": 16011,
        "name": "山陽西幼稚園",
        "address": "赤磐市山陽3-10",
        "lat": 34.750003,
        "lng": 134.007551
    },
    {
        "code": "A133210001315",
        "type": 16011,
        "name": "桜が丘幼稚園",
        "address": "赤磐市桜が丘東6-6-692",
        "lat": 34.789582,
        "lng": 134.043289
    },
    {
        "code": "A133210001324",
        "type": 16011,
        "name": "いわなし幼稚園",
        "address": "赤磐市沢原357",
        "lat": 34.802037,
        "lng": 134.079677
    },
    {
        "code": "A233310000126",
        "type": 16013,
        "name": "いちょうの森こども園",
        "address": "赤磐市桜が丘東3-3-496",
        "lat": 34.780372,
        "lng": 134.050128
    },
    {
        "code": "B133210002072",
        "type": 16001,
        "name": "山陽小学校",
        "address": "赤磐市上市123",
        "lat": 34.756446,
        "lng": 134.019051
    },
    {
        "code": "B133210002081",
        "type": 16001,
        "name": "山陽西小学校",
        "address": "赤磐市山陽3-1",
        "lat": 34.748927,
        "lng": 134.006363
    },
    {
        "code": "B133210002090",
        "type": 16001,
        "name": "山陽東小学校",
        "address": "赤磐市桜が丘西3-30",
        "lat": 34.775444,
        "lng": 134.039937
    },
    {
        "code": "B133210002107",
        "type": 16001,
        "name": "山陽北小学校",
        "address": "赤磐市桜が丘西8-23",
        "lat": 34.774499,
        "lng": 134.028133
    },
    {
        "code": "B133210002116",
        "type": 16001,
        "name": "石相小学校",
        "address": "赤磐市町苅田64",
        "lat": 34.789192,
        "lng": 134.003218
    },
    {
        "code": "B133210002125",
        "type": 16001,
        "name": "軽部小学校",
        "address": "赤磐市今井100",
        "lat": 34.813801,
        "lng": 134.023882
    },
    {
        "code": "B133210002134",
        "type": 16001,
        "name": "笹岡小学校",
        "address": "赤磐市惣分7",
        "lat": 34.837215,
        "lng": 134.012438
    },
    {
        "code": "B133210002143",
        "type": 16001,
        "name": "豊田小学校",
        "address": "赤磐市松木569",
        "lat": 34.789194,
        "lng": 134.099569
    },
    {
        "code": "B133210002152",
        "type": 16001,
        "name": "桜が丘小学校",
        "address": "赤磐市桜が丘東6-6-693",
        "lat": 34.790443,
        "lng": 134.044047
    },
    {
        "code": "B133210002161",
        "type": 16001,
        "name": "磐梨小学校",
        "address": "赤磐市沢原55-1",
        "lat": 34.799665,
        "lng": 134.081904
    },
    {
        "code": "B133210002170",
        "type": 16001,
        "name": "城南小学校",
        "address": "赤磐市黒本129",
        "lat": 34.919181,
        "lng": 134.083623
    },
    {
        "code": "B133210002189",
        "type": 16001,
        "name": "仁美小学校",
        "address": "赤磐市仁堀中888",
        "lat": 34.873488,
        "lng": 134.007743
    },
    {
        "code": "C133210000884",
        "type": 16002,
        "name": "高陽中学校",
        "address": "赤磐市上市51",
        "lat": 34.757584,
        "lng": 134.019856
    },
    {
        "code": "C133210000893",
        "type": 16002,
        "name": "桜が丘中学校",
        "address": "赤磐市桜が丘西5-12",
        "lat": 34.779916,
        "lng": 134.041437
    },
    {
        "code": "C133210000900",
        "type": 16002,
        "name": "赤坂中学校",
        "address": "赤磐市町苅田425-1",
        "lat": 34.800135,
        "lng": 134.009383
    },
    {
        "code": "C133210000919",
        "type": 16002,
        "name": "磐梨中学校",
        "address": "赤磐市沢原149",
        "lat": 34.800526,
        "lng": 134.079015
    },
    {
        "code": "C133210000928",
        "type": 16002,
        "name": "吉井中学校",
        "address": "赤磐市周匝161",
        "lat": 34.91757,
        "lng": 134.090844
    },
    {
        "code": "C133310000070",
        "type": 16002,
        "name": "岡山白陵中学校",
        "address": "赤磐市勢力588",
        "lat": 34.777753,
        "lng": 134.108375
    },
    {
        "code": "D133310000210",
        "type": 16004,
        "name": "岡山白陵高等学校",
        "address": "赤磐市勢力588",
        "lat": 34.777723,
        "lng": 134.108375
    },
    {
        "code": "H133210000017",
        "type": 16016,
        "name": "岡山県農林水産総合センター農業大学校",
        "address": "赤磐市東窪田157",
        "lat": 34.783828,
        "lng": 134.014665
    }
]