[
    {
        "code": "A133210001501",
        "type": 16011,
        "name": "早島幼稚園",
        "address": "都窪郡早島町前潟138",
        "lat": 34.602193,
        "lng": 133.825639
    },
    {
        "code": "B133210002615",
        "type": 16001,
        "name": "早島小学校",
        "address": "都窪郡早島町早島1297-1",
        "lat": 34.605179,
        "lng": 133.827431
    },
    {
        "code": "C133210001099",
        "type": 16002,
        "name": "早島中学校",
        "address": "都窪郡早島町早島2180",
        "lat": 34.600512,
        "lng": 133.817765
    },
    {
        "code": "E133210000059",
        "type": 16012,
        "name": "早島支援学校",
        "address": "都窪郡早島町早島4063",
        "lat": 34.613956,
        "lng": 133.826487
    },
    {
        "code": "H133310000471",
        "type": 16016,
        "name": "関西書道専門学校",
        "address": "都窪郡早島町4156",
        "lat": 34.610236,
        "lng": 133.822472
    }
]