[
    {
        "code": "B133210003669",
        "type": 16001,
        "name": "加美小学校",
        "address": "久米郡美咲町原田11",
        "lat": 34.982949,
        "lng": 133.961716
    },
    {
        "code": "B133210003678",
        "type": 16001,
        "name": "旭小学校",
        "address": "久米郡美咲町西川1001-12",
        "lat": 34.971559,
        "lng": 133.828113
    },
    {
        "code": "B133210003758",
        "type": 16001,
        "name": "柵原西小学校",
        "address": "久米郡美咲町小瀬285",
        "lat": 34.961314,
        "lng": 134.052902
    },
    {
        "code": "B133210003767",
        "type": 16001,
        "name": "柵原東小学校",
        "address": "久米郡美咲町行信141-1",
        "lat": 34.989616,
        "lng": 134.060206
    },
    {
        "code": "B133210003776",
        "type": 16001,
        "name": "美咲中央小学校",
        "address": "久米郡美咲町打穴下1685-1",
        "lat": 35.016142,
        "lng": 133.930382
    },
    {
        "code": "C133210001507",
        "type": 16002,
        "name": "中央中学校",
        "address": "久米郡美咲町原田2130",
        "lat": 34.998419,
        "lng": 133.955827
    },
    {
        "code": "C133210001516",
        "type": 16002,
        "name": "旭中学校",
        "address": "久米郡美咲町西川829-2",
        "lat": 34.972425,
        "lng": 133.829709
    },
    {
        "code": "C133210001543",
        "type": 16002,
        "name": "柵原中学校",
        "address": "久米郡美咲町下谷388-2",
        "lat": 34.96618,
        "lng": 134.055034
    }
]