[
    {
        "code": "A133210001208",
        "type": 16011,
        "name": "円城幼稚園",
        "address": "加賀郡吉備中央町円城788-1",
        "lat": 34.891301,
        "lng": 133.808024
    },
    {
        "code": "A133210001226",
        "type": 16011,
        "name": "御北幼稚園",
        "address": "加賀郡吉備中央町豊岡上147-3",
        "lat": 34.897744,
        "lng": 133.7617
    },
    {
        "code": "A233210000413",
        "type": 16013,
        "name": "吉備高原こども園",
        "address": "加賀郡吉備中央町竹部7520-25",
        "lat": 34.838474,
        "lng": 133.763255
    },
    {
        "code": "A233310000144",
        "type": 16013,
        "name": "にこにこふたばこども園",
        "address": "加賀郡吉備中央町下加茂1892",
        "lat": 34.858218,
        "lng": 133.819357
    },
    {
        "code": "B133210002018",
        "type": 16001,
        "name": "津賀小学校",
        "address": "加賀郡吉備中央町上加茂2281-1",
        "lat": 34.845294,
        "lng": 133.803261
    },
    {
        "code": "B133210002027",
        "type": 16001,
        "name": "円城小学校",
        "address": "加賀郡吉備中央町円城776-1",
        "lat": 34.891901,
        "lng": 133.807369
    },
    {
        "code": "B133210002036",
        "type": 16001,
        "name": "御北小学校",
        "address": "加賀郡吉備中央町豊岡上139-1",
        "lat": 34.898344,
        "lng": 133.760955
    },
    {
        "code": "B133210002045",
        "type": 16001,
        "name": "吉備高原小学校",
        "address": "加賀郡吉備中央町竹部7520-19",
        "lat": 34.838738,
        "lng": 133.764014
    },
    {
        "code": "B133210003044",
        "type": 16001,
        "name": "上竹荘小学校",
        "address": "加賀郡吉備中央町上竹2057",
        "lat": 34.847347,
        "lng": 133.672299
    },
    {
        "code": "B133210003053",
        "type": 16001,
        "name": "豊野小学校",
        "address": "加賀郡吉備中央町豊野170",
        "lat": 34.866596,
        "lng": 133.696102
    },
    {
        "code": "B133210003062",
        "type": 16001,
        "name": "下竹荘小学校",
        "address": "加賀郡吉備中央町湯山1014",
        "lat": 34.857181,
        "lng": 133.739598
    },
    {
        "code": "B133210003071",
        "type": 16001,
        "name": "吉川小学校",
        "address": "加賀郡吉備中央町吉川892",
        "lat": 34.816908,
        "lng": 133.754487
    },
    {
        "code": "B133210003080",
        "type": 16001,
        "name": "大和小学校",
        "address": "加賀郡吉備中央町西205",
        "lat": 34.794631,
        "lng": 133.688575
    },
    {
        "code": "B133310000027",
        "type": 16001,
        "name": "吉備高原のびのび小学校",
        "address": "加賀郡吉備中央町高谷470",
        "lat": 34.858514,
        "lng": 133.772957
    },
    {
        "code": "C133210000866",
        "type": 16002,
        "name": "加賀中学校",
        "address": "加賀郡吉備中央町湯山1028",
        "lat": 34.857273,
        "lng": 133.740545
    },
    {
        "code": "C133310000061",
        "type": 16002,
        "name": "吉備高原希望中学校",
        "address": "加賀郡吉備中央町高谷495",
        "lat": 34.858598,
        "lng": 133.772957
    },
    {
        "code": "D133310000238",
        "type": 16004,
        "name": "吉備高原学園高等学校",
        "address": "加賀郡吉備中央町上野2400",
        "lat": 34.845987,
        "lng": 133.767124
    }
]