[
    {
        "code": "A134310000910",
        "type": 16011,
        "name": "十日市幼稚園",
        "address": "三次市十日市中4-10-1",
        "lat": 34.808278,
        "lng": 132.855637
    },
    {
        "code": "A134310000929",
        "type": 16011,
        "name": "三次清心幼稚園",
        "address": "三次市十日市中2-1-43",
        "lat": 34.803876,
        "lng": 132.854904
    },
    {
        "code": "A134310000938",
        "type": 16011,
        "name": "三次中央幼稚園",
        "address": "三次市十日市中2-9-8",
        "lat": 34.80516,
        "lng": 132.852233
    },
    {
        "code": "B134210001884",
        "type": 16001,
        "name": "河内小学校",
        "address": "三次市小文町173-1",
        "lat": 34.829503,
        "lng": 132.851987
    },
    {
        "code": "B134210001893",
        "type": 16001,
        "name": "三次小学校",
        "address": "三次市三次町1851-1",
        "lat": 34.811922,
        "lng": 132.845071
    },
    {
        "code": "B134210001900",
        "type": 16001,
        "name": "粟屋小学校",
        "address": "三次市粟屋町2346-2",
        "lat": 34.794979,
        "lng": 132.835739
    },
    {
        "code": "B134210001919",
        "type": 16001,
        "name": "十日市小学校",
        "address": "三次市十日市中4-9-1",
        "lat": 34.808496,
        "lng": 132.854219
    },
    {
        "code": "B134210001928",
        "type": 16001,
        "name": "八次小学校",
        "address": "三次市畠敷町1725-1",
        "lat": 34.805424,
        "lng": 132.885901
    },
    {
        "code": "B134210001937",
        "type": 16001,
        "name": "酒河小学校",
        "address": "三次市西酒屋町804-1",
        "lat": 34.785509,
        "lng": 132.851599
    },
    {
        "code": "B134210001946",
        "type": 16001,
        "name": "青河小学校",
        "address": "三次市青河町580",
        "lat": 34.760932,
        "lng": 132.819507
    },
    {
        "code": "B134210001955",
        "type": 16001,
        "name": "神杉小学校",
        "address": "三次市高杉町1684-1",
        "lat": 34.774517,
        "lng": 132.892546
    },
    {
        "code": "B134210001964",
        "type": 16001,
        "name": "田幸小学校",
        "address": "三次市大田幸町1600-1",
        "lat": 34.755708,
        "lng": 132.913621
    },
    {
        "code": "B134210001973",
        "type": 16001,
        "name": "和田小学校",
        "address": "三次市向江田町3363-6",
        "lat": 34.789426,
        "lng": 132.920481
    },
    {
        "code": "B134210001982",
        "type": 16001,
        "name": "川地小学校",
        "address": "三次市下川立町503-1",
        "lat": 34.736374,
        "lng": 132.789219
    },
    {
        "code": "B134210001991",
        "type": 16001,
        "name": "川西小学校",
        "address": "三次市三若町2652",
        "lat": 34.717435,
        "lng": 132.890014
    },
    {
        "code": "B134210004408",
        "type": 16001,
        "name": "甲奴小学校",
        "address": "三次市甲奴町梶田10005-1",
        "lat": 34.709682,
        "lng": 133.070608
    },
    {
        "code": "B134210004417",
        "type": 16001,
        "name": "小童小学校",
        "address": "三次市甲奴町小童3105-1",
        "lat": 34.680215,
        "lng": 133.067875
    },
    {
        "code": "B134210004426",
        "type": 16001,
        "name": "君田小学校",
        "address": "三次市君田町東入君10361-2",
        "lat": 34.876718,
        "lng": 132.854412
    },
    {
        "code": "B134210004435",
        "type": 16001,
        "name": "布野小学校",
        "address": "三次市布野町上布野1405",
        "lat": 34.880623,
        "lng": 132.784545
    },
    {
        "code": "B134210004444",
        "type": 16001,
        "name": "作木小学校",
        "address": "三次市作木町下作木905",
        "lat": 34.87361,
        "lng": 132.723721
    },
    {
        "code": "B134210004453",
        "type": 16001,
        "name": "吉舎小学校",
        "address": "三次市吉舎町三玉444",
        "lat": 34.724437,
        "lng": 132.992489
    },
    {
        "code": "B134210004462",
        "type": 16001,
        "name": "八幡小学校",
        "address": "三次市吉舎町丸田224-2",
        "lat": 34.700177,
        "lng": 132.98253
    },
    {
        "code": "B134210004471",
        "type": 16001,
        "name": "三和小学校",
        "address": "三次市三和町敷名11496",
        "lat": 34.66064,
        "lng": 132.847387
    },
    {
        "code": "B134210004480",
        "type": 16001,
        "name": "みらさか小学校",
        "address": "三次市三良坂町三良坂2772-1",
        "lat": 34.763528,
        "lng": 132.963872
    },
    {
        "code": "C134210000918",
        "type": 16002,
        "name": "三次中学校",
        "address": "三次市三次町1731-1",
        "lat": 34.813949,
        "lng": 132.84346
    },
    {
        "code": "C134210000927",
        "type": 16002,
        "name": "十日市中学校",
        "address": "三次市十日市中4-2-2",
        "lat": 34.807888,
        "lng": 132.856562
    },
    {
        "code": "C134210000936",
        "type": 16002,
        "name": "塩町中学校",
        "address": "三次市大田幸町10541-2",
        "lat": 34.771401,
        "lng": 132.91151
    },
    {
        "code": "C134210000945",
        "type": 16002,
        "name": "川地中学校",
        "address": "三次市下川立町475-8",
        "lat": 34.734762,
        "lng": 132.787627
    },
    {
        "code": "C134210000954",
        "type": 16002,
        "name": "八次中学校",
        "address": "三次市畠敷町1860",
        "lat": 34.806702,
        "lng": 132.894011
    },
    {
        "code": "C134210002122",
        "type": 16002,
        "name": "甲奴中学校",
        "address": "三次市甲奴町梶田38",
        "lat": 34.707773,
        "lng": 133.07056
    },
    {
        "code": "C134210002131",
        "type": 16002,
        "name": "君田中学校",
        "address": "三次市君田町東入君10361-2",
        "lat": 34.876978,
        "lng": 132.85534
    },
    {
        "code": "C134210002140",
        "type": 16002,
        "name": "布野中学校",
        "address": "三次市布野町上布野1895-1",
        "lat": 34.877586,
        "lng": 132.79016
    },
    {
        "code": "C134210002159",
        "type": 16002,
        "name": "作木中学校",
        "address": "三次市作木町下作木739-1",
        "lat": 34.866996,
        "lng": 132.719271
    },
    {
        "code": "C134210002168",
        "type": 16002,
        "name": "吉舎中学校",
        "address": "三次市吉舎町吉舎783-1",
        "lat": 34.71771,
        "lng": 132.996346
    },
    {
        "code": "C134210002177",
        "type": 16002,
        "name": "三良坂中学校",
        "address": "三次市三良坂町2772-1",
        "lat": 34.763495,
        "lng": 132.96373
    },
    {
        "code": "C134210002186",
        "type": 16002,
        "name": "三和中学校",
        "address": "三次市三和町上板木10055",
        "lat": 34.66064,
        "lng": 132.844165
    },
    {
        "code": "C134210002337",
        "type": 16002,
        "name": "三次中学校",
        "address": "三次市南畑敷町155",
        "lat": 34.804368,
        "lng": 132.869641
    },
    {
        "code": "D134210000462",
        "type": 16004,
        "name": "三次高等学校",
        "address": "三次市南畑敷町155",
        "lat": 34.80434,
        "lng": 132.869764
    },
    {
        "code": "D134210000523",
        "type": 16004,
        "name": "日彰館高等学校",
        "address": "三次市吉舎町吉舎293-2",
        "lat": 34.721529,
        "lng": 132.992342
    },
    {
        "code": "D134210000658",
        "type": 16004,
        "name": "三次青陵高等学校",
        "address": "三次市大田幸町10656",
        "lat": 34.772206,
        "lng": 132.914926
    },
    {
        "code": "H134210000025",
        "type": 16016,
        "name": "三次看護専門学校",
        "address": "三次市東酒屋町10518-1",
        "lat": 34.780082,
        "lng": 132.867037
    }
]