[
    {
        "code": "A134310000901",
        "type": 16011,
        "name": "府中すばる幼稚園",
        "address": "府中市出口町921-1",
        "lat": 34.578021,
        "lng": 133.22565
    },
    {
        "code": "B134210001848",
        "type": 16001,
        "name": "国府小学校",
        "address": "府中市高木町617",
        "lat": 34.561236,
        "lng": 133.2494
    },
    {
        "code": "B134210001857",
        "type": 16001,
        "name": "栗生小学校",
        "address": "府中市栗柄町3056",
        "lat": 34.55207,
        "lng": 133.239651
    },
    {
        "code": "B134210001866",
        "type": 16001,
        "name": "旭小学校",
        "address": "府中市中須町610",
        "lat": 34.56243,
        "lng": 133.259899
    },
    {
        "code": "B134210001875",
        "type": 16001,
        "name": "南小学校",
        "address": "府中市用土町444",
        "lat": 34.561874,
        "lng": 133.231985
    },
    {
        "code": "B134210004373",
        "type": 16001,
        "name": "上下北小学校",
        "address": "府中市上下町上下1881-1",
        "lat": 34.698096,
        "lng": 133.126707
    },
    {
        "code": "B134210004382",
        "type": 16001,
        "name": "上下南小学校",
        "address": "府中市上下町矢多田171",
        "lat": 34.668368,
        "lng": 133.124266
    },
    {
        "code": "C134210000909",
        "type": 16002,
        "name": "第一中学校",
        "address": "府中市用土町463",
        "lat": 34.562457,
        "lng": 133.233179
    },
    {
        "code": "C134210002104",
        "type": 16002,
        "name": "上下中学校",
        "address": "府中市上下町上下915",
        "lat": 34.698443,
        "lng": 133.11455
    },
    {
        "code": "C234210000034",
        "type": 16014,
        "name": "府中学園",
        "address": "府中市元町576-1",
        "lat": 34.576096,
        "lng": 133.235099
    },
    {
        "code": "C234210000043",
        "type": 16014,
        "name": "府中明郷学園",
        "address": "府中市篠根町656",
        "lat": 34.552222,
        "lng": 133.20462
    },
    {
        "code": "D134210000435",
        "type": 16004,
        "name": "府中高等学校",
        "address": "府中市出口町898",
        "lat": 34.576289,
        "lng": 133.225152
    },
    {
        "code": "D134210000453",
        "type": 16004,
        "name": "上下高等学校",
        "address": "府中市上下町上下566",
        "lat": 34.689459,
        "lng": 133.120213
    },
    {
        "code": "D134210000916",
        "type": 16004,
        "name": "府中東高等学校",
        "address": "府中市土生町399-1",
        "lat": 34.561319,
        "lng": 133.230318
    },
    {
        "code": "H234310000184",
        "type": 16015,
        "name": "府中地区医師会准看護学院",
        "address": "府中市鵜飼町496-1",
        "lat": 34.569182,
        "lng": 133.24674
    }
]