[
    {
        "code": "A134310000947",
        "type": 16011,
        "name": "庄原幼稚園",
        "address": "庄原市西本町1-4-28",
        "lat": 34.856317,
        "lng": 133.013791
    },
    {
        "code": "A234310001124",
        "type": 16013,
        "name": "小奴可こども園",
        "address": "庄原市東城町小奴可2530-1",
        "lat": 34.995063,
        "lng": 133.213907
    },
    {
        "code": "B134210002008",
        "type": 16001,
        "name": "庄原小学校",
        "address": "庄原市西本町2-13-1",
        "lat": 34.855754,
        "lng": 133.011691
    },
    {
        "code": "B134210002017",
        "type": 16001,
        "name": "永末小学校",
        "address": "庄原市永末町37-1",
        "lat": 34.856004,
        "lng": 133.052577
    },
    {
        "code": "B134210002026",
        "type": 16001,
        "name": "高小学校",
        "address": "庄原市高町828",
        "lat": 34.881973,
        "lng": 133.071908
    },
    {
        "code": "B134210002035",
        "type": 16001,
        "name": "峰田小学校",
        "address": "庄原市春田町101-3",
        "lat": 34.817453,
        "lng": 133.044828
    },
    {
        "code": "B134210002044",
        "type": 16001,
        "name": "板橋小学校",
        "address": "庄原市板橋町165-1",
        "lat": 34.839138,
        "lng": 133.018849
    },
    {
        "code": "B134210002053",
        "type": 16001,
        "name": "東小学校",
        "address": "庄原市上原町376-1",
        "lat": 34.85417,
        "lng": 132.995804
    },
    {
        "code": "B134210002062",
        "type": 16001,
        "name": "山内小学校",
        "address": "庄原市山内町813-1",
        "lat": 34.832255,
        "lng": 132.948977
    },
    {
        "code": "B134210002071",
        "type": 16001,
        "name": "川北小学校",
        "address": "庄原市川北町1148",
        "lat": 34.896748,
        "lng": 133.010941
    },
    {
        "code": "B134210004391",
        "type": 16001,
        "name": "総領小学校",
        "address": "庄原市総領町下領家267",
        "lat": 34.785022,
        "lng": 133.075633
    },
    {
        "code": "B134210004499",
        "type": 16001,
        "name": "西城小学校",
        "address": "庄原市西城町西城281-1",
        "lat": 34.93279,
        "lng": 133.116151
    },
    {
        "code": "B134210004505",
        "type": 16001,
        "name": "美古登小学校",
        "address": "庄原市西城町中野105",
        "lat": 34.956269,
        "lng": 133.124158
    },
    {
        "code": "B134210004514",
        "type": 16001,
        "name": "小奴可小学校",
        "address": "庄原市東城町小奴可320-5",
        "lat": 34.993723,
        "lng": 133.21365
    },
    {
        "code": "B134210004523",
        "type": 16001,
        "name": "八幡小学校",
        "address": "庄原市東城町森138-6",
        "lat": 34.955056,
        "lng": 133.201396
    },
    {
        "code": "B134210004532",
        "type": 16001,
        "name": "粟田小学校",
        "address": "庄原市東城町粟田2229",
        "lat": 34.934617,
        "lng": 133.279907
    },
    {
        "code": "B134210004541",
        "type": 16001,
        "name": "東城小学校",
        "address": "庄原市東城町川東1342",
        "lat": 34.895949,
        "lng": 133.275417
    },
    {
        "code": "B134210004578",
        "type": 16001,
        "name": "高野小学校",
        "address": "庄原市高野町新市1650",
        "lat": 35.037204,
        "lng": 132.901416
    },
    {
        "code": "B134210004587",
        "type": 16001,
        "name": "比和小学校",
        "address": "庄原市比和町比和1020",
        "lat": 34.988206,
        "lng": 132.987402
    },
    {
        "code": "B134210004658",
        "type": 16001,
        "name": "口和小学校",
        "address": "庄原市口和町永田3-2",
        "lat": 34.894143,
        "lng": 132.925015
    },
    {
        "code": "C134210000963",
        "type": 16002,
        "name": "庄原中学校",
        "address": "庄原市東本町1-26-1",
        "lat": 34.85517,
        "lng": 133.022302
    },
    {
        "code": "C134210002113",
        "type": 16002,
        "name": "総領中学校",
        "address": "庄原市総領町稲草2125",
        "lat": 34.783459,
        "lng": 133.0687
    },
    {
        "code": "C134210002195",
        "type": 16002,
        "name": "西城中学校",
        "address": "庄原市西城町中野622-4",
        "lat": 34.944855,
        "lng": 133.11908
    },
    {
        "code": "C134210002202",
        "type": 16002,
        "name": "東城中学校",
        "address": "庄原市東城町川東5227",
        "lat": 34.896962,
        "lng": 133.281039
    },
    {
        "code": "C134210002211",
        "type": 16002,
        "name": "口和中学校",
        "address": "庄原市口和町向泉527-1",
        "lat": 34.905795,
        "lng": 132.903382
    },
    {
        "code": "C134210002220",
        "type": 16002,
        "name": "高野中学校",
        "address": "庄原市高野町新市1314-1",
        "lat": 35.035945,
        "lng": 132.902543
    },
    {
        "code": "C134210002239",
        "type": 16002,
        "name": "比和中学校",
        "address": "庄原市比和町比和1052",
        "lat": 34.986904,
        "lng": 132.986767
    },
    {
        "code": "D134210000471",
        "type": 16004,
        "name": "庄原格致高等学校",
        "address": "庄原市三日市町515",
        "lat": 34.861086,
        "lng": 133.005359
    },
    {
        "code": "D134210000480",
        "type": 16004,
        "name": "東城高等学校",
        "address": "庄原市東城町川西476-2",
        "lat": 34.901764,
        "lng": 133.270485
    },
    {
        "code": "D134210000505",
        "type": 16004,
        "name": "西城紫水高等学校",
        "address": "庄原市西城町西城345",
        "lat": 34.934917,
        "lng": 133.111952
    },
    {
        "code": "D134210000738",
        "type": 16004,
        "name": "庄原実業高等学校",
        "address": "庄原市西本町1-24-34",
        "lat": 34.853448,
        "lng": 133.013858
    },
    {
        "code": "E134210000156",
        "type": 16012,
        "name": "庄原特別支援学校",
        "address": "庄原市三日市町5004-44",
        "lat": 34.847199,
        "lng": 133.009581
    },
    {
        "code": "H134210000034",
        "type": 16016,
        "name": "広島県立農業技術大学校",
        "address": "庄原市是松町55-1",
        "lat": 34.834737,
        "lng": 133.030137
    },
    {
        "code": "H234310000237",
        "type": 16015,
        "name": "天心高等洋裁学園",
        "address": "庄原市東城町川西497-12",
        "lat": 34.900171,
        "lng": 133.271156
    }
]