[
    {
        "code": "A134110000013",
        "type": 16011,
        "name": "広島大学附属幼稚園",
        "address": "東広島市鏡山北333-2",
        "lat": 34.40676,
        "lng": 132.723056
    },
    {
        "code": "A134210000645",
        "type": 16011,
        "name": "八本松中央幼稚園",
        "address": "東広島市八本松町原10127-1",
        "lat": 34.442372,
        "lng": 132.692105
    },
    {
        "code": "A134210000654",
        "type": 16011,
        "name": "御薗宇幼稚園",
        "address": "東広島市鏡山3-6-27",
        "lat": 34.398183,
        "lng": 132.736769
    },
    {
        "code": "A134310001385",
        "type": 16011,
        "name": "西条幼稚園",
        "address": "東広島市西条朝日町6-13",
        "lat": 34.428002,
        "lng": 132.746823
    },
    {
        "code": "A134310001394",
        "type": 16011,
        "name": "西条ルーテル幼稚園",
        "address": "東広島市西条町土与丸1523",
        "lat": 34.428291,
        "lng": 132.755858
    },
    {
        "code": "A134310001401",
        "type": 16011,
        "name": "くるみケ丘幼稚園",
        "address": "東広島市黒瀬切田が丘3-7-5",
        "lat": 34.327909,
        "lng": 132.651768
    },
    {
        "code": "A134310001410",
        "type": 16011,
        "name": "サールナート幼稚園",
        "address": "東広島市入野中山台3-9-7",
        "lat": 34.456065,
        "lng": 132.85853
    },
    {
        "code": "A134310001429",
        "type": 16011,
        "name": "高屋幼稚園",
        "address": "東広島市高屋町郷1277-2",
        "lat": 34.440686,
        "lng": 132.794254
    },
    {
        "code": "A134310001438",
        "type": 16011,
        "name": "東広島くすのき幼稚園",
        "address": "東広島市西条町寺家5539-3",
        "lat": 34.431046,
        "lng": 132.730682
    },
    {
        "code": "A134310001447",
        "type": 16011,
        "name": "風早幼稚園",
        "address": "東広島市安芸津町風早1539-2",
        "lat": 34.317382,
        "lng": 132.797085
    },
    {
        "code": "A234310001142",
        "type": 16013,
        "name": "さざなみの森",
        "address": "東広島市西条町寺家261",
        "lat": 34.428749,
        "lng": 132.705804
    },
    {
        "code": "A234310001151",
        "type": 16013,
        "name": "みどりがおかようちえん",
        "address": "東広島市黒瀬町丸山1606-2",
        "lat": 34.329648,
        "lng": 132.673782
    },
    {
        "code": "A234310001160",
        "type": 16013,
        "name": "ひまわり認定こども園",
        "address": "東広島市黒瀬松ヶ丘29-5",
        "lat": 34.337688,
        "lng": 132.659
    },
    {
        "code": "A234310001179",
        "type": 16013,
        "name": "みそのうこばとの森",
        "address": "東広島市西条町御薗宇4481-1",
        "lat": 34.408613,
        "lng": 132.747615
    },
    {
        "code": "A234310001188",
        "type": 16013,
        "name": "アザレアキッズステーション",
        "address": "東広島市八本松西2-5-21",
        "lat": 34.444582,
        "lng": 132.685564
    },
    {
        "code": "A234310001197",
        "type": 16013,
        "name": "八本松みづき認定こども園",
        "address": "東広島市八本松町飯田6-6-33",
        "lat": 34.452737,
        "lng": 132.706626
    },
    {
        "code": "A234310001204",
        "type": 16013,
        "name": "西条みづき認定こども園",
        "address": "東広島市西条町寺家7377",
        "lat": 34.420886,
        "lng": 132.727161
    },
    {
        "code": "A234310001213",
        "type": 16013,
        "name": "妙徳こども園",
        "address": "東広島市八本松町飯田572",
        "lat": 34.451396,
        "lng": 132.693491
    },
    {
        "code": "A234310001222",
        "type": 16013,
        "name": "フレーベル幼稚園",
        "address": "東広島市高屋高美が丘4-28-3",
        "lat": 34.458033,
        "lng": 132.793047
    },
    {
        "code": "B134210003533",
        "type": 16001,
        "name": "西条小学校",
        "address": "東広島市西条中央2-15-1",
        "lat": 34.420247,
        "lng": 132.740926
    },
    {
        "code": "B134210003542",
        "type": 16001,
        "name": "寺西小学校",
        "address": "東広島市西条町寺家6664-1",
        "lat": 34.430135,
        "lng": 132.726011
    },
    {
        "code": "B134210003551",
        "type": 16001,
        "name": "郷田小学校",
        "address": "東広島市西条町郷曽1133",
        "lat": 34.379556,
        "lng": 132.70957
    },
    {
        "code": "B134210003560",
        "type": 16001,
        "name": "板城小学校",
        "address": "東広島市西条町森近甲234-1",
        "lat": 34.37274,
        "lng": 132.731929
    },
    {
        "code": "B134210003579",
        "type": 16001,
        "name": "三永小学校",
        "address": "東広島市西条町下三永930",
        "lat": 34.393944,
        "lng": 132.777924
    },
    {
        "code": "B134210003588",
        "type": 16001,
        "name": "東西条小学校",
        "address": "東広島市西条吉行東1-2-1",
        "lat": 34.432066,
        "lng": 132.759317
    },
    {
        "code": "B134210003597",
        "type": 16001,
        "name": "平岩小学校",
        "address": "東広島市西条町寺家521-9",
        "lat": 34.445939,
        "lng": 132.720816
    },
    {
        "code": "B134210003604",
        "type": 16001,
        "name": "御薗宇小学校",
        "address": "東広島市西条町御薗宇8544-6",
        "lat": 34.39713,
        "lng": 132.740424
    },
    {
        "code": "B134210003613",
        "type": 16001,
        "name": "三ツ城小学校",
        "address": "東広島市西条中央7-23-55",
        "lat": 34.417701,
        "lng": 132.733587
    },
    {
        "code": "B134210003622",
        "type": 16001,
        "name": "板城西小学校",
        "address": "東広島市黒瀬町小多田257",
        "lat": 34.346788,
        "lng": 132.7166
    },
    {
        "code": "B134210003631",
        "type": 16001,
        "name": "上黒瀬小学校",
        "address": "東広島市黒瀬町宗近柳国271-2",
        "lat": 34.338022,
        "lng": 132.710644
    },
    {
        "code": "B134210003640",
        "type": 16001,
        "name": "乃美尾小学校",
        "address": "東広島市黒瀬町乃美尾554-1",
        "lat": 34.322571,
        "lng": 132.693019
    },
    {
        "code": "B134210003659",
        "type": 16001,
        "name": "中黒瀬小学校",
        "address": "東広島市黒瀬町楢原18-1",
        "lat": 34.331902,
        "lng": 132.670461
    },
    {
        "code": "B134210003668",
        "type": 16001,
        "name": "下黒瀬小学校",
        "address": "東広島市黒瀬町津江1225-3",
        "lat": 34.324176,
        "lng": 132.650102
    },
    {
        "code": "B134210003677",
        "type": 16001,
        "name": "川上小学校",
        "address": "東広島市八本松飯田5-8-47",
        "lat": 34.455521,
        "lng": 132.703401
    },
    {
        "code": "B134210003686",
        "type": 16001,
        "name": "原小学校",
        "address": "東広島市八本松町原11407-5",
        "lat": 34.415053,
        "lng": 132.689237
    },
    {
        "code": "B134210003695",
        "type": 16001,
        "name": "吉川小学校",
        "address": "東広島市八本松町吉川365",
        "lat": 34.393166,
        "lng": 132.671544
    },
    {
        "code": "B134210003702",
        "type": 16001,
        "name": "八本松小学校",
        "address": "東広島市八本松町原10128-137",
        "lat": 34.440911,
        "lng": 132.69093
    },
    {
        "code": "B134210003711",
        "type": 16001,
        "name": "西志和小学校",
        "address": "東広島市志和町七条椛坂1670",
        "lat": 34.472184,
        "lng": 132.637379
    },
    {
        "code": "B134210003720",
        "type": 16001,
        "name": "東志和小学校",
        "address": "東広島市志和町志和東3979",
        "lat": 34.484322,
        "lng": 132.681319
    },
    {
        "code": "B134210003757",
        "type": 16001,
        "name": "豊栄小学校",
        "address": "東広島市豊栄町鍛冶屋370",
        "lat": 34.570504,
        "lng": 132.821952
    },
    {
        "code": "B134210003793",
        "type": 16001,
        "name": "河内小学校",
        "address": "東広島市河内町中河内1013",
        "lat": 34.472816,
        "lng": 132.884547
    },
    {
        "code": "B134210003800",
        "type": 16001,
        "name": "入野小学校",
        "address": "東広島市入野中山台4-20-1",
        "lat": 34.450657,
        "lng": 132.865173
    },
    {
        "code": "B134210003819",
        "type": 16001,
        "name": "小谷小学校",
        "address": "東広島市高屋町小谷3543-3",
        "lat": 34.441744,
        "lng": 132.837555
    },
    {
        "code": "B134210003828",
        "type": 16001,
        "name": "高屋東小学校",
        "address": "東広島市高屋町白市589",
        "lat": 34.456464,
        "lng": 132.818917
    },
    {
        "code": "B134210003837",
        "type": 16001,
        "name": "高屋西小学校",
        "address": "東広島市高屋町中島582",
        "lat": 34.446133,
        "lng": 132.784338
    },
    {
        "code": "B134210003846",
        "type": 16001,
        "name": "造賀小学校",
        "address": "東広島市高屋町造賀2774-1",
        "lat": 34.484849,
        "lng": 132.762422
    },
    {
        "code": "B134210003855",
        "type": 16001,
        "name": "高美が丘小学校",
        "address": "東広島市高屋高美が丘4-1-1",
        "lat": 34.46138,
        "lng": 132.793475
    },
    {
        "code": "B134210003873",
        "type": 16001,
        "name": "木谷小学校",
        "address": "東広島市安芸津町木谷4122",
        "lat": 34.313026,
        "lng": 132.836754
    },
    {
        "code": "B134210003882",
        "type": 16001,
        "name": "三津小学校",
        "address": "東広島市安芸津町三津4680",
        "lat": 34.325394,
        "lng": 132.81781
    },
    {
        "code": "B134210003891",
        "type": 16001,
        "name": "風早小学校",
        "address": "東広島市安芸津町風早789",
        "lat": 34.314024,
        "lng": 132.792081
    },
    {
        "code": "B134210003908",
        "type": 16001,
        "name": "もみじ小学校",
        "address": "東広島市八本松町原10844",
        "lat": 34.401489,
        "lng": 132.673478
    },
    {
        "code": "B134210003917",
        "type": 16001,
        "name": "龍王小学校",
        "address": "東広島市西条町寺家5415-6",
        "lat": 34.434051,
        "lng": 132.730221
    },
    {
        "code": "B134210004649",
        "type": 16001,
        "name": "福富小学校",
        "address": "東広島市福富町下竹仁2096-3",
        "lat": 34.530413,
        "lng": 132.761604
    },
    {
        "code": "C134210001640",
        "type": 16002,
        "name": "西条中学校",
        "address": "東広島市西条町寺家6466",
        "lat": 34.428663,
        "lng": 132.732399
    },
    {
        "code": "C134210001659",
        "type": 16002,
        "name": "向陽中学校",
        "address": "東広島市西条町大沢25-2",
        "lat": 34.376696,
        "lng": 132.731123
    },
    {
        "code": "C134210001668",
        "type": 16002,
        "name": "磯松中学校",
        "address": "東広島市八本松町正力666-1",
        "lat": 34.456104,
        "lng": 132.713678
    },
    {
        "code": "C134210001677",
        "type": 16002,
        "name": "松賀中学校",
        "address": "東広島市西条町御薗宇860",
        "lat": 34.411554,
        "lng": 132.756064
    },
    {
        "code": "C134210001686",
        "type": 16002,
        "name": "高美が丘中学校",
        "address": "東広島市高屋高美が丘1-1-1",
        "lat": 34.458714,
        "lng": 132.789559
    },
    {
        "code": "C134210001695",
        "type": 16002,
        "name": "黒瀬中学校",
        "address": "東広島市黒瀬町丸山82-1",
        "lat": 34.329124,
        "lng": 132.686232
    },
    {
        "code": "C134210001702",
        "type": 16002,
        "name": "八本松中学校",
        "address": "東広島市八本松南2-2-1",
        "lat": 34.440189,
        "lng": 132.694097
    },
    {
        "code": "C134210001711",
        "type": 16002,
        "name": "志和中学校",
        "address": "東広島市志和町志和西1432",
        "lat": 34.491654,
        "lng": 132.65085
    },
    {
        "code": "C134210001720",
        "type": 16002,
        "name": "福富中学校",
        "address": "東広島市福富町下竹仁2096-3",
        "lat": 34.530533,
        "lng": 132.762097
    },
    {
        "code": "C134210001739",
        "type": 16002,
        "name": "豊栄中学校",
        "address": "東広島市豊栄町鍛冶屋341-1",
        "lat": 34.570591,
        "lng": 132.824686
    },
    {
        "code": "C134210001757",
        "type": 16002,
        "name": "河内中学校",
        "address": "東広島市河内町中河内1757-1",
        "lat": 34.473528,
        "lng": 132.874645
    },
    {
        "code": "C134210001766",
        "type": 16002,
        "name": "高屋中学校",
        "address": "東広島市高屋町中島760",
        "lat": 34.442355,
        "lng": 132.790837
    },
    {
        "code": "C134210001784",
        "type": 16002,
        "name": "安芸津中学校",
        "address": "東広島市安芸津町三津5563-8",
        "lat": 34.315413,
        "lng": 132.809853
    },
    {
        "code": "C134210001793",
        "type": 16002,
        "name": "中央中学校",
        "address": "東広島市西条町下見4281-1",
        "lat": 34.41775,
        "lng": 132.722126
    },
    {
        "code": "C134210001800",
        "type": 16002,
        "name": "もみじ中学校",
        "address": "東広島市八本松町原10844",
        "lat": 34.401384,
        "lng": 132.673577
    },
    {
        "code": "C134210002328",
        "type": 16002,
        "name": "広島中学校",
        "address": "東広島市高屋町中島31-7",
        "lat": 34.447687,
        "lng": 132.793639
    },
    {
        "code": "C134310000131",
        "type": 16002,
        "name": "武田中学校",
        "address": "東広島市黒瀬町大多田443-5",
        "lat": 34.357842,
        "lng": 132.678028
    },
    {
        "code": "C134310000275",
        "type": 16002,
        "name": "広島中学校東広島校",
        "address": "東広島市高屋うめの辺2",
        "lat": 34.457689,
        "lng": 132.782585
    },
    {
        "code": "D134210000328",
        "type": 16004,
        "name": "賀茂高等学校",
        "address": "東広島市西条西本町16-22",
        "lat": 34.427219,
        "lng": 132.734704
    },
    {
        "code": "D134210000337",
        "type": 16004,
        "name": "黒瀬高等学校",
        "address": "東広島市黒瀬町乃美尾10001",
        "lat": 34.344878,
        "lng": 132.696582
    },
    {
        "code": "D134210000346",
        "type": 16004,
        "name": "賀茂北高等学校",
        "address": "東広島市豊栄町乃美632",
        "lat": 34.564645,
        "lng": 132.802374
    },
    {
        "code": "D134210000364",
        "type": 16004,
        "name": "豊田高等学校",
        "address": "東広島市安芸津町小松原1202-4",
        "lat": 34.296969,
        "lng": 132.794816
    },
    {
        "code": "D134210000550",
        "type": 16004,
        "name": "河内高等学校",
        "address": "東広島市河内町下河内10194-2",
        "lat": 34.465135,
        "lng": 132.902856
    },
    {
        "code": "D134210000729",
        "type": 16004,
        "name": "西条農業高等学校",
        "address": "東広島市鏡山3-16-1",
        "lat": 34.395138,
        "lng": 132.732511
    },
    {
        "code": "D134210000783",
        "type": 16004,
        "name": "広島高等学校",
        "address": "東広島市高屋町中島31-7",
        "lat": 34.447217,
        "lng": 132.793666
    },
    {
        "code": "D134310000353",
        "type": 16004,
        "name": "武田高等学校",
        "address": "東広島市黒瀬町大多田443-5",
        "lat": 34.35781,
        "lng": 132.678028
    },
    {
        "code": "D134310000362",
        "type": 16004,
        "name": "近畿大学附属広島高等学校東広島校",
        "address": "東広島市高屋うめの辺2",
        "lat": 34.457659,
        "lng": 132.782587
    },
    {
        "code": "E134210000094",
        "type": 16012,
        "name": "黒瀬特別支援学校",
        "address": "東広島市黒瀬町乃美尾10025-1",
        "lat": 34.347227,
        "lng": 132.694711
    },
    {
        "code": "E134210000101",
        "type": 16012,
        "name": "西条特別支援学校",
        "address": "東広島市西条町田口314",
        "lat": 34.392389,
        "lng": 132.72354
    },
    {
        "code": "F134110109780",
        "type": 16007,
        "name": "広島大学",
        "address": "東広島市鏡山1-3-2",
        "lat": 34.403078,
        "lng": 132.714914
    },
    {
        "code": "F134310109955",
        "type": 16007,
        "name": "広島国際大学",
        "address": "東広島市黒瀬学園台555-36",
        "lat": 34.313414,
        "lng": 132.687062
    }
]