[
    {
        "code": "A134210000510",
        "type": 16011,
        "name": "宮島幼稚園",
        "address": "廿日市市宮島町779-5",
        "lat": 34.304177,
        "lng": 132.327054
    },
    {
        "code": "A134310001125",
        "type": 16011,
        "name": "廿日市聖母マリア幼稚園",
        "address": "廿日市市可愛11-8",
        "lat": 34.352471,
        "lng": 132.333691
    },
    {
        "code": "A134310001134",
        "type": 16011,
        "name": "山陽女子短期大学附属幼稚園",
        "address": "廿日市市佐方本町1-1",
        "lat": 34.361866,
        "lng": 132.343287
    },
    {
        "code": "A134310001143",
        "type": 16011,
        "name": "つくし幼稚園",
        "address": "廿日市市阿品台2-15-1",
        "lat": 34.330062,
        "lng": 132.312741
    },
    {
        "code": "A134310001152",
        "type": 16011,
        "name": "ほうりん廿日市幼稚園",
        "address": "廿日市市佐方3-2-28",
        "lat": 34.366828,
        "lng": 132.338706
    },
    {
        "code": "A134310001161",
        "type": 16011,
        "name": "ふじ幼稚園",
        "address": "廿日市市阿品4-24-24",
        "lat": 34.321305,
        "lng": 132.308125
    },
    {
        "code": "A134310001189",
        "type": 16011,
        "name": "くすのき幼稚園",
        "address": "廿日市市四季が丘2-15-1",
        "lat": 34.351104,
        "lng": 132.292584
    },
    {
        "code": "A134310001198",
        "type": 16011,
        "name": "かえで幼稚園",
        "address": "廿日市市対厳山2-9-13",
        "lat": 34.315213,
        "lng": 132.297865
    },
    {
        "code": "A234310001231",
        "type": 16013,
        "name": "廿日市こども園",
        "address": "廿日市市桜尾本町2-19-5",
        "lat": 34.357373,
        "lng": 132.341639
    },
    {
        "code": "A234310001240",
        "type": 16013,
        "name": "友和こども園",
        "address": "廿日市市友田字里地24-513",
        "lat": 34.364932,
        "lng": 132.226308
    },
    {
        "code": "A234310001534",
        "type": 16013,
        "name": "フルムーンインターナショナルこども園おおの",
        "address": "廿日市市大野696-1",
        "lat": 34.310073,
        "lng": 132.284966
    },
    {
        "code": "B134210002614",
        "type": 16001,
        "name": "廿日市小学校",
        "address": "廿日市市本町2-13",
        "lat": 34.352635,
        "lng": 132.336324
    },
    {
        "code": "B134210002623",
        "type": 16001,
        "name": "平良小学校",
        "address": "廿日市市陽光台1-4-1",
        "lat": 34.354027,
        "lng": 132.313997
    },
    {
        "code": "B134210002632",
        "type": 16001,
        "name": "原小学校",
        "address": "廿日市市原433",
        "lat": 34.369383,
        "lng": 132.303438
    },
    {
        "code": "B134210002641",
        "type": 16001,
        "name": "宮内小学校",
        "address": "廿日市市宮内1518",
        "lat": 34.348052,
        "lng": 132.308855
    },
    {
        "code": "B134210002650",
        "type": 16001,
        "name": "地御前小学校",
        "address": "廿日市市地御前4-3-1",
        "lat": 34.337775,
        "lng": 132.317882
    },
    {
        "code": "B134210002669",
        "type": 16001,
        "name": "佐方小学校",
        "address": "廿日市市佐方10-1",
        "lat": 34.360273,
        "lng": 132.334074
    },
    {
        "code": "B134210002678",
        "type": 16001,
        "name": "阿品台東小学校",
        "address": "廿日市市阿品台東2-1",
        "lat": 34.331942,
        "lng": 132.309688
    },
    {
        "code": "B134210002687",
        "type": 16001,
        "name": "阿品台西小学校",
        "address": "廿日市市阿品台西1-1",
        "lat": 34.325248,
        "lng": 132.305328
    },
    {
        "code": "B134210002696",
        "type": 16001,
        "name": "金剛寺小学校",
        "address": "廿日市市地御前2-22-1",
        "lat": 34.345024,
        "lng": 132.31952
    },
    {
        "code": "B134210002703",
        "type": 16001,
        "name": "宮園小学校",
        "address": "廿日市市宮園1-1-2",
        "lat": 34.355134,
        "lng": 132.304577
    },
    {
        "code": "B134210002712",
        "type": 16001,
        "name": "四季が丘小学校",
        "address": "廿日市市四季が丘8-1-1",
        "lat": 34.348052,
        "lng": 132.289356
    },
    {
        "code": "B134210002721",
        "type": 16001,
        "name": "大野東小学校",
        "address": "廿日市市大野720",
        "lat": 34.308936,
        "lng": 132.283434
    },
    {
        "code": "B134210002730",
        "type": 16001,
        "name": "大野西小学校",
        "address": "廿日市市大野原4-3-1",
        "lat": 34.290795,
        "lng": 132.269763
    },
    {
        "code": "B134210002776",
        "type": 16001,
        "name": "友和小学校",
        "address": "廿日市市友田19",
        "lat": 34.359188,
        "lng": 132.226083
    },
    {
        "code": "B134210002785",
        "type": 16001,
        "name": "津田小学校",
        "address": "廿日市市津田2740",
        "lat": 34.369047,
        "lng": 132.172947
    },
    {
        "code": "B134210002794",
        "type": 16001,
        "name": "吉和小学校",
        "address": "廿日市市吉和1555-1",
        "lat": 34.47966,
        "lng": 132.134126
    },
    {
        "code": "B134210002801",
        "type": 16001,
        "name": "宮島小学校",
        "address": "廿日市市宮島町779-2",
        "lat": 34.303816,
        "lng": 132.326057
    },
    {
        "code": "C134210001249",
        "type": 16002,
        "name": "廿日市中学校",
        "address": "廿日市市桜尾3-9-1",
        "lat": 34.355857,
        "lng": 132.34685
    },
    {
        "code": "C134210001258",
        "type": 16002,
        "name": "七尾中学校",
        "address": "廿日市市平良2-2-34",
        "lat": 34.355242,
        "lng": 132.323859
    },
    {
        "code": "C134210001267",
        "type": 16002,
        "name": "阿品台中学校",
        "address": "廿日市市阿品台東1-1",
        "lat": 34.333775,
        "lng": 132.309494
    },
    {
        "code": "C134210001276",
        "type": 16002,
        "name": "野坂中学校",
        "address": "廿日市市地御前北1-3-1",
        "lat": 34.343608,
        "lng": 132.313493
    },
    {
        "code": "C134210001285",
        "type": 16002,
        "name": "四季が丘中学校",
        "address": "廿日市市四季が丘2-1-1",
        "lat": 34.352273,
        "lng": 132.293467
    },
    {
        "code": "C134210001294",
        "type": 16002,
        "name": "大野中学校",
        "address": "廿日市市大野原4-2-60",
        "lat": 34.292574,
        "lng": 132.2703
    },
    {
        "code": "C134210001301",
        "type": 16002,
        "name": "大野東中学校",
        "address": "廿日市市大野414",
        "lat": 34.311974,
        "lng": 132.284654
    },
    {
        "code": "C134210001338",
        "type": 16002,
        "name": "佐伯中学校",
        "address": "廿日市市津田69-1",
        "lat": 34.367214,
        "lng": 132.193057
    },
    {
        "code": "C134210001347",
        "type": 16002,
        "name": "吉和中学校",
        "address": "廿日市市吉和1555-1",
        "lat": 34.479793,
        "lng": 132.134328
    },
    {
        "code": "C134210001356",
        "type": 16002,
        "name": "宮島中学校",
        "address": "廿日市市宮島町779-2",
        "lat": 34.303035,
        "lng": 132.326009
    },
    {
        "code": "C134310000284",
        "type": 16002,
        "name": "山陽女学園中等部",
        "address": "廿日市市佐方本町1-1",
        "lat": 34.361687,
        "lng": 132.342837
    },
    {
        "code": "D134210000202",
        "type": 16004,
        "name": "廿日市高等学校",
        "address": "廿日市市桜尾3-3-1",
        "lat": 34.357662,
        "lng": 132.344961
    },
    {
        "code": "D134210000211",
        "type": 16004,
        "name": "廿日市西高等学校",
        "address": "廿日市市阿品台西6-1",
        "lat": 34.326276,
        "lng": 132.302384
    },
    {
        "code": "D134210000248",
        "type": 16004,
        "name": "佐伯高等学校",
        "address": "廿日市市津田850",
        "lat": 34.370075,
        "lng": 132.18814
    },
    {
        "code": "D134210000667",
        "type": 16004,
        "name": "宮島工業高等学校",
        "address": "廿日市市物見西2-6-1",
        "lat": 34.296751,
        "lng": 132.28233
    },
    {
        "code": "D134310000308",
        "type": 16004,
        "name": "山陽女学園高等部",
        "address": "廿日市市佐方本町1-1",
        "lat": 34.361734,
        "lng": 132.342848
    },
    {
        "code": "E134210000110",
        "type": 16012,
        "name": "廿日市特別支援学校",
        "address": "廿日市市宮内877-2",
        "lat": 34.337275,
        "lng": 132.302828
    },
    {
        "code": "F134310109964",
        "type": 16007,
        "name": "日本赤十字広島看護大学",
        "address": "廿日市市阿品台東1-2",
        "lat": 34.335496,
        "lng": 132.309799
    },
    {
        "code": "F234310109981",
        "type": 16006,
        "name": "山陽女子短期大学",
        "address": "廿日市市佐方本町1-1",
        "lat": 34.361717,
        "lng": 132.342822
    },
    {
        "code": "H134310000675",
        "type": 16016,
        "name": "広島歯科技術専門学校",
        "address": "廿日市市佐方本町1-1",
        "lat": 34.362098,
        "lng": 132.342347
    }
]