[
    {
        "code": "A234310001311",
        "type": 16013,
        "name": "幼保連携型認定こども園ふたば",
        "address": "山県郡北広島町志路原471",
        "lat": 34.715533,
        "lng": 132.443536
    },
    {
        "code": "A234310001320",
        "type": 16013,
        "name": "さつきヶ丘こども園",
        "address": "山県郡北広島町大元208-1",
        "lat": 34.731327,
        "lng": 132.237061
    },
    {
        "code": "A234310001339",
        "type": 16013,
        "name": "ルンビニ園",
        "address": "山県郡北広島町有田104",
        "lat": 34.680704,
        "lng": 132.529561
    },
    {
        "code": "A234310001348",
        "type": 16013,
        "name": "蔵迫こども園",
        "address": "山県郡北広島町蔵迫134-2",
        "lat": 34.705029,
        "lng": 132.505931
    },
    {
        "code": "A234310001357",
        "type": 16013,
        "name": "大朝こども園",
        "address": "山県郡北広島町大朝4650",
        "lat": 34.771132,
        "lng": 132.467604
    },
    {
        "code": "A234310001366",
        "type": 16013,
        "name": "壬生こども園",
        "address": "山県郡北広島町壬生131",
        "lat": 34.678399,
        "lng": 132.548343
    },
    {
        "code": "A234310001375",
        "type": 16013,
        "name": "都谷こども園",
        "address": "山県郡北広島町戸谷2011-1",
        "lat": 34.650548,
        "lng": 132.399552
    },
    {
        "code": "B134210003258",
        "type": 16001,
        "name": "大朝小学校",
        "address": "山県郡北広島町大朝4676-1",
        "lat": 34.76874,
        "lng": 132.467685
    },
    {
        "code": "B134210003267",
        "type": 16001,
        "name": "新庄小学校",
        "address": "山県郡北広島町新庄3497",
        "lat": 34.763565,
        "lng": 132.498023
    },
    {
        "code": "B134210003285",
        "type": 16001,
        "name": "八重東小学校",
        "address": "山県郡北広島町有田1897-1",
        "lat": 34.670797,
        "lng": 132.533191
    },
    {
        "code": "B134210003294",
        "type": 16001,
        "name": "壬生小学校",
        "address": "山県郡北広島町壬生855",
        "lat": 34.678713,
        "lng": 132.556301
    },
    {
        "code": "B134210003301",
        "type": 16001,
        "name": "本地小学校",
        "address": "山県郡北広島町本地2812-1",
        "lat": 34.639078,
        "lng": 132.510749
    },
    {
        "code": "B134210003310",
        "type": 16001,
        "name": "八重小学校",
        "address": "山県郡北広島町今田2288-1",
        "lat": 34.688325,
        "lng": 132.522958
    },
    {
        "code": "B134210003329",
        "type": 16001,
        "name": "芸北小学校",
        "address": "山県郡北広島町川小田213-3",
        "lat": 34.734841,
        "lng": 132.285459
    },
    {
        "code": "B134210003338",
        "type": 16001,
        "name": "豊平小学校",
        "address": "山県郡北広島町都志見10914",
        "lat": 34.653414,
        "lng": 132.42572
    },
    {
        "code": "C134210001533",
        "type": 16002,
        "name": "芸北中学校",
        "address": "山県郡北広島町川小田10075-90",
        "lat": 34.724297,
        "lng": 132.276785
    },
    {
        "code": "C134210001542",
        "type": 16002,
        "name": "大朝中学校",
        "address": "山県郡北広島町大朝4683-1",
        "lat": 34.768396,
        "lng": 132.467526
    },
    {
        "code": "C134210001551",
        "type": 16002,
        "name": "千代田中学校",
        "address": "山県郡北広島町古保利450",
        "lat": 34.679685,
        "lng": 132.540552
    },
    {
        "code": "C134210001560",
        "type": 16002,
        "name": "豊平中学校",
        "address": "山県郡北広島町都志見10914",
        "lat": 34.652824,
        "lng": 132.426677
    },
    {
        "code": "C134310000257",
        "type": 16002,
        "name": "広島新庄中学校",
        "address": "山県郡北広島町新庄848",
        "lat": 34.76362,
        "lng": 132.492496
    },
    {
        "code": "D134210000284",
        "type": 16004,
        "name": "加計高等学校芸北分校",
        "address": "山県郡北広島町川小田10075-15",
        "lat": 34.726203,
        "lng": 132.275599
    },
    {
        "code": "D134210000293",
        "type": 16004,
        "name": "千代田高等学校",
        "address": "山県郡北広島町有間600-1",
        "lat": 34.689823,
        "lng": 132.516165
    },
    {
        "code": "D134310000344",
        "type": 16004,
        "name": "広島新庄高等学校",
        "address": "山県郡北広島町新庄848",
        "lat": 34.763881,
        "lng": 132.492487
    }
]