[
    {
        "code": "B103248300013",
        "type": 16001,
        "name": "岩泉小学校",
        "address": "下閉伊郡岩泉町岩泉字和川原4-2",
        "lat": 39.848924,
        "lng": 141.790031
    },
    {
        "code": "B103248300022",
        "type": 16001,
        "name": "大川小学校",
        "address": "下閉伊郡岩泉町大川字下町112",
        "lat": 39.80226,
        "lng": 141.654212
    },
    {
        "code": "B103248300031",
        "type": 16001,
        "name": "釜津田小学校",
        "address": "下閉伊郡岩泉町釜津田字沢口37",
        "lat": 39.784482,
        "lng": 141.558388
    },
    {
        "code": "B103248300040",
        "type": 16001,
        "name": "安家小学校",
        "address": "下閉伊郡岩泉町安家字松林157-2",
        "lat": 39.986129,
        "lng": 141.738366
    },
    {
        "code": "B103248300059",
        "type": 16001,
        "name": "有芸小学校",
        "address": "下閉伊郡岩泉町上有芸字運名根3-4",
        "lat": 39.772029,
        "lng": 141.810298
    },
    {
        "code": "B103248300068",
        "type": 16001,
        "name": "小本小学校",
        "address": "下閉伊郡岩泉町小本字南中野145",
        "lat": 39.839876,
        "lng": 141.95476
    },
    {
        "code": "B103248300077",
        "type": 16001,
        "name": "小川小学校",
        "address": "下閉伊郡岩泉町門字町32-3",
        "lat": 39.876309,
        "lng": 141.649163
    },
    {
        "code": "C103248300011",
        "type": 16002,
        "name": "岩泉中学校",
        "address": "下閉伊郡岩泉町岩泉字一ﾂ石4",
        "lat": 39.849645,
        "lng": 141.803987
    },
    {
        "code": "C103248300020",
        "type": 16002,
        "name": "釜津田中学校",
        "address": "下閉伊郡岩泉町釜津田字上種倉27-6",
        "lat": 39.793093,
        "lng": 141.592552
    },
    {
        "code": "C103248300039",
        "type": 16002,
        "name": "小川中学校",
        "address": "下閉伊郡岩泉町門字町向39-1",
        "lat": 39.874725,
        "lng": 141.653365
    },
    {
        "code": "C103248300048",
        "type": 16002,
        "name": "小本中学校",
        "address": "下閉伊郡岩泉町小本字南中野145",
        "lat": 39.839757,
        "lng": 141.954742
    },
    {
        "code": "D103210000548",
        "type": 16004,
        "name": "岩泉高等学校",
        "address": "下閉伊郡岩泉町岩泉字松橋4",
        "lat": 39.843648,
        "lng": 141.79503
    }
]