[
    {
        "code": "A103250600018",
        "type": 16011,
        "name": "ひめほたるこども園",
        "address": "九戸郡九戸村大字長興寺14-33-3",
        "lat": 40.240856,
        "lng": 141.416226
    },
    {
        "code": "B103250600016",
        "type": 16001,
        "name": "伊保内小学校",
        "address": "九戸郡九戸村大字伊保内7-10-1",
        "lat": 40.209141,
        "lng": 141.421782
    },
    {
        "code": "B103250600025",
        "type": 16001,
        "name": "長興寺小学校",
        "address": "九戸郡九戸村大字長興寺8-49",
        "lat": 40.227151,
        "lng": 141.417387
    },
    {
        "code": "B103250600034",
        "type": 16001,
        "name": "戸田小学校",
        "address": "九戸郡九戸村大字戸田16-74-4",
        "lat": 40.161664,
        "lng": 141.428326
    },
    {
        "code": "B103250600043",
        "type": 16001,
        "name": "山根小学校",
        "address": "九戸郡九戸村大字山根10-3-4",
        "lat": 40.188162,
        "lng": 141.426269
    },
    {
        "code": "B103250600052",
        "type": 16001,
        "name": "江刺家小学校",
        "address": "九戸郡九戸村大字江刺家10-12-2",
        "lat": 40.254449,
        "lng": 141.40977
    },
    {
        "code": "C103250600014",
        "type": 16002,
        "name": "九戸中学校",
        "address": "九戸郡九戸村大字山根10-3",
        "lat": 40.187399,
        "lng": 141.423931
    },
    {
        "code": "D103210000628",
        "type": 16004,
        "name": "伊保内高等学校",
        "address": "九戸郡九戸村大字伊保内1-61-12",
        "lat": 40.198769,
        "lng": 141.43101
    }
]