[
    {
        "code": "A203250700025",
        "type": 16013,
        "name": "八木こども園",
        "address": "九戸郡洋野町種市3-2-5",
        "lat": 40.410576,
        "lng": 141.716946
    },
    {
        "code": "A203250700034",
        "type": 16013,
        "name": "大野こども園",
        "address": "九戸郡洋野町大野8-36-3",
        "lat": 40.281555,
        "lng": 141.622074
    },
    {
        "code": "A203350700014",
        "type": 16013,
        "name": "なかのこども園",
        "address": "九戸郡洋野町中野9-29-22",
        "lat": 40.30233,
        "lng": 141.77767
    },
    {
        "code": "A203350700023",
        "type": 16013,
        "name": "種市こども園",
        "address": "九戸郡洋野町種市23-27-2",
        "lat": 40.410645,
        "lng": 141.716925
    },
    {
        "code": "B103250700015",
        "type": 16001,
        "name": "種市小学校",
        "address": "九戸郡洋野町種市20-33-3",
        "lat": 40.404785,
        "lng": 141.714324
    },
    {
        "code": "B103250700024",
        "type": 16001,
        "name": "角浜小学校",
        "address": "九戸郡洋野町種市43-101-10",
        "lat": 40.435812,
        "lng": 141.677601
    },
    {
        "code": "B103250700033",
        "type": 16001,
        "name": "宿戸小学校",
        "address": "九戸郡洋野町種市7-117-8",
        "lat": 40.365425,
        "lng": 141.745719
    },
    {
        "code": "B103250700042",
        "type": 16001,
        "name": "中野小学校",
        "address": "九戸郡洋野町中野1-90-5",
        "lat": 40.311829,
        "lng": 141.769646
    },
    {
        "code": "B103250700051",
        "type": 16001,
        "name": "大野小学校",
        "address": "九戸郡洋野町大野9-1",
        "lat": 40.285569,
        "lng": 141.625423
    },
    {
        "code": "B103250700060",
        "type": 16001,
        "name": "林郷小学校",
        "address": "九戸郡洋野町大野47-9",
        "lat": 40.303538,
        "lng": 141.673953
    },
    {
        "code": "B103250700079",
        "type": 16001,
        "name": "帯島小学校",
        "address": "九戸郡洋野町帯島5-22-1",
        "lat": 40.254412,
        "lng": 141.695925
    },
    {
        "code": "B103250700088",
        "type": 16001,
        "name": "向田小学校",
        "address": "九戸郡洋野町上舘55-49-14",
        "lat": 40.328099,
        "lng": 141.604866
    },
    {
        "code": "C103250700013",
        "type": 16002,
        "name": "種市中学校",
        "address": "九戸郡洋野町種市25-29",
        "lat": 40.412335,
        "lng": 141.705975
    },
    {
        "code": "C103250700022",
        "type": 16002,
        "name": "中野中学校",
        "address": "九戸郡洋野町中野2-45-7",
        "lat": 40.309356,
        "lng": 141.774919
    },
    {
        "code": "C103250700031",
        "type": 16002,
        "name": "大野中学校",
        "address": "九戸郡洋野町大野9-39-1",
        "lat": 40.284782,
        "lng": 141.623924
    },
    {
        "code": "D103210000593",
        "type": 16004,
        "name": "種市高等学校",
        "address": "九戸郡洋野町種市38-94-110",
        "lat": 40.430969,
        "lng": 141.697802
    },
    {
        "code": "D103210000600",
        "type": 16004,
        "name": "大野高等学校",
        "address": "九戸郡洋野町大野58-12-55",
        "lat": 40.273679,
        "lng": 141.641876
    }
]