[
    {
        "code": "A135210000010",
        "type": 16011,
        "name": "第一幼稚園",
        "address": "下関市貴船町3-11-12",
        "lat": 33.968776,
        "lng": 130.940482
    },
    {
        "code": "A135210000029",
        "type": 16011,
        "name": "豊浦幼稚園",
        "address": "下関市長府亀の甲2-2-82",
        "lat": 34.003895,
        "lng": 130.986523
    },
    {
        "code": "A135210000038",
        "type": 16011,
        "name": "小月幼稚園",
        "address": "下関市小月宮の町15-20",
        "lat": 34.071906,
        "lng": 131.041446
    },
    {
        "code": "A135210000056",
        "type": 16011,
        "name": "清末幼稚園",
        "address": "下関市清末西町1-6-1",
        "lat": 34.063744,
        "lng": 131.020021
    },
    {
        "code": "A135210000074",
        "type": 16011,
        "name": "川中幼稚園",
        "address": "下関市伊倉本町21-1",
        "lat": 34.003973,
        "lng": 130.934286
    },
    {
        "code": "A135210000289",
        "type": 16011,
        "name": "豊東幼稚園",
        "address": "下関市菊川町大字上大野20-1",
        "lat": 34.116728,
        "lng": 131.043705
    },
    {
        "code": "A135210000323",
        "type": 16011,
        "name": "内日幼稚園",
        "address": "下関市大字内日下字坂本1031",
        "lat": 34.10106,
        "lng": 130.970564
    },
    {
        "code": "A135310000018",
        "type": 16011,
        "name": "下関短期大学付属第一幼稚園",
        "address": "下関市桜山町1-1",
        "lat": 33.962535,
        "lng": 130.92295
    },
    {
        "code": "A135310000027",
        "type": 16011,
        "name": "梅光学院幼稚園",
        "address": "下関市大学町3-10-30",
        "lat": 33.991507,
        "lng": 130.935612
    },
    {
        "code": "A135310000036",
        "type": 16011,
        "name": "下関天使幼稚園",
        "address": "下関市細江町1-9-15",
        "lat": 33.953075,
        "lng": 130.930894
    },
    {
        "code": "A135310000045",
        "type": 16011,
        "name": "暁の星幼稚園",
        "address": "下関市上田中町2-10-14",
        "lat": 33.963535,
        "lng": 130.940654
    },
    {
        "code": "A135310000054",
        "type": 16011,
        "name": "めぐみ幼稚園",
        "address": "下関市上田中町2-13-26",
        "lat": 33.964749,
        "lng": 130.941012
    },
    {
        "code": "A135310000063",
        "type": 16011,
        "name": "海の星幼稚園",
        "address": "下関市長府金屋浜町8-8",
        "lat": 34.000937,
        "lng": 130.991437
    },
    {
        "code": "A135310000072",
        "type": 16011,
        "name": "泉幼稚園",
        "address": "下関市山の田南町13-12",
        "lat": 33.986047,
        "lng": 130.92529
    },
    {
        "code": "A135310000081",
        "type": 16011,
        "name": "もみじ幼稚園",
        "address": "下関市長府侍町1-10-1",
        "lat": 33.993482,
        "lng": 130.987215
    },
    {
        "code": "A135310000090",
        "type": 16011,
        "name": "安岡幼稚園",
        "address": "下関市富任町6-1-23",
        "lat": 34.021866,
        "lng": 130.922784
    },
    {
        "code": "A135310000107",
        "type": 16011,
        "name": "福王幼稚園",
        "address": "下関市一の宮本町2-9-14",
        "lat": 33.999935,
        "lng": 130.953204
    },
    {
        "code": "A135310000116",
        "type": 16011,
        "name": "いちょう幼稚園",
        "address": "下関市安岡町1-10-7",
        "lat": 34.028543,
        "lng": 130.913048
    },
    {
        "code": "A135310000125",
        "type": 16011,
        "name": "下関短期大学付属第二幼稚園",
        "address": "下関市彦島塩浜町2-2-21",
        "lat": 33.91967,
        "lng": 130.905582
    },
    {
        "code": "A135310000134",
        "type": 16011,
        "name": "下関国際高等学校付属幼稚園",
        "address": "下関市大字伊倉字四方山7",
        "lat": 34.003664,
        "lng": 130.944422
    },
    {
        "code": "A235210000019",
        "type": 16013,
        "name": "王喜こども園",
        "address": "下関市王喜本町2-15-1",
        "lat": 34.064329,
        "lng": 131.053523
    },
    {
        "code": "A235210000028",
        "type": 16013,
        "name": "菊川こども園",
        "address": "下関市菊川町大字下岡枝字高田1504",
        "lat": 34.124736,
        "lng": 131.0336
    },
    {
        "code": "A235210000037",
        "type": 16013,
        "name": "西市こども園",
        "address": "下関市豊田町大字矢田字横の田185",
        "lat": 34.200812,
        "lng": 131.075592
    },
    {
        "code": "A235210000046",
        "type": 16013,
        "name": "豊田下こども園",
        "address": "下関市豊田町大字手洗字堂本273-1",
        "lat": 34.177287,
        "lng": 131.062558
    },
    {
        "code": "A235210000055",
        "type": 16013,
        "name": "川棚こども園",
        "address": "下関市豊浦町大字川棚字寺田5281",
        "lat": 34.142188,
        "lng": 130.935608
    },
    {
        "code": "A235210000064",
        "type": 16013,
        "name": "豊北こども園",
        "address": "下関市豊北町大字滝部字上ﾉ原2992-1",
        "lat": 34.289325,
        "lng": 130.949786
    },
    {
        "code": "A235210000073",
        "type": 16013,
        "name": "黒井こども園",
        "address": "下関市豊浦町大字黒井字下北岡2159-1",
        "lat": 34.127324,
        "lng": 130.915329
    },
    {
        "code": "A235210000082",
        "type": 16013,
        "name": "中央こども園",
        "address": "下関市幡生新町1-10",
        "lat": 33.973438,
        "lng": 130.921918
    },
    {
        "code": "A235210000091",
        "type": 16013,
        "name": "垢田こども園",
        "address": "下関市新垢田東町1-2-7",
        "lat": 33.989324,
        "lng": 130.915385
    },
    {
        "code": "A235310000017",
        "type": 16013,
        "name": "長府幼稚園",
        "address": "下関市長府金屋町2-7",
        "lat": 34.002926,
        "lng": 130.990151
    },
    {
        "code": "A235310000044",
        "type": 16013,
        "name": "聖母園",
        "address": "下関市彦島緑町11-6",
        "lat": 33.93183,
        "lng": 130.90964
    },
    {
        "code": "A235310000053",
        "type": 16013,
        "name": "でしまつ子ども園",
        "address": "下関市彦島杉田町2-3-10",
        "lat": 33.926939,
        "lng": 130.920972
    },
    {
        "code": "A235310000062",
        "type": 16013,
        "name": "吉田緑こども園",
        "address": "下関市大字吉田1085-1",
        "lat": 34.086883,
        "lng": 131.071887
    },
    {
        "code": "A235310000071",
        "type": 16013,
        "name": "くりのみ子供園",
        "address": "下関市彦島田の首町2-6-10",
        "lat": 33.917012,
        "lng": 130.91592
    },
    {
        "code": "A235310000080",
        "type": 16013,
        "name": "ひがし子ども園",
        "address": "下関市東向山町13-31",
        "lat": 33.967968,
        "lng": 130.928821
    },
    {
        "code": "A235310000099",
        "type": 16013,
        "name": "豊北きらきらこども園",
        "address": "下関市豊北町大字神田2408",
        "lat": 34.331445,
        "lng": 130.895769
    },
    {
        "code": "A235310000106",
        "type": 16013,
        "name": "しおかぜの里こども園",
        "address": "下関市彦島迫町6-7-22",
        "lat": 33.943087,
        "lng": 130.896225
    },
    {
        "code": "B135210000018",
        "type": 16001,
        "name": "養治小学校",
        "address": "下関市本町2-6-1",
        "lat": 33.965899,
        "lng": 130.948728
    },
    {
        "code": "B135210000027",
        "type": 16001,
        "name": "文関小学校",
        "address": "下関市上田中町1-14-1",
        "lat": 33.966399,
        "lng": 130.93784
    },
    {
        "code": "B135210000036",
        "type": 16001,
        "name": "名池小学校",
        "address": "下関市名池町10-1",
        "lat": 33.958483,
        "lng": 130.93759
    },
    {
        "code": "B135210000045",
        "type": 16001,
        "name": "王江小学校",
        "address": "下関市入江町9-1",
        "lat": 33.954372,
        "lng": 130.935757
    },
    {
        "code": "B135210000054",
        "type": 16001,
        "name": "関西小学校",
        "address": "下関市関西町12-1",
        "lat": 33.957983,
        "lng": 130.927619
    },
    {
        "code": "B135210000063",
        "type": 16001,
        "name": "桜山小学校",
        "address": "下関市上新地町2-5-10",
        "lat": 33.960816,
        "lng": 130.920342
    },
    {
        "code": "B135210000072",
        "type": 16001,
        "name": "向山小学校",
        "address": "下関市向山町14-1",
        "lat": 33.967426,
        "lng": 130.925785
    },
    {
        "code": "B135210000081",
        "type": 16001,
        "name": "生野小学校",
        "address": "下関市幡生本町7-14",
        "lat": 33.978009,
        "lng": 130.928702
    },
    {
        "code": "B135210000090",
        "type": 16001,
        "name": "本村小学校",
        "address": "下関市彦島本村町3-16-1",
        "lat": 33.945234,
        "lng": 130.910148
    },
    {
        "code": "B135210000107",
        "type": 16001,
        "name": "西山小学校",
        "address": "下関市彦島迫町5-13-21",
        "lat": 33.942317,
        "lng": 130.896066
    },
    {
        "code": "B135210000116",
        "type": 16001,
        "name": "江浦小学校",
        "address": "下関市彦島江の浦町3-4-1",
        "lat": 33.930124,
        "lng": 130.914926
    },
    {
        "code": "B135210000125",
        "type": 16001,
        "name": "角倉小学校",
        "address": "下関市彦島角倉町3-5-5",
        "lat": 33.924847,
        "lng": 130.915898
    },
    {
        "code": "B135210000134",
        "type": 16001,
        "name": "小月小学校",
        "address": "下関市小月西の台6-1",
        "lat": 34.071,
        "lng": 131.040329
    },
    {
        "code": "B135210000143",
        "type": 16001,
        "name": "清末小学校",
        "address": "下関市清末西町1-6-1",
        "lat": 34.063917,
        "lng": 131.01908
    },
    {
        "code": "B135210000152",
        "type": 16001,
        "name": "王司小学校",
        "address": "下関市王司神田6-9-1",
        "lat": 34.050419,
        "lng": 131.013387
    },
    {
        "code": "B135210000161",
        "type": 16001,
        "name": "豊浦小学校",
        "address": "下関市長府亀の甲2-2-1",
        "lat": 34.003506,
        "lng": 130.989001
    },
    {
        "code": "B135210000170",
        "type": 16001,
        "name": "勝山小学校",
        "address": "下関市秋根上町2-2-1",
        "lat": 34.009978,
        "lng": 130.960948
    },
    {
        "code": "B135210000189",
        "type": 16001,
        "name": "川中小学校",
        "address": "下関市伊倉本町19-1",
        "lat": 34.003729,
        "lng": 130.935228
    },
    {
        "code": "B135210000198",
        "type": 16001,
        "name": "安岡小学校",
        "address": "下関市安岡町3-5-5",
        "lat": 34.028726,
        "lng": 130.919729
    },
    {
        "code": "B135210000205",
        "type": 16001,
        "name": "吉見小学校",
        "address": "下関市吉見里町1-8-1",
        "lat": 34.072636,
        "lng": 130.900701
    },
    {
        "code": "B135210000214",
        "type": 16001,
        "name": "吉母小学校",
        "address": "下関市大字吉母字塩谷287",
        "lat": 34.08966,
        "lng": 130.878769
    },
    {
        "code": "B135210000223",
        "type": 16001,
        "name": "蓋井小学校",
        "address": "下関市大字蓋井島字田町126-2",
        "lat": 34.101879,
        "lng": 130.787572
    },
    {
        "code": "B135210000232",
        "type": 16001,
        "name": "吉田小学校",
        "address": "下関市大字吉田字高田1044-2",
        "lat": 34.088622,
        "lng": 131.072165
    },
    {
        "code": "B135210000241",
        "type": 16001,
        "name": "王喜小学校",
        "address": "下関市王喜本町2-12-30",
        "lat": 34.063168,
        "lng": 131.0553
    },
    {
        "code": "B135210000250",
        "type": 16001,
        "name": "内日小学校",
        "address": "下関市大字内日下字坂本1031",
        "lat": 34.101245,
        "lng": 130.969944
    },
    {
        "code": "B135210000269",
        "type": 16001,
        "name": "山の田小学校",
        "address": "下関市山の田中央町13-1",
        "lat": 33.987619,
        "lng": 130.925618
    },
    {
        "code": "B135210000278",
        "type": 16001,
        "name": "川中西小学校",
        "address": "下関市古屋町2-9-1",
        "lat": 34.000534,
        "lng": 130.918812
    },
    {
        "code": "B135210000287",
        "type": 16001,
        "name": "長府小学校",
        "address": "下関市長府松小田北町14-1",
        "lat": 34.021172,
        "lng": 130.997166
    },
    {
        "code": "B135210000296",
        "type": 16001,
        "name": "向井小学校",
        "address": "下関市彦島向井町2-20-1",
        "lat": 33.917459,
        "lng": 130.918564
    },
    {
        "code": "B135210000303",
        "type": 16001,
        "name": "垢田小学校",
        "address": "下関市新垢田西町1-1-1",
        "lat": 33.98923,
        "lng": 130.912619
    },
    {
        "code": "B135210000312",
        "type": 16001,
        "name": "一の宮小学校",
        "address": "下関市一の宮住吉1-8-1",
        "lat": 34.002229,
        "lng": 130.95717
    },
    {
        "code": "B135210000321",
        "type": 16001,
        "name": "熊野小学校",
        "address": "下関市熊野西町10-1",
        "lat": 33.995118,
        "lng": 130.941783
    },
    {
        "code": "B135210002631",
        "type": 16001,
        "name": "豊東小学校",
        "address": "下関市菊川町大字上大野字上の原10020-1",
        "lat": 34.115138,
        "lng": 131.049558
    },
    {
        "code": "B135210002640",
        "type": 16001,
        "name": "岡枝小学校",
        "address": "下関市菊川町大字吉賀字金蔵寺2494",
        "lat": 34.134146,
        "lng": 131.019384
    },
    {
        "code": "B135210002659",
        "type": 16001,
        "name": "楢崎小学校",
        "address": "下関市菊川町大字楢崎字殿屋敷215",
        "lat": 34.134839,
        "lng": 130.993995
    },
    {
        "code": "B135210002677",
        "type": 16001,
        "name": "西市小学校",
        "address": "下関市豊田町大字矢田字今熊132",
        "lat": 34.204583,
        "lng": 131.07426
    },
    {
        "code": "B135210002686",
        "type": 16001,
        "name": "豊田下小学校",
        "address": "下関市豊田町大字手洗字貴布祢303",
        "lat": 34.179802,
        "lng": 131.066449
    },
    {
        "code": "B135210002695",
        "type": 16001,
        "name": "室津小学校",
        "address": "下関市豊浦町大字室津下字新田152-1",
        "lat": 34.130366,
        "lng": 130.89332
    },
    {
        "code": "B135210002702",
        "type": 16001,
        "name": "誠意小学校",
        "address": "下関市豊浦町大字黒井字才舛2200",
        "lat": 34.127806,
        "lng": 130.91407
    },
    {
        "code": "B135210002711",
        "type": 16001,
        "name": "川棚小学校",
        "address": "下関市豊浦町大字川棚字後楽3650-1",
        "lat": 34.151198,
        "lng": 130.93145
    },
    {
        "code": "B135210002720",
        "type": 16001,
        "name": "小串小学校",
        "address": "下関市豊浦町大字小串字谷田ヶ浴617",
        "lat": 34.176022,
        "lng": 130.933256
    },
    {
        "code": "B135210002739",
        "type": 16001,
        "name": "宇賀小学校",
        "address": "下関市豊浦町大字宇賀字ふけ4961",
        "lat": 34.22094,
        "lng": 130.932035
    },
    {
        "code": "B135210002748",
        "type": 16001,
        "name": "豊北小学校",
        "address": "下関市下関市豊北町大字滝部1200",
        "lat": 34.292891,
        "lng": 130.954295
    },
    {
        "code": "C135210000016",
        "type": 16002,
        "name": "日新中学校",
        "address": "下関市上田中町1-15-1",
        "lat": 33.967759,
        "lng": 130.937951
    },
    {
        "code": "C135210000025",
        "type": 16002,
        "name": "向洋中学校",
        "address": "下関市向洋町1-14-1",
        "lat": 33.964288,
        "lng": 130.930535
    },
    {
        "code": "C135210000034",
        "type": 16002,
        "name": "文洋中学校",
        "address": "下関市上新地町5-6-1",
        "lat": 33.957871,
        "lng": 130.913481
    },
    {
        "code": "C135210000043",
        "type": 16002,
        "name": "名陵中学校",
        "address": "下関市丸山町1-13-3",
        "lat": 33.958372,
        "lng": 130.936118
    },
    {
        "code": "C135210000052",
        "type": 16002,
        "name": "東部中学校",
        "address": "下関市清末陣屋5-10",
        "lat": 34.065056,
        "lng": 131.022266
    },
    {
        "code": "C135210000061",
        "type": 16002,
        "name": "長府中学校",
        "address": "下関市長府逢坂町3-1",
        "lat": 33.998174,
        "lng": 130.983001
    },
    {
        "code": "C135210000070",
        "type": 16002,
        "name": "勝山中学校",
        "address": "下関市秋根上町2-5-1",
        "lat": 34.010617,
        "lng": 130.959003
    },
    {
        "code": "C135210000089",
        "type": 16002,
        "name": "川中中学校",
        "address": "下関市伊倉新町4-6-1",
        "lat": 34.002034,
        "lng": 130.929395
    },
    {
        "code": "C135210000098",
        "type": 16002,
        "name": "安岡中学校",
        "address": "下関市安岡町4-2-1",
        "lat": 34.033086,
        "lng": 130.919784
    },
    {
        "code": "C135210000105",
        "type": 16002,
        "name": "吉見中学校",
        "address": "下関市永田本町1-3-10",
        "lat": 34.07333,
        "lng": 130.895062
    },
    {
        "code": "C135210000114",
        "type": 16002,
        "name": "彦島中学校",
        "address": "下関市彦島江の浦町2-25-1",
        "lat": 33.934124,
        "lng": 130.911232
    },
    {
        "code": "C135210000123",
        "type": 16002,
        "name": "木屋川中学校",
        "address": "下関市木屋川南町2-660",
        "lat": 34.073334,
        "lng": 131.056245
    },
    {
        "code": "C135210000132",
        "type": 16002,
        "name": "内日中学校",
        "address": "下関市大字内日下字福寿庵1196-2",
        "lat": 34.103078,
        "lng": 130.969194
    },
    {
        "code": "C135210000141",
        "type": 16002,
        "name": "山の田中学校",
        "address": "下関市山の田本町8-1",
        "lat": 33.989591,
        "lng": 130.927173
    },
    {
        "code": "C135210000150",
        "type": 16002,
        "name": "玄洋中学校",
        "address": "下関市彦島本村町2-8-1",
        "lat": 33.942762,
        "lng": 130.906788
    },
    {
        "code": "C135210000169",
        "type": 16002,
        "name": "垢田中学校",
        "address": "下関市大字垢田字笹原1127-6",
        "lat": 33.997562,
        "lng": 130.914229
    },
    {
        "code": "C135210000178",
        "type": 16002,
        "name": "長成中学校",
        "address": "下関市長府日の出町4-1",
        "lat": 34.015617,
        "lng": 130.994
    },
    {
        "code": "C135210001364",
        "type": 16002,
        "name": "菊川中学校",
        "address": "下関市菊川町大字下岡枝字上室屋1-2",
        "lat": 34.123209,
        "lng": 131.027928
    },
    {
        "code": "C135210001373",
        "type": 16002,
        "name": "豊洋中学校",
        "address": "下関市豊浦町大字黒井字馬神724-1",
        "lat": 34.127936,
        "lng": 130.904793
    },
    {
        "code": "C135210001382",
        "type": 16002,
        "name": "夢が丘中学校",
        "address": "下関市豊浦町大字小串字夢が丘145",
        "lat": 34.171682,
        "lng": 130.934526
    },
    {
        "code": "C135210001391",
        "type": 16002,
        "name": "豊北中学校",
        "address": "下関市豊北町大字滝部字幸神1244-36",
        "lat": 34.292939,
        "lng": 130.954346
    },
    {
        "code": "C135210001541",
        "type": 16002,
        "name": "豊田中学校",
        "address": "下関市豊田町大字矢田字鎮守434",
        "lat": 34.197031,
        "lng": 131.074749
    },
    {
        "code": "C135310000014",
        "type": 16002,
        "name": "梅光学院中学校",
        "address": "下関市丸山町2-9-1",
        "lat": 33.957677,
        "lng": 130.934035
    },
    {
        "code": "D135210000265",
        "type": 16004,
        "name": "田部高等学校",
        "address": "下関市菊川町大字田部1074",
        "lat": 34.118436,
        "lng": 131.030907
    },
    {
        "code": "D135210000283",
        "type": 16004,
        "name": "豊浦高等学校",
        "address": "下関市長府宮崎町1-1",
        "lat": 33.991452,
        "lng": 130.992445
    },
    {
        "code": "D135210000292",
        "type": 16004,
        "name": "長府高等学校",
        "address": "下関市長府亀の甲2-3-1",
        "lat": 34.002757,
        "lng": 130.98689
    },
    {
        "code": "D135210000309",
        "type": 16004,
        "name": "下関西高等学校",
        "address": "下関市後田町4-10-1",
        "lat": 33.97237,
        "lng": 130.929146
    },
    {
        "code": "D135210000318",
        "type": 16004,
        "name": "下関南高等学校",
        "address": "下関市後田町1-8-1",
        "lat": 33.969204,
        "lng": 130.931729
    },
    {
        "code": "D135210000336",
        "type": 16004,
        "name": "下関市立下関商業高等学校",
        "address": "下関市後田町4-11-1",
        "lat": 33.973065,
        "lng": 130.928007
    },
    {
        "code": "D135210000540",
        "type": 16004,
        "name": "下関工科高等学校",
        "address": "下関市富任町4-1-1",
        "lat": 34.023726,
        "lng": 130.92059
    },
    {
        "code": "D135210000568",
        "type": 16004,
        "name": "下関北高等学校",
        "address": "下関市豊北町大字滝部1003",
        "lat": 34.292423,
        "lng": 130.957532
    },
    {
        "code": "D135210000577",
        "type": 16004,
        "name": "下関双葉高等学校",
        "address": "下関市後田町4-25-1",
        "lat": 33.973456,
        "lng": 130.925366
    },
    {
        "code": "D135210000586",
        "type": 16004,
        "name": "山口農業高等学校西市分校",
        "address": "下関市豊田町殿敷834-5",
        "lat": 34.197508,
        "lng": 131.082276
    },
    {
        "code": "D135310000012",
        "type": 16004,
        "name": "梅光学院高等学校",
        "address": "下関市丸山町2-9-1",
        "lat": 33.957872,
        "lng": 130.934035
    },
    {
        "code": "D135310000021",
        "type": 16004,
        "name": "早鞆高等学校",
        "address": "下関市上田中町8-3-1",
        "lat": 33.964732,
        "lng": 130.935896
    },
    {
        "code": "D135310000030",
        "type": 16004,
        "name": "下関短期大学付属高等学校",
        "address": "下関市桜山町1-1",
        "lat": 33.962593,
        "lng": 130.922925
    },
    {
        "code": "D135310000049",
        "type": 16004,
        "name": "下関国際高等学校",
        "address": "下関市大字伊倉字四方山7",
        "lat": 34.002302,
        "lng": 130.945028
    },
    {
        "code": "D235210000013",
        "type": 16003,
        "name": "下関中等教育学校",
        "address": "下関市彦島老町2-21-1",
        "lat": 33.948009,
        "lng": 130.906068
    },
    {
        "code": "E135210000011",
        "type": 16012,
        "name": "下関南総合支援学校",
        "address": "下関市幡生町1-1-22",
        "lat": 33.97637,
        "lng": 130.93784
    },
    {
        "code": "E135210000057",
        "type": 16012,
        "name": "豊浦総合支援学校",
        "address": "下関市豊浦町大字小串7-136",
        "lat": 34.167169,
        "lng": 130.924517
    },
    {
        "code": "E135210000075",
        "type": 16012,
        "name": "下関総合支援学校",
        "address": "下関市富任町8-9-1",
        "lat": 34.022671,
        "lng": 130.928506
    },
    {
        "code": "F135210110061",
        "type": 16007,
        "name": "下関市立大学",
        "address": "下関市大学町2-1-1",
        "lat": 33.987633,
        "lng": 130.93458
    },
    {
        "code": "F135310110096",
        "type": 16007,
        "name": "梅光学院大学",
        "address": "下関市向洋町1-1-1",
        "lat": 33.967756,
        "lng": 130.931505
    },
    {
        "code": "F135310110112",
        "type": 16007,
        "name": "東亜大学",
        "address": "下関市一の宮学園町2-1",
        "lat": 33.999924,
        "lng": 130.948616
    },
    {
        "code": "F235310110166",
        "type": 16006,
        "name": "下関短期大学",
        "address": "下関市桜山町1-1",
        "lat": 33.962038,
        "lng": 130.923091
    },
    {
        "code": "H135310000013",
        "type": 16016,
        "name": "立修館高等専修学校",
        "address": "下関市小月茶屋3-4-26",
        "lat": 34.069495,
        "lng": 131.027926
    },
    {
        "code": "H135310000022",
        "type": 16016,
        "name": "下関文化産業専門学校",
        "address": "下関市小月茶屋3-4-26",
        "lat": 34.069398,
        "lng": 131.027923
    },
    {
        "code": "H135310000031",
        "type": 16016,
        "name": "下関看護専門学校",
        "address": "下関市一の宮学園町2-1",
        "lat": 34.00007,
        "lng": 130.948613
    },
    {
        "code": "H135310000040",
        "type": 16016,
        "name": "下関理容美容専門学校",
        "address": "下関市貴船町3-12-14",
        "lat": 33.969021,
        "lng": 130.940965
    },
    {
        "code": "H135310000059",
        "type": 16016,
        "name": "下関歯科技工専門学校",
        "address": "下関市貴船町3-1-37",
        "lat": 33.968084,
        "lng": 130.941698
    },
    {
        "code": "H135310000068",
        "type": 16016,
        "name": "下関福祉専門学校",
        "address": "下関市小月茶屋3-4-26",
        "lat": 34.068962,
        "lng": 131.027983
    },
    {
        "code": "H135310000077",
        "type": 16016,
        "name": "下関看護リハビリテーション学校",
        "address": "下関市竹崎町3-4-17",
        "lat": 33.953455,
        "lng": 130.921683
    },
    {
        "code": "H135310000086",
        "type": 16016,
        "name": "さくら国際言語学院",
        "address": "下関市竹崎町3-5-19",
        "lat": 33.952011,
        "lng": 130.922519
    },
    {
        "code": "H135310000095",
        "type": 16016,
        "name": "日本医療専門学校",
        "address": "下関市一の宮町3-12-28",
        "lat": 33.996182,
        "lng": 130.948735
    },
    {
        "code": "H135310000102",
        "type": 16016,
        "name": "公務員ゼミナール下関校",
        "address": "下関市竹崎町4-4-1 下関商業ﾋﾞﾙ2F",
        "lat": 33.949792,
        "lng": 130.924767
    },
    {
        "code": "H135310000371",
        "type": 16016,
        "name": "ウエストジャパン看護専門学校",
        "address": "下関市大坪本町44-20",
        "lat": 33.972759,
        "lng": 130.92035
    },
    {
        "code": "H235310000012",
        "type": 16015,
        "name": "山口県下関自動車学校",
        "address": "下関市後田町4-16-1",
        "lat": 33.970306,
        "lng": 130.927158
    },
    {
        "code": "H235310000021",
        "type": 16015,
        "name": "山陽自動車学校",
        "address": "下関市長府高場町1-1",
        "lat": 33.978523,
        "lng": 130.974766
    },
    {
        "code": "H235310000030",
        "type": 16015,
        "name": "下関西南ドレスメーカー女学院",
        "address": "下関市彦島本村町7-5-19",
        "lat": 33.937975,
        "lng": 130.912269
    },
    {
        "code": "H235310000049",
        "type": 16015,
        "name": "山口朝鮮初中級学校",
        "address": "下関市神田町2-8-1",
        "lat": 33.962841,
        "lng": 130.926183
    },
    {
        "code": "H235310000058",
        "type": 16015,
        "name": "早鞆自動車学校",
        "address": "下関市安岡本町3-20-1",
        "lat": 34.027481,
        "lng": 130.906386
    },
    {
        "code": "H235310000067",
        "type": 16015,
        "name": "下関文化服装学院",
        "address": "下関市大和町1-2-8",
        "lat": 33.950033,
        "lng": 130.921083
    },
    {
        "code": "H235310000370",
        "type": 16015,
        "name": "アイルモータースクール下関",
        "address": "下関市菊川町大字吉賀1588",
        "lat": 34.126225,
        "lng": 131.026758
    },
    {
        "code": "H235310000389",
        "type": 16015,
        "name": "西日本和裁学院",
        "address": "下関市大和町1-2-8",
        "lat": 33.949882,
        "lng": 130.920965
    },
    {
        "code": "H235310000398",
        "type": 16015,
        "name": "下関明倫学園",
        "address": "下関市",
        "lat": 33.956946,
        "lng": 130.94213
    }
]