[
    {
        "code": "A135310000697",
        "type": 16011,
        "name": "下松幼稚園",
        "address": "下松市大手町1-5-10",
        "lat": 34.011994,
        "lng": 131.866698
    },
    {
        "code": "A135310000704",
        "type": 16011,
        "name": "鋼鈑幼稚園",
        "address": "下松市美里町1-9-1",
        "lat": 34.023707,
        "lng": 131.864482
    },
    {
        "code": "A135310000713",
        "type": 16011,
        "name": "江口幼稚園",
        "address": "下松市大字東豊井字江口1059-17",
        "lat": 33.998495,
        "lng": 131.877847
    },
    {
        "code": "A135310000722",
        "type": 16011,
        "name": "末光幼稚園",
        "address": "下松市桜町1-2-14",
        "lat": 34.017693,
        "lng": 131.872172
    },
    {
        "code": "A135310000731",
        "type": 16011,
        "name": "下松慈光幼稚園",
        "address": "下松市大字西豊井773-1",
        "lat": 34.008688,
        "lng": 131.872533
    },
    {
        "code": "A135310000740",
        "type": 16011,
        "name": "四恩幼稚園",
        "address": "下松市大字末武上1235",
        "lat": 34.037227,
        "lng": 131.87415
    },
    {
        "code": "A135310000759",
        "type": 16011,
        "name": "下松暁の星幼稚園",
        "address": "下松市旗岡1-5-1",
        "lat": 34.010391,
        "lng": 131.876841
    },
    {
        "code": "A135310000768",
        "type": 16011,
        "name": "第二四恩幼稚園",
        "address": "下松市生野屋西2-21-19",
        "lat": 34.037839,
        "lng": 131.881877
    },
    {
        "code": "B135210001222",
        "type": 16001,
        "name": "下松小学校",
        "address": "下松市大字西豊井698",
        "lat": 34.012052,
        "lng": 131.871289
    },
    {
        "code": "B135210001231",
        "type": 16001,
        "name": "久保小学校",
        "address": "下松市大字河内764-3",
        "lat": 34.029801,
        "lng": 131.908007
    },
    {
        "code": "B135210001240",
        "type": 16001,
        "name": "公集小学校",
        "address": "下松市潮音町1-1-1",
        "lat": 34.019072,
        "lng": 131.855792
    },
    {
        "code": "B135210001259",
        "type": 16001,
        "name": "花岡小学校",
        "address": "下松市大字末武上255-1",
        "lat": 34.038494,
        "lng": 131.874038
    },
    {
        "code": "B135210001268",
        "type": 16001,
        "name": "豊井小学校",
        "address": "下松市大字東豊井1134-1",
        "lat": 33.999359,
        "lng": 131.878205
    },
    {
        "code": "B135210001277",
        "type": 16001,
        "name": "中村小学校",
        "address": "下松市清瀬町2-6-1",
        "lat": 34.029574,
        "lng": 131.855402
    },
    {
        "code": "B135210001286",
        "type": 16001,
        "name": "米川小学校",
        "address": "下松市大字下谷441-2",
        "lat": 34.086545,
        "lng": 131.87962
    },
    {
        "code": "B135210001295",
        "type": 16001,
        "name": "東陽小学校",
        "address": "下松市東陽4-17-1",
        "lat": 34.035329,
        "lng": 131.913451
    },
    {
        "code": "C135210000720",
        "type": 16002,
        "name": "下松中学校",
        "address": "下松市古川町2-1-1",
        "lat": 34.008997,
        "lng": 131.870817
    },
    {
        "code": "C135210000739",
        "type": 16002,
        "name": "久保中学校",
        "address": "下松市大字山田122",
        "lat": 34.02994,
        "lng": 131.900064
    },
    {
        "code": "C135210000748",
        "type": 16002,
        "name": "末武中学校",
        "address": "下松市美里町1-8-1",
        "lat": 34.025912,
        "lng": 131.865761
    },
    {
        "code": "D135210000103",
        "type": 16004,
        "name": "下松高等学校",
        "address": "下松市若宮町12-1",
        "lat": 34.022246,
        "lng": 131.881038
    },
    {
        "code": "D135210000112",
        "type": 16004,
        "name": "下松工業高等学校",
        "address": "下松市美里町4-13-1",
        "lat": 34.019356,
        "lng": 131.857568
    },
    {
        "code": "D135210000390",
        "type": 16004,
        "name": "華陵高等学校",
        "address": "下松市末武上217-2",
        "lat": 34.041216,
        "lng": 131.876205
    },
    {
        "code": "H135310000282",
        "type": 16016,
        "name": "下松デンタルアカデミー専門学校",
        "address": "下松市東柳1-6-2",
        "lat": 34.012893,
        "lng": 131.865146
    },
    {
        "code": "H235310000209",
        "type": 16015,
        "name": "周南和裁服装学院",
        "address": "下松市潮音町6-19-18",
        "lat": 34.018798,
        "lng": 131.84808
    }
]