[
    {
        "code": "A135310000143",
        "type": 16011,
        "name": "宇部フロンティア大学付属幼稚園",
        "address": "宇部市文京町7-5",
        "lat": 33.972814,
        "lng": 131.230288
    },
    {
        "code": "A135310000152",
        "type": 16011,
        "name": "慈光幼稚園",
        "address": "宇部市松山町1-11-27",
        "lat": 33.947992,
        "lng": 131.252825
    },
    {
        "code": "A135310000161",
        "type": 16011,
        "name": "宇部さゆり幼稚園",
        "address": "宇部市寿町2-2-22",
        "lat": 33.953028,
        "lng": 131.250824
    },
    {
        "code": "A135310000170",
        "type": 16011,
        "name": "小松原幼稚園",
        "address": "宇部市小松原町1-5-11",
        "lat": 33.965082,
        "lng": 131.240952
    },
    {
        "code": "A135310000189",
        "type": 16011,
        "name": "中央幼稚園",
        "address": "宇部市西梶返1-13-3 覚宝寺",
        "lat": 33.956566,
        "lng": 131.260118
    },
    {
        "code": "A135310000198",
        "type": 16011,
        "name": "光華幼稚園",
        "address": "宇部市昭和町1-2-31",
        "lat": 33.943862,
        "lng": 131.253443
    },
    {
        "code": "A135310000205",
        "type": 16011,
        "name": "西宇部小百合幼稚園",
        "address": "宇部市西宇部北2-1-13",
        "lat": 34.003367,
        "lng": 131.225252
    },
    {
        "code": "A135310000214",
        "type": 16011,
        "name": "宇部幼稚園",
        "address": "宇部市明治町1-10-3",
        "lat": 33.944376,
        "lng": 131.249941
    },
    {
        "code": "A135310000223",
        "type": 16011,
        "name": "聖和幼稚園",
        "address": "宇部市岬町3-1-35",
        "lat": 33.933536,
        "lng": 131.266826
    },
    {
        "code": "A135310000241",
        "type": 16011,
        "name": "精華幼稚園",
        "address": "宇部市居能町2-1-44",
        "lat": 33.967726,
        "lng": 131.231599
    },
    {
        "code": "A135310000250",
        "type": 16011,
        "name": "明光幼稚園",
        "address": "宇部市大字西岐波4428-3",
        "lat": 33.945507,
        "lng": 131.295457
    },
    {
        "code": "A135310000269",
        "type": 16011,
        "name": "たちばな幼稚園",
        "address": "宇部市今村南1-11-8",
        "lat": 33.952373,
        "lng": 131.303346
    },
    {
        "code": "A135310000278",
        "type": 16011,
        "name": "第二慈光幼稚園",
        "address": "宇部市上野中町2-1",
        "lat": 33.953458,
        "lng": 131.272505
    },
    {
        "code": "A135310000287",
        "type": 16011,
        "name": "若蔦幼稚園",
        "address": "宇部市西岐波区鬼ヶ石1812",
        "lat": 33.970357,
        "lng": 131.302604
    },
    {
        "code": "A135310000296",
        "type": 16011,
        "name": "恩田幼稚園",
        "address": "宇部市則貞2-7-47",
        "lat": 33.943723,
        "lng": 131.2774
    },
    {
        "code": "A135310000303",
        "type": 16011,
        "name": "宇部鴻城高等学校附属幼稚園",
        "address": "宇部市大字際波字的場381",
        "lat": 34.001597,
        "lng": 131.209073
    },
    {
        "code": "A135310000312",
        "type": 16011,
        "name": "小鳩幼稚園",
        "address": "宇部市大字東岐波字石川1315-1",
        "lat": 33.970397,
        "lng": 131.34722
    },
    {
        "code": "A135310000321",
        "type": 16011,
        "name": "小羽山幼稚園",
        "address": "宇部市南小羽山町2-12-4",
        "lat": 33.977156,
        "lng": 131.257214
    },
    {
        "code": "A135310000330",
        "type": 16011,
        "name": "原中央幼稚園",
        "address": "宇部市大字妻崎開作1119-2",
        "lat": 33.971794,
        "lng": 131.209754
    },
    {
        "code": "A135310001320",
        "type": 16011,
        "name": "万倉幼稚園",
        "address": "宇部市大字西万倉1244",
        "lat": 34.076781,
        "lng": 131.235898
    },
    {
        "code": "A135310001339",
        "type": 16011,
        "name": "船木幼稚園",
        "address": "宇部市大字船木769",
        "lat": 34.043575,
        "lng": 131.224144
    },
    {
        "code": "B135210000330",
        "type": 16001,
        "name": "東岐波小学校",
        "address": "宇部市大字東岐波字立山3853",
        "lat": 33.980711,
        "lng": 131.338728
    },
    {
        "code": "B135210000349",
        "type": 16001,
        "name": "西岐波小学校",
        "address": "宇部市床波3-4-10",
        "lat": 33.956612,
        "lng": 131.311519
    },
    {
        "code": "B135210000358",
        "type": 16001,
        "name": "恩田小学校",
        "address": "宇部市笹山町1-4-1",
        "lat": 33.942157,
        "lng": 131.262815
    },
    {
        "code": "B135210000367",
        "type": 16001,
        "name": "上宇部小学校",
        "address": "宇部市大小路3-2-17",
        "lat": 33.966765,
        "lng": 131.269453
    },
    {
        "code": "B135210000376",
        "type": 16001,
        "name": "岬小学校",
        "address": "宇部市松山町5-8-10",
        "lat": 33.935102,
        "lng": 131.259704
    },
    {
        "code": "B135210000385",
        "type": 16001,
        "name": "見初小学校",
        "address": "宇部市松山町2-4-42",
        "lat": 33.943323,
        "lng": 131.25551
    },
    {
        "code": "B135210000394",
        "type": 16001,
        "name": "琴芝小学校",
        "address": "宇部市東琴芝2-3-48",
        "lat": 33.954183,
        "lng": 131.256287
    },
    {
        "code": "B135210000401",
        "type": 16001,
        "name": "神原小学校",
        "address": "宇部市神原町1-1-1",
        "lat": 33.951573,
        "lng": 131.256149
    },
    {
        "code": "B135210000410",
        "type": 16001,
        "name": "新川小学校",
        "address": "宇部市西小串1-4-25",
        "lat": 33.963372,
        "lng": 131.24838
    },
    {
        "code": "B135210000429",
        "type": 16001,
        "name": "鵜ノ島小学校",
        "address": "宇部市小松原町2-10-25",
        "lat": 33.96346,
        "lng": 131.23976
    },
    {
        "code": "B135210000438",
        "type": 16001,
        "name": "藤山小学校",
        "address": "宇部市上条4-4-1",
        "lat": 33.974575,
        "lng": 131.232066
    },
    {
        "code": "B135210000447",
        "type": 16001,
        "name": "厚南小学校",
        "address": "宇部市大字東須恵字下岡の上234",
        "lat": 33.99444,
        "lng": 131.208199
    },
    {
        "code": "B135210000456",
        "type": 16001,
        "name": "原小学校",
        "address": "宇部市大字東須恵字沖赤松4267",
        "lat": 33.965764,
        "lng": 131.203041
    },
    {
        "code": "B135210000465",
        "type": 16001,
        "name": "厚東小学校",
        "address": "宇部市大字棚井字旦山7-1",
        "lat": 34.027086,
        "lng": 131.24888
    },
    {
        "code": "B135210000474",
        "type": 16001,
        "name": "二俣瀬小学校",
        "address": "宇部市大字車地字市原36",
        "lat": 34.058049,
        "lng": 131.292393
    },
    {
        "code": "B135210000483",
        "type": 16001,
        "name": "小野小学校",
        "address": "宇部市大字小野字宮脇8317-2",
        "lat": 34.115621,
        "lng": 131.320484
    },
    {
        "code": "B135210000492",
        "type": 16001,
        "name": "常盤小学校",
        "address": "宇部市大字西岐波字論瀬1337-12",
        "lat": 33.947295,
        "lng": 131.293507
    },
    {
        "code": "B135210000508",
        "type": 16001,
        "name": "西宇部小学校",
        "address": "宇部市大字際波北迫527-1",
        "lat": 34.009566,
        "lng": 131.231871
    },
    {
        "code": "B135210000517",
        "type": 16001,
        "name": "小羽山小学校",
        "address": "宇部市東小羽山町1-4-13",
        "lat": 33.97882,
        "lng": 131.263508
    },
    {
        "code": "B135210000526",
        "type": 16001,
        "name": "川上小学校",
        "address": "宇部市大字川上字上荒野86",
        "lat": 33.977376,
        "lng": 131.281646
    },
    {
        "code": "B135210000535",
        "type": 16001,
        "name": "黒石小学校",
        "address": "宇部市黒石北3-2-35",
        "lat": 33.984735,
        "lng": 131.209512
    },
    {
        "code": "B135210002551",
        "type": 16001,
        "name": "吉部小学校",
        "address": "宇部市大字東吉部字埴生3425-1",
        "lat": 34.124869,
        "lng": 131.281916
    },
    {
        "code": "B135210002560",
        "type": 16001,
        "name": "万倉小学校",
        "address": "宇部市大字西万倉字宮ﾉ後1761-1",
        "lat": 34.072572,
        "lng": 131.240399
    },
    {
        "code": "B135210002579",
        "type": 16001,
        "name": "船木小学校",
        "address": "宇部市大字船木字岡西4483",
        "lat": 34.046173,
        "lng": 131.21651
    },
    {
        "code": "C135210000187",
        "type": 16002,
        "name": "東岐波中学校",
        "address": "宇部市大字東岐波字向山3828",
        "lat": 33.978127,
        "lng": 131.337337
    },
    {
        "code": "C135210000196",
        "type": 16002,
        "name": "西岐波中学校",
        "address": "宇部市床波4-1-40",
        "lat": 33.958442,
        "lng": 131.314135
    },
    {
        "code": "C135210000203",
        "type": 16002,
        "name": "常盤中学校",
        "address": "宇部市上野中町3-40",
        "lat": 33.952211,
        "lng": 131.273814
    },
    {
        "code": "C135210000212",
        "type": 16002,
        "name": "上宇部中学校",
        "address": "宇部市沼2-4-8",
        "lat": 33.960794,
        "lng": 131.265925
    },
    {
        "code": "C135210000221",
        "type": 16002,
        "name": "神原中学校",
        "address": "宇部市東梶返4-8-1",
        "lat": 33.949739,
        "lng": 131.263426
    },
    {
        "code": "C135210000230",
        "type": 16002,
        "name": "桃山中学校",
        "address": "宇部市大字小串字蛭子田671",
        "lat": 33.971477,
        "lng": 131.249812
    },
    {
        "code": "C135210000249",
        "type": 16002,
        "name": "藤山中学校",
        "address": "宇部市文京町10-50",
        "lat": 33.974014,
        "lng": 131.229233
    },
    {
        "code": "C135210000258",
        "type": 16002,
        "name": "厚南中学校",
        "address": "宇部市大字東須恵字上岡の上222",
        "lat": 33.995095,
        "lng": 131.209039
    },
    {
        "code": "C135210000267",
        "type": 16002,
        "name": "川上中学校",
        "address": "宇部市大字西岐波字萩原6531",
        "lat": 33.97707,
        "lng": 131.285285
    },
    {
        "code": "C135210000276",
        "type": 16002,
        "name": "黒石中学校",
        "address": "宇部市大字東須恵字見妙田476-2",
        "lat": 33.985151,
        "lng": 131.197485
    },
    {
        "code": "C135210000285",
        "type": 16002,
        "name": "厚東川中学校",
        "address": "宇部市大字吉見字藪台1184",
        "lat": 34.041841,
        "lng": 131.264946
    },
    {
        "code": "C135210001328",
        "type": 16002,
        "name": "楠中学校",
        "address": "宇部市大字船木字岡西4481",
        "lat": 34.045256,
        "lng": 131.215788
    },
    {
        "code": "C135310000023",
        "type": 16002,
        "name": "宇部フロンティア大学付属中学校",
        "address": "宇部市文京町1-25",
        "lat": 33.972839,
        "lng": 131.23251
    },
    {
        "code": "C135310000032",
        "type": 16002,
        "name": "慶進中学校",
        "address": "宇部市西琴芝2-12-18",
        "lat": 33.955566,
        "lng": 131.252065
    },
    {
        "code": "D135210000185",
        "type": 16004,
        "name": "宇部高等学校",
        "address": "宇部市寺の前町3-1",
        "lat": 33.962427,
        "lng": 131.269561
    },
    {
        "code": "D135210000194",
        "type": 16004,
        "name": "宇部中央高等学校",
        "address": "宇部市東梶返4-10-30",
        "lat": 33.951795,
        "lng": 131.261759
    },
    {
        "code": "D135210000201",
        "type": 16004,
        "name": "宇部西高等学校",
        "address": "宇部市大字沖ﾉ旦",
        "lat": 33.991804,
        "lng": 131.23518
    },
    {
        "code": "D135210000210",
        "type": 16004,
        "name": "宇部商業高等学校",
        "address": "宇部市大字際波字岡の原220",
        "lat": 34.008122,
        "lng": 131.220427
    },
    {
        "code": "D135210000229",
        "type": 16004,
        "name": "宇部工業高等学校",
        "address": "宇部市北琴芝1-1-1",
        "lat": 33.960849,
        "lng": 131.254037
    },
    {
        "code": "D135310000058",
        "type": 16004,
        "name": "宇部鴻城高等学校",
        "address": "宇部市大字際波字的場370",
        "lat": 34.001903,
        "lng": 131.20985
    },
    {
        "code": "D135310000067",
        "type": 16004,
        "name": "慶進高等学校",
        "address": "宇部市西琴芝2-12-18",
        "lat": 33.955516,
        "lng": 131.252065
    },
    {
        "code": "D135310000076",
        "type": 16004,
        "name": "宇部フロンティア大学付属香川高等学校",
        "address": "宇部市文京町1-25",
        "lat": 33.972792,
        "lng": 131.23251
    },
    {
        "code": "E135210000048",
        "type": 16012,
        "name": "宇部総合支援学校",
        "address": "宇部市黒石北5-3-20",
        "lat": 33.990072,
        "lng": 131.209918
    },
    {
        "code": "F135310110130",
        "type": 16007,
        "name": "宇部フロンティア大学",
        "address": "宇部市文京台2-1-1",
        "lat": 33.980521,
        "lng": 131.234312
    },
    {
        "code": "F235310110157",
        "type": 16006,
        "name": "宇部フロンティア大学短期大学部",
        "address": "宇部市文京台2-1-1",
        "lat": 33.972486,
        "lng": 131.231149
    },
    {
        "code": "G135110110212",
        "type": 16005,
        "name": "宇部工業高等専門学校",
        "address": "宇部市常盤台2-14-1",
        "lat": 33.953961,
        "lng": 131.275008
    },
    {
        "code": "H135310000111",
        "type": 16016,
        "name": "宇部看護専門学校",
        "address": "宇部市中村3-12-53",
        "lat": 33.963243,
        "lng": 131.258739
    },
    {
        "code": "H135310000139",
        "type": 16016,
        "name": "ＹＩＣリハビリテーション大学校",
        "address": "宇部市西宇部南4-11-1",
        "lat": 34.004019,
        "lng": 131.218416
    },
    {
        "code": "H235310000076",
        "type": 16015,
        "name": "宇部中央自動車学校",
        "address": "宇部市西琴芝1-8-31",
        "lat": 33.958363,
        "lng": 131.253929
    },
    {
        "code": "H235310000094",
        "type": 16015,
        "name": "山口県宇部自動車学校",
        "address": "宇部市大字沖宇部1",
        "lat": 33.957117,
        "lng": 131.29116
    },
    {
        "code": "H235310000101",
        "type": 16015,
        "name": "西日本自動車学校",
        "address": "宇部市大字妻崎開作934-1",
        "lat": 33.97603,
        "lng": 131.208882
    },
    {
        "code": "H235310000110",
        "type": 16015,
        "name": "宇部文化洋裁学院",
        "address": "宇部市琴芝町1-495-3",
        "lat": 33.932806,
        "lng": 131.266897
    }
]