[
    {
        "code": "A135110000012",
        "type": 16011,
        "name": "山口大学教育学部附属幼稚園",
        "address": "山口市白石3-1-2",
        "lat": 34.180873,
        "lng": 131.469966
    },
    {
        "code": "A135210000083",
        "type": 16011,
        "name": "鋳銭司幼稚園",
        "address": "山口市鋳銭司3922-1",
        "lat": 34.083204,
        "lng": 131.453738
    },
    {
        "code": "A135210000092",
        "type": 16011,
        "name": "小鯖幼稚園",
        "address": "山口市下小鯖2519",
        "lat": 34.127669,
        "lng": 131.524667
    },
    {
        "code": "A135210000109",
        "type": 16011,
        "name": "仁保幼稚園",
        "address": "山口市仁保中郷82",
        "lat": 34.213313,
        "lng": 131.555676
    },
    {
        "code": "A135210000118",
        "type": 16011,
        "name": "吉敷幼稚園",
        "address": "山口市吉敷佐畑4-6-1",
        "lat": 34.168351,
        "lng": 131.429607
    },
    {
        "code": "A135210000127",
        "type": 16011,
        "name": "二島幼稚園",
        "address": "山口市秋穂二島6174",
        "lat": 34.037806,
        "lng": 131.421434
    },
    {
        "code": "A135210000136",
        "type": 16011,
        "name": "平川幼稚園",
        "address": "山口市黒川1210-1",
        "lat": 34.141549,
        "lng": 131.456978
    },
    {
        "code": "A135210000145",
        "type": 16011,
        "name": "宮野幼稚園",
        "address": "山口市宮野下3000-1",
        "lat": 34.19918,
        "lng": 131.504822
    },
    {
        "code": "A135210000154",
        "type": 16011,
        "name": "名田島幼稚園",
        "address": "山口市名田島1536-1",
        "lat": 34.076373,
        "lng": 131.415886
    },
    {
        "code": "A135210000163",
        "type": 16011,
        "name": "大内幼稚園",
        "address": "山口市大内矢田北1-11-24",
        "lat": 34.158642,
        "lng": 131.501416
    },
    {
        "code": "A135210000305",
        "type": 16011,
        "name": "秋穂幼稚園",
        "address": "山口市秋穂東439",
        "lat": 34.019053,
        "lng": 131.464804
    },
    {
        "code": "A135310000358",
        "type": 16011,
        "name": "山口中央幼稚園",
        "address": "山口市中央4-2-2",
        "lat": 34.174801,
        "lng": 131.471427
    },
    {
        "code": "A135310000367",
        "type": 16011,
        "name": "明星幼稚園",
        "address": "山口市野田170",
        "lat": 34.185428,
        "lng": 131.480947
    },
    {
        "code": "A135310000376",
        "type": 16011,
        "name": "亀山幼稚園",
        "address": "山口市道場門前2-9-14",
        "lat": 34.17321,
        "lng": 131.475871
    },
    {
        "code": "A135310000385",
        "type": 16011,
        "name": "湯田幼稚園",
        "address": "山口市湯田温泉1-3-2",
        "lat": 34.165358,
        "lng": 131.461023
    },
    {
        "code": "A135310000394",
        "type": 16011,
        "name": "旭幼稚園",
        "address": "山口市矢原1121",
        "lat": 34.151759,
        "lng": 131.447026
    },
    {
        "code": "A135310000401",
        "type": 16011,
        "name": "北双葉幼稚園",
        "address": "山口市名田島287",
        "lat": 34.088019,
        "lng": 131.409184
    },
    {
        "code": "A135310000410",
        "type": 16011,
        "name": "西円寺幼稚園",
        "address": "山口市陶2963-1",
        "lat": 34.092105,
        "lng": 131.429374
    },
    {
        "code": "A135310000429",
        "type": 16011,
        "name": "山口天使幼稚園",
        "address": "山口市亀山町4-2",
        "lat": 34.179987,
        "lng": 131.472785
    },
    {
        "code": "A135310000438",
        "type": 16011,
        "name": "菅内幼稚園",
        "address": "山口市大内御堀3654-6",
        "lat": 34.139391,
        "lng": 131.501109
    },
    {
        "code": "A135310001277",
        "type": 16011,
        "name": "有倫舘幼稚園",
        "address": "山口市徳池岸見858",
        "lat": 34.178528,
        "lng": 131.473732
    },
    {
        "code": "A135310001286",
        "type": 16011,
        "name": "山口県鴻城高等学校附属幼稚園",
        "address": "山口市小郡下郷261-1",
        "lat": 34.107078,
        "lng": 131.401234
    },
    {
        "code": "A135310001295",
        "type": 16011,
        "name": "小郡幼稚園",
        "address": "山口市小郡下郷849-3",
        "lat": 34.099578,
        "lng": 131.395416
    },
    {
        "code": "A135310001302",
        "type": 16011,
        "name": "阿知須幼稚園",
        "address": "山口市阿知須2940-2",
        "lat": 34.012507,
        "lng": 131.362253
    },
    {
        "code": "A235310000179",
        "type": 16013,
        "name": "野田学園幼稚園",
        "address": "山口市天花1-3-1",
        "lat": 34.186917,
        "lng": 131.478739
    },
    {
        "code": "B135110000010",
        "type": 16001,
        "name": "山口大学教育学部附属山口小学校",
        "address": "山口市白石3-1-1",
        "lat": 34.180553,
        "lng": 131.469624
    },
    {
        "code": "B135210000544",
        "type": 16001,
        "name": "宮野小学校",
        "address": "山口市宮野下3017",
        "lat": 34.19983,
        "lng": 131.506092
    },
    {
        "code": "B135210000553",
        "type": 16001,
        "name": "大殿小学校",
        "address": "山口市大殿大路213",
        "lat": 34.182748,
        "lng": 131.481539
    },
    {
        "code": "B135210000562",
        "type": 16001,
        "name": "白石小学校",
        "address": "山口市白石1-10-1",
        "lat": 34.176804,
        "lng": 131.470874
    },
    {
        "code": "B135210000571",
        "type": 16001,
        "name": "湯田小学校",
        "address": "山口市元町2-26",
        "lat": 34.169415,
        "lng": 131.458182
    },
    {
        "code": "B135210000580",
        "type": 16001,
        "name": "良城小学校",
        "address": "山口市吉敷佐畑3-3-3",
        "lat": 34.165842,
        "lng": 131.429853
    },
    {
        "code": "B135210000599",
        "type": 16001,
        "name": "大歳小学校",
        "address": "山口市矢原1486",
        "lat": 34.150222,
        "lng": 131.439629
    },
    {
        "code": "B135210000606",
        "type": 16001,
        "name": "平川小学校",
        "address": "山口市平井1675-2",
        "lat": 34.141619,
        "lng": 131.45602
    },
    {
        "code": "B135210000615",
        "type": 16001,
        "name": "陶小学校",
        "address": "山口市陶3544",
        "lat": 34.090283,
        "lng": 131.429826
    },
    {
        "code": "B135210000624",
        "type": 16001,
        "name": "名田島小学校",
        "address": "山口市名田島1538-2",
        "lat": 34.07659,
        "lng": 131.414995
    },
    {
        "code": "B135210000633",
        "type": 16001,
        "name": "二島小学校",
        "address": "山口市秋穂二島552-1",
        "lat": 34.03815,
        "lng": 131.420245
    },
    {
        "code": "B135210000642",
        "type": 16001,
        "name": "嘉川小学校",
        "address": "山口市嘉川4986",
        "lat": 34.075645,
        "lng": 131.375748
    },
    {
        "code": "B135210000651",
        "type": 16001,
        "name": "興進小学校",
        "address": "山口市江崎2284",
        "lat": 34.057536,
        "lng": 131.369721
    },
    {
        "code": "B135210000660",
        "type": 16001,
        "name": "佐山小学校",
        "address": "山口市佐山2731",
        "lat": 34.036705,
        "lng": 131.360416
    },
    {
        "code": "B135210000679",
        "type": 16001,
        "name": "鋳銭司小学校",
        "address": "山口市鋳銭司4010",
        "lat": 34.085895,
        "lng": 131.453907
    },
    {
        "code": "B135210000688",
        "type": 16001,
        "name": "仁保小学校",
        "address": "山口市仁保中郷81",
        "lat": 34.214524,
        "lng": 131.555476
    },
    {
        "code": "B135210000697",
        "type": 16001,
        "name": "小鯖小学校",
        "address": "山口市下小鯖2519",
        "lat": 34.127975,
        "lng": 131.525315
    },
    {
        "code": "B135210000704",
        "type": 16001,
        "name": "大内小学校",
        "address": "山口市大内矢田北1-16-1",
        "lat": 34.157195,
        "lng": 131.500079
    },
    {
        "code": "B135210000713",
        "type": 16001,
        "name": "大内南小学校",
        "address": "山口市大内矢田南2-4-1",
        "lat": 34.150362,
        "lng": 131.497316
    },
    {
        "code": "B135210002436",
        "type": 16001,
        "name": "中央小学校",
        "address": "山口市徳地堀1551",
        "lat": 34.18997,
        "lng": 131.661614
    },
    {
        "code": "B135210002445",
        "type": 16001,
        "name": "島地小学校",
        "address": "山口市徳地島地16",
        "lat": 34.158854,
        "lng": 131.700528
    },
    {
        "code": "B135210002454",
        "type": 16001,
        "name": "串小学校",
        "address": "山口市徳地鯖河内1421",
        "lat": 34.195093,
        "lng": 131.735681
    },
    {
        "code": "B135210002463",
        "type": 16001,
        "name": "八坂小学校",
        "address": "山口市徳地八坂1226",
        "lat": 34.237838,
        "lng": 131.658049
    },
    {
        "code": "B135210002472",
        "type": 16001,
        "name": "柚野木小学校",
        "address": "山口市徳地柚木2018",
        "lat": 34.34368,
        "lng": 131.71682
    },
    {
        "code": "B135210002481",
        "type": 16001,
        "name": "秋穂小学校",
        "address": "山口市秋穂東6771",
        "lat": 34.016719,
        "lng": 131.435369
    },
    {
        "code": "B135210002490",
        "type": 16001,
        "name": "大海小学校",
        "address": "山口市秋穂東2299",
        "lat": 34.021276,
        "lng": 131.463101
    },
    {
        "code": "B135210002506",
        "type": 16001,
        "name": "小郡小学校",
        "address": "山口市小郡下郷254-3",
        "lat": 34.106118,
        "lng": 131.399971
    },
    {
        "code": "B135210002515",
        "type": 16001,
        "name": "上郷小学校",
        "address": "山口市小郡みらい町2-14-1",
        "lat": 34.121615,
        "lng": 131.39818
    },
    {
        "code": "B135210002524",
        "type": 16001,
        "name": "小郡南小学校",
        "address": "山口市小郡緑町1-1",
        "lat": 34.090711,
        "lng": 131.400509
    },
    {
        "code": "B135210002533",
        "type": 16001,
        "name": "阿知須小学校",
        "address": "山口市阿知須4251",
        "lat": 34.011379,
        "lng": 131.359694
    },
    {
        "code": "B135210002542",
        "type": 16001,
        "name": "井関小学校",
        "address": "山口市阿知須1639",
        "lat": 34.014547,
        "lng": 131.340701
    },
    {
        "code": "B135210002917",
        "type": 16001,
        "name": "生雲小学校",
        "address": "山口市阿東生雲中319",
        "lat": 34.38359,
        "lng": 131.600273
    },
    {
        "code": "B135210002926",
        "type": 16001,
        "name": "さくら小学校",
        "address": "山口市阿東地福下1234-1",
        "lat": 34.358686,
        "lng": 131.661451
    },
    {
        "code": "B135210002935",
        "type": 16001,
        "name": "徳佐小学校",
        "address": "山口市阿東徳佐中3292",
        "lat": 34.398562,
        "lng": 131.721404
    },
    {
        "code": "C135110000018",
        "type": 16002,
        "name": "山口大学教育学部附属山口中学校",
        "address": "山口市白石1-9-1",
        "lat": 34.177915,
        "lng": 131.471207
    },
    {
        "code": "C135210000294",
        "type": 16002,
        "name": "宮野中学校",
        "address": "山口市桜畠4-9-1",
        "lat": 34.197775,
        "lng": 131.501509
    },
    {
        "code": "C135210000301",
        "type": 16002,
        "name": "大殿中学校",
        "address": "山口市古熊1-4-1",
        "lat": 34.177027,
        "lng": 131.484289
    },
    {
        "code": "C135210000310",
        "type": 16002,
        "name": "白石中学校",
        "address": "山口市白石2-7-1",
        "lat": 34.176471,
        "lng": 131.469374
    },
    {
        "code": "C135210000329",
        "type": 16002,
        "name": "湯田中学校",
        "address": "山口市楠木町7-1",
        "lat": 34.171776,
        "lng": 131.452071
    },
    {
        "code": "C135210000338",
        "type": 16002,
        "name": "鴻南中学校",
        "address": "山口市維新公園4-7-1",
        "lat": 34.154133,
        "lng": 131.434504
    },
    {
        "code": "C135210000347",
        "type": 16002,
        "name": "二島中学校",
        "address": "山口市秋穂二島561",
        "lat": 34.040678,
        "lng": 131.424717
    },
    {
        "code": "C135210000356",
        "type": 16002,
        "name": "川西中学校",
        "address": "山口市嘉川4352-2",
        "lat": 34.06784,
        "lng": 131.367832
    },
    {
        "code": "C135210000365",
        "type": 16002,
        "name": "潟上中学校",
        "address": "山口市陶1912",
        "lat": 34.079451,
        "lng": 131.432215
    },
    {
        "code": "C135210000374",
        "type": 16002,
        "name": "仁保中学校",
        "address": "山口市仁保中郷84",
        "lat": 34.21533,
        "lng": 131.558337
    },
    {
        "code": "C135210000383",
        "type": 16002,
        "name": "大内中学校",
        "address": "山口市大内長野555",
        "lat": 34.154001,
        "lng": 131.520953
    },
    {
        "code": "C135210000392",
        "type": 16002,
        "name": "平川中学校",
        "address": "山口市黒川1231-1",
        "lat": 34.139751,
        "lng": 131.457211
    },
    {
        "code": "C135210000409",
        "type": 16002,
        "name": "大内中学校氷上分校",
        "address": "山口市大内氷上7-5-1",
        "lat": 34.161528,
        "lng": 131.507121
    },
    {
        "code": "C135210001284",
        "type": 16002,
        "name": "徳地中学校",
        "address": "山口市徳地堀1606-1",
        "lat": 34.191205,
        "lng": 131.659107
    },
    {
        "code": "C135210001293",
        "type": 16002,
        "name": "秋穂中学校",
        "address": "山口市秋穂東615-1",
        "lat": 34.014288,
        "lng": 131.440496
    },
    {
        "code": "C135210001300",
        "type": 16002,
        "name": "小郡中学校",
        "address": "山口市小郡下郷879-1",
        "lat": 34.106552,
        "lng": 131.397725
    },
    {
        "code": "C135210001319",
        "type": 16002,
        "name": "阿知須中学校",
        "address": "山口市阿知須5094-3",
        "lat": 34.012985,
        "lng": 131.353883
    },
    {
        "code": "C135210001480",
        "type": 16002,
        "name": "阿東中学校",
        "address": "山口市阿東地福上1874",
        "lat": 34.360399,
        "lng": 131.665907
    },
    {
        "code": "C135210001499",
        "type": 16002,
        "name": "阿東東中学校",
        "address": "山口市阿東徳佐中3288-1",
        "lat": 34.396007,
        "lng": 131.725265
    },
    {
        "code": "C135310000041",
        "type": 16002,
        "name": "野田学園中学校",
        "address": "山口市野田56",
        "lat": 34.186148,
        "lng": 131.47945
    },
    {
        "code": "D135210000158",
        "type": 16004,
        "name": "山口高等学校",
        "address": "山口市糸米1-9-1",
        "lat": 34.175665,
        "lng": 131.46543
    },
    {
        "code": "D135210000167",
        "type": 16004,
        "name": "山口中央高等学校",
        "address": "山口市宮島町6-1",
        "lat": 34.165944,
        "lng": 131.478818
    },
    {
        "code": "D135210000176",
        "type": 16004,
        "name": "山口農業高等学校",
        "address": "山口市小郡上郷980-1",
        "lat": 34.131463,
        "lng": 131.409295
    },
    {
        "code": "D135210000381",
        "type": 16004,
        "name": "西京高等学校",
        "address": "山口市黒川2580-1",
        "lat": 34.136474,
        "lng": 131.445074
    },
    {
        "code": "D135210000470",
        "type": 16004,
        "name": "山口高等学校徳佐分校",
        "address": "山口市阿東徳佐中1033-1",
        "lat": 34.401173,
        "lng": 131.723931
    },
    {
        "code": "D135210000522",
        "type": 16004,
        "name": "防府高等学校佐波分校",
        "address": "山口市徳地堀2429",
        "lat": 34.197035,
        "lng": 131.660864
    },
    {
        "code": "D135310000085",
        "type": 16004,
        "name": "中村女子高等学校",
        "address": "山口市駅通り1-1-1",
        "lat": 34.173471,
        "lng": 131.477096
    },
    {
        "code": "D135310000094",
        "type": 16004,
        "name": "野田学園高等学校",
        "address": "山口市野田56",
        "lat": 34.186109,
        "lng": 131.479456
    },
    {
        "code": "D135310000209",
        "type": 16004,
        "name": "山口県鴻城高等学校",
        "address": "山口市小郡下郷258-2",
        "lat": 34.108157,
        "lng": 131.400801
    },
    {
        "code": "D135310000218",
        "type": 16004,
        "name": "精華学園高等学校",
        "address": "山口市小郡栄町5-22",
        "lat": 34.123605,
        "lng": 131.281846
    },
    {
        "code": "E135110000013",
        "type": 16012,
        "name": "山口大学教育学部附属特別支援学校",
        "address": "山口市吉田3003",
        "lat": 34.145607,
        "lng": 131.463249
    },
    {
        "code": "E135210000020",
        "type": 16012,
        "name": "山口南総合支援学校",
        "address": "山口市鋳銭司南原2364-6",
        "lat": 34.068563,
        "lng": 131.438381
    },
    {
        "code": "E135210000093",
        "type": 16012,
        "name": "山口総合支援学校みほり分校",
        "address": "山口市大内御堀5-2-8",
        "lat": 34.165888,
        "lng": 131.486706
    },
    {
        "code": "E135210000137",
        "type": 16012,
        "name": "山口総合支援学校",
        "address": "山口市朝田585-1",
        "lat": 34.151892,
        "lng": 131.433482
    },
    {
        "code": "F135110110054",
        "type": 16007,
        "name": "山口大学",
        "address": "山口市吉田1677-1",
        "lat": 34.148001,
        "lng": 131.467682
    },
    {
        "code": "F135210110070",
        "type": 16007,
        "name": "山口県立大学",
        "address": "山口市桜畠3-2-1",
        "lat": 34.194275,
        "lng": 131.498981
    },
    {
        "code": "F135310110149",
        "type": 16007,
        "name": "山口学芸大学",
        "address": "山口市小郡みらい町1-7-1",
        "lat": 34.120878,
        "lng": 131.402012
    },
    {
        "code": "F235310110184",
        "type": 16006,
        "name": "山口芸術短期大学",
        "address": "山口市小郡みらい町1-7-1",
        "lat": 34.120752,
        "lng": 131.402994
    },
    {
        "code": "H135310000120",
        "type": 16016,
        "name": "ＹＩＣ情報ビジネス専門学校",
        "address": "山口市小郡黄金町2-24",
        "lat": 34.092182,
        "lng": 131.397496
    },
    {
        "code": "H135310000148",
        "type": 16016,
        "name": "山口コアカレッジ",
        "address": "山口市富田原町2-23",
        "lat": 34.161763,
        "lng": 131.465459
    },
    {
        "code": "H135310000157",
        "type": 16016,
        "name": "山口コ・メディカル学院",
        "address": "山口市富田原町2-24",
        "lat": 34.161466,
        "lng": 131.465195
    },
    {
        "code": "H135310000166",
        "type": 16016,
        "name": "山口県高等歯科衛生士学院",
        "address": "山口市吉敷下東1-4-1",
        "lat": 34.165971,
        "lng": 131.448747
    },
    {
        "code": "H135310000175",
        "type": 16016,
        "name": "ユーガーグルーミングスクール山口専修学校",
        "address": "山口市本町2-2-24",
        "lat": 34.172315,
        "lng": 131.472991
    },
    {
        "code": "H135310000184",
        "type": 16016,
        "name": "公務員ゼミナール山口校",
        "address": "山口市緑町5-11",
        "lat": 34.169427,
        "lng": 131.464559
    },
    {
        "code": "H135310000237",
        "type": 16016,
        "name": "ＹＩＣビューティモード専門学校",
        "address": "山口市小郡黄金町2-24",
        "lat": 34.092119,
        "lng": 131.397505
    },
    {
        "code": "H135310000273",
        "type": 16016,
        "name": "山口ビジネス学院",
        "address": "山口市小郡新町5-5-1",
        "lat": 34.115747,
        "lng": 131.40162
    },
    {
        "code": "H135310000335",
        "type": 16016,
        "name": "山口県理容美容専門学校",
        "address": "山口市小郡下郷2314-1",
        "lat": 34.093838,
        "lng": 131.392002
    },
    {
        "code": "H135310000344",
        "type": 16016,
        "name": "北九州予備校山口校",
        "address": "山口市小郡御幸町1-39",
        "lat": 34.091913,
        "lng": 131.395704
    },
    {
        "code": "H135310000353",
        "type": 16016,
        "name": "山口調理製菓専門学校",
        "address": "山口市小郡黄金町9-8",
        "lat": 34.090735,
        "lng": 131.397407
    },
    {
        "code": "H135310000362",
        "type": 16016,
        "name": "ＹＩＣ公務員専門学校",
        "address": "山口市小郡黄金町2-24",
        "lat": 34.09224,
        "lng": 131.397563
    },
    {
        "code": "H235310000138",
        "type": 16015,
        "name": "山口県湯田自動車学校",
        "address": "山口市葵2-4-55",
        "lat": 34.164241,
        "lng": 131.452888
    },
    {
        "code": "H235310000147",
        "type": 16015,
        "name": "山口そうごう自動車学校",
        "address": "山口市大内千坊6-8-10",
        "lat": 34.15942,
        "lng": 131.493555
    },
    {
        "code": "H235310000325",
        "type": 16015,
        "name": "山口県小郡自動車学校",
        "address": "山口市小郡下郷768",
        "lat": 34.101329,
        "lng": 131.395304
    },
    {
        "code": "H235310000334",
        "type": 16015,
        "name": "吉南准看護学院",
        "address": "山口市小郡下郷799",
        "lat": 34.104248,
        "lng": 131.39401
    },
    {
        "code": "H235310000343",
        "type": 16015,
        "name": "山口公務員学校",
        "address": "山口市小郡下郷1647-7-1",
        "lat": 34.097704,
        "lng": 131.401262
    }
]