[
    {
        "code": "A135310001080",
        "type": 16011,
        "name": "柳井幼稚園",
        "address": "柳井市姫田4-1",
        "lat": 33.970625,
        "lng": 132.113133
    },
    {
        "code": "A135310001099",
        "type": 16011,
        "name": "柳美幼稚園",
        "address": "柳井市山根9-1",
        "lat": 33.9686,
        "lng": 132.116084
    },
    {
        "code": "A135310001106",
        "type": 16011,
        "name": "新庄幼稚園",
        "address": "柳井市新庄825",
        "lat": 33.977407,
        "lng": 132.0869
    },
    {
        "code": "B135210001712",
        "type": 16001,
        "name": "柳井小学校",
        "address": "柳井市柳井3680-4",
        "lat": 33.971424,
        "lng": 132.108715
    },
    {
        "code": "B135210001721",
        "type": 16001,
        "name": "柳東小学校",
        "address": "柳井市柳井964-1",
        "lat": 33.959854,
        "lng": 132.131287
    },
    {
        "code": "B135210001730",
        "type": 16001,
        "name": "柳北小学校",
        "address": "柳井市柳井5025",
        "lat": 33.985395,
        "lng": 132.096827
    },
    {
        "code": "B135210001749",
        "type": 16001,
        "name": "新庄小学校",
        "address": "柳井市新庄2614",
        "lat": 33.969702,
        "lng": 132.089911
    },
    {
        "code": "B135210001758",
        "type": 16001,
        "name": "余田小学校",
        "address": "柳井市余田1419",
        "lat": 33.97159,
        "lng": 132.069107
    },
    {
        "code": "B135210001767",
        "type": 16001,
        "name": "伊陸小学校",
        "address": "柳井市伊陸5856-1",
        "lat": 34.029001,
        "lng": 132.110074
    },
    {
        "code": "B135210001776",
        "type": 16001,
        "name": "平郡東小学校",
        "address": "柳井市平郡1834",
        "lat": 33.780087,
        "lng": 132.258706
    },
    {
        "code": "B135210001785",
        "type": 16001,
        "name": "平郡西小学校",
        "address": "柳井市平郡4836-2",
        "lat": 33.779958,
        "lng": 132.258498
    },
    {
        "code": "B135210001794",
        "type": 16001,
        "name": "柳井南小学校",
        "address": "柳井市伊保庄1429",
        "lat": 33.922513,
        "lng": 132.125993
    },
    {
        "code": "B135210001801",
        "type": 16001,
        "name": "小田小学校",
        "address": "柳井市伊保庄4853-1",
        "lat": 33.951649,
        "lng": 132.117632
    },
    {
        "code": "B135210001810",
        "type": 16001,
        "name": "日積小学校",
        "address": "柳井市日積6951",
        "lat": 34.00133,
        "lng": 132.152594
    },
    {
        "code": "B135210002169",
        "type": 16001,
        "name": "大畠小学校",
        "address": "柳井市大畠757-2",
        "lat": 33.961596,
        "lng": 132.166941
    },
    {
        "code": "C135210000971",
        "type": 16002,
        "name": "柳井中学校",
        "address": "柳井市柳井4155",
        "lat": 33.974507,
        "lng": 132.105521
    },
    {
        "code": "C135210000980",
        "type": 16002,
        "name": "柳井西中学校",
        "address": "柳井市余田2111",
        "lat": 33.977034,
        "lng": 132.076523
    },
    {
        "code": "C135210001159",
        "type": 16002,
        "name": "大畠中学校",
        "address": "柳井市神代4273",
        "lat": 33.963955,
        "lng": 132.176043
    },
    {
        "code": "D135210000069",
        "type": 16004,
        "name": "柳井高等学校",
        "address": "柳井市古開作611-1",
        "lat": 33.965703,
        "lng": 132.0973
    },
    {
        "code": "D135210000407",
        "type": 16004,
        "name": "柳井商工高等学校",
        "address": "柳井市伊保庄2658",
        "lat": 33.956032,
        "lng": 132.100688
    },
    {
        "code": "D135310000183",
        "type": 16004,
        "name": "柳井学園高等学校",
        "address": "柳井市古開作410",
        "lat": 33.96998,
        "lng": 132.102022
    },
    {
        "code": "H135310000317",
        "type": 16016,
        "name": "柳井音楽専門学校",
        "address": "柳井市大字柳井津507",
        "lat": 33.969258,
        "lng": 132.106838
    },
    {
        "code": "H235310000254",
        "type": 16015,
        "name": "山口県柳井自動車学校",
        "address": "柳井市柳井1697-2",
        "lat": 33.961965,
        "lng": 132.121423
    },
    {
        "code": "H235310000263",
        "type": 16015,
        "name": "柳井准看護学院",
        "address": "柳井市南町6-12-1",
        "lat": 33.962025,
        "lng": 132.098919
    },
    {
        "code": "H235310000272",
        "type": 16015,
        "name": "窪田和裁專門学院",
        "address": "柳井市古市3729-22",
        "lat": 33.970523,
        "lng": 132.107112
    }
]