[
    {
        "code": "A135310001115",
        "type": 16011,
        "name": "美祢幼稚園",
        "address": "美祢市大嶺町東分1853-2",
        "lat": 34.175809,
        "lng": 131.204868
    },
    {
        "code": "A135310001124",
        "type": 16011,
        "name": "伊佐中央幼稚園",
        "address": "美祢市伊佐町伊佐3895-1",
        "lat": 34.168786,
        "lng": 131.232752
    },
    {
        "code": "B135210001829",
        "type": 16001,
        "name": "伊佐小学校",
        "address": "美祢市伊佐町伊佐4454",
        "lat": 34.164218,
        "lng": 131.227089
    },
    {
        "code": "B135210001838",
        "type": 16001,
        "name": "厚保小学校",
        "address": "美祢市西厚保町本郷610",
        "lat": 34.109976,
        "lng": 131.142177
    },
    {
        "code": "B135210001847",
        "type": 16001,
        "name": "大嶺小学校",
        "address": "美祢市大嶺町東分1721",
        "lat": 34.175715,
        "lng": 131.20612
    },
    {
        "code": "B135210001865",
        "type": 16001,
        "name": "麦川小学校",
        "address": "美祢市大嶺町奥分1960",
        "lat": 34.19,
        "lng": 131.169845
    },
    {
        "code": "B135210001874",
        "type": 16001,
        "name": "於福小学校",
        "address": "美祢市於福町上4206",
        "lat": 34.243406,
        "lng": 131.204469
    },
    {
        "code": "B135210001883",
        "type": 16001,
        "name": "豊田前小学校",
        "address": "美祢市豊田前町麻生下809",
        "lat": 34.193322,
        "lng": 131.117709
    },
    {
        "code": "B135210002757",
        "type": 16001,
        "name": "大田小学校",
        "address": "美祢市美東町大田6215",
        "lat": 34.226074,
        "lng": 131.343857
    },
    {
        "code": "B135210002766",
        "type": 16001,
        "name": "綾木小学校",
        "address": "美祢市美東町綾木2125",
        "lat": 34.189134,
        "lng": 131.346913
    },
    {
        "code": "B135210002775",
        "type": 16001,
        "name": "淳美小学校",
        "address": "美祢市美東町真名472-3",
        "lat": 34.160053,
        "lng": 131.354359
    },
    {
        "code": "B135210002784",
        "type": 16001,
        "name": "秋吉小学校",
        "address": "美祢市秋芳町秋吉2388",
        "lat": 34.212769,
        "lng": 131.304667
    },
    {
        "code": "B135210002793",
        "type": 16001,
        "name": "秋芳桂花小学校",
        "address": "美祢市秋芳町嘉万2970",
        "lat": 34.2653,
        "lng": 131.259009
    },
    {
        "code": "C135210000999",
        "type": 16002,
        "name": "伊佐中学校",
        "address": "美祢市伊佐町伊佐4616",
        "lat": 34.167216,
        "lng": 131.226146
    },
    {
        "code": "C135210001006",
        "type": 16002,
        "name": "厚保中学校",
        "address": "美祢市西厚保町本郷189-3",
        "lat": 34.111443,
        "lng": 131.152929
    },
    {
        "code": "C135210001015",
        "type": 16002,
        "name": "大嶺中学校",
        "address": "美祢市大嶺町東分3020",
        "lat": 34.166734,
        "lng": 131.195361
    },
    {
        "code": "C135210001024",
        "type": 16002,
        "name": "於福中学校",
        "address": "美祢市於福町上4319",
        "lat": 34.240097,
        "lng": 131.205352
    },
    {
        "code": "C135210001408",
        "type": 16002,
        "name": "美東中学校",
        "address": "美祢市美東町大田6258",
        "lat": 34.225796,
        "lng": 131.345662
    },
    {
        "code": "C135210001417",
        "type": 16002,
        "name": "秋芳中学校",
        "address": "美祢市秋芳町秋吉5100",
        "lat": 34.215908,
        "lng": 131.293224
    },
    {
        "code": "D135210000531",
        "type": 16004,
        "name": "美祢青嶺高等学校",
        "address": "美祢市大嶺町東分299-1",
        "lat": 34.178371,
        "lng": 131.214
    },
    {
        "code": "D135310000192",
        "type": 16004,
        "name": "成進高等学校",
        "address": "美祢市大嶺町中村",
        "lat": 34.173437,
        "lng": 131.203092
    }
]