[
    {
        "code": "A135210000207",
        "type": 16011,
        "name": "やよい幼稚園",
        "address": "光市三井5-9-2",
        "lat": 33.990282,
        "lng": 131.952849
    },
    {
        "code": "A135310001035",
        "type": 16011,
        "name": "聖光幼稚園",
        "address": "光市光井9-22-1",
        "lat": 33.960434,
        "lng": 131.944685
    },
    {
        "code": "A135310001044",
        "type": 16011,
        "name": "光天使幼稚園",
        "address": "光市浅江3-2-15",
        "lat": 33.975957,
        "lng": 131.923917
    },
    {
        "code": "A135310001053",
        "type": 16011,
        "name": "マリア幼稚園",
        "address": "光市室積松原21-37",
        "lat": 33.939372,
        "lng": 131.967613
    },
    {
        "code": "A135310001179",
        "type": 16011,
        "name": "三輪幼稚園",
        "address": "光市大字三輪836",
        "lat": 33.979329,
        "lng": 132.002012
    },
    {
        "code": "A135310001188",
        "type": 16011,
        "name": "束荷幼稚園",
        "address": "光市大字束荷1622",
        "lat": 34.008956,
        "lng": 132.000406
    },
    {
        "code": "A135310001197",
        "type": 16011,
        "name": "光照幼稚園",
        "address": "光市塩田2942",
        "lat": 33.999908,
        "lng": 132.025818
    },
    {
        "code": "B135110000029",
        "type": 16001,
        "name": "山口大学教育学部附属光小学校",
        "address": "光市室積8-4-1",
        "lat": 33.919323,
        "lng": 131.97031
    },
    {
        "code": "B135210001598",
        "type": 16001,
        "name": "室積小学校",
        "address": "光市室積6-4-1",
        "lat": 33.927649,
        "lng": 131.967477
    },
    {
        "code": "B135210001605",
        "type": 16001,
        "name": "島田小学校",
        "address": "光市島田5-15-1",
        "lat": 33.976391,
        "lng": 131.938729
    },
    {
        "code": "B135210001614",
        "type": 16001,
        "name": "上島田小学校",
        "address": "光市上島田3-9-1",
        "lat": 33.98678,
        "lng": 131.96081
    },
    {
        "code": "B135210001623",
        "type": 16001,
        "name": "浅江小学校",
        "address": "光市光ヶ丘2-10",
        "lat": 33.97764,
        "lng": 131.922119
    },
    {
        "code": "B135210001632",
        "type": 16001,
        "name": "光井小学校",
        "address": "光市光井4-23-1",
        "lat": 33.957284,
        "lng": 131.955672
    },
    {
        "code": "B135210001641",
        "type": 16001,
        "name": "三井小学校",
        "address": "光市三井5-9-1",
        "lat": 33.99039,
        "lng": 131.952172
    },
    {
        "code": "B135210001650",
        "type": 16001,
        "name": "周防小学校",
        "address": "光市大字小周防1587",
        "lat": 34.017416,
        "lng": 131.977002
    },
    {
        "code": "B135210002221",
        "type": 16001,
        "name": "塩田小学校",
        "address": "光市大字塩田1927-6",
        "lat": 33.998448,
        "lng": 132.034164
    },
    {
        "code": "B135210002230",
        "type": 16001,
        "name": "三輪小学校",
        "address": "光市大字三輪264-1",
        "lat": 33.97731,
        "lng": 131.997056
    },
    {
        "code": "B135210002249",
        "type": 16001,
        "name": "岩田小学校",
        "address": "光市大字岩田193-2",
        "lat": 33.984198,
        "lng": 131.990473
    },
    {
        "code": "B135210002258",
        "type": 16001,
        "name": "束荷小学校",
        "address": "光市大字束荷1301",
        "lat": 34.008834,
        "lng": 132.006361
    },
    {
        "code": "C135110000027",
        "type": 16002,
        "name": "山口大学教育学部附属光中学校",
        "address": "光市室積8-4-1",
        "lat": 33.919289,
        "lng": 131.97031
    },
    {
        "code": "C135210000917",
        "type": 16002,
        "name": "室積中学校",
        "address": "光市室積新開2-4-1",
        "lat": 33.942675,
        "lng": 131.96806
    },
    {
        "code": "C135210000926",
        "type": 16002,
        "name": "光井中学校",
        "address": "光市光井7-18-1",
        "lat": 33.958228,
        "lng": 131.953811
    },
    {
        "code": "C135210000935",
        "type": 16002,
        "name": "浅江中学校",
        "address": "光市花園2-1-1",
        "lat": 33.975155,
        "lng": 131.928688
    },
    {
        "code": "C135210000944",
        "type": 16002,
        "name": "島田中学校",
        "address": "光市中島田2-7-1",
        "lat": 33.982974,
        "lng": 131.951811
    },
    {
        "code": "C135210001202",
        "type": 16002,
        "name": "大和中学校",
        "address": "光市大字塩田3333-1",
        "lat": 33.987143,
        "lng": 132.012277
    },
    {
        "code": "D135210000087",
        "type": 16004,
        "name": "光高等学校",
        "address": "光市光井6-10-1",
        "lat": 33.962699,
        "lng": 131.952534
    },
    {
        "code": "D135210000372",
        "type": 16004,
        "name": "光丘高等学校",
        "address": "光市光ヶ丘1-1",
        "lat": 33.980251,
        "lng": 131.923925
    },
    {
        "code": "D135210000595",
        "type": 16004,
        "name": "光高等学校",
        "address": "光市光井6-10-1",
        "lat": 33.962741,
        "lng": 131.952667
    },
    {
        "code": "D135310000165",
        "type": 16004,
        "name": "聖光高等学校",
        "address": "光市光井9-22-1",
        "lat": 33.960949,
        "lng": 131.944868
    },
    {
        "code": "H235310000236",
        "type": 16015,
        "name": "尾野本洋裁専門学院",
        "address": "光市中央町5-5-18",
        "lat": 33.964593,
        "lng": 131.939992
    },
    {
        "code": "H235310000245",
        "type": 16015,
        "name": "山口県光自動車学校",
        "address": "光市大字立野843",
        "lat": 33.999379,
        "lng": 131.971142
    }
]