[
    {
        "code": "A135210000172",
        "type": 16011,
        "name": "桜田幼稚園",
        "address": "周南市大字戸田2533-1",
        "lat": 34.07818,
        "lng": 131.68913
    },
    {
        "code": "A135210000181",
        "type": 16011,
        "name": "菊川幼稚園",
        "address": "周南市大字下上88-1",
        "lat": 34.088632,
        "lng": 131.784242
    },
    {
        "code": "A135210000190",
        "type": 16011,
        "name": "須々万幼稚園",
        "address": "周南市大字須々万本郷710",
        "lat": 34.120378,
        "lng": 131.870145
    },
    {
        "code": "A135210000243",
        "type": 16011,
        "name": "八代幼稚園",
        "address": "周南市大字八代877-3",
        "lat": 34.087761,
        "lng": 131.937042
    },
    {
        "code": "A135210000252",
        "type": 16011,
        "name": "富田東幼稚園",
        "address": "周南市桶川町2-2",
        "lat": 34.070958,
        "lng": 131.77498
    },
    {
        "code": "A135210000314",
        "type": 16011,
        "name": "大津島幼稚園",
        "address": "周南市大字大津島1964-1",
        "lat": 33.991133,
        "lng": 131.718805
    },
    {
        "code": "A135310000447",
        "type": 16011,
        "name": "旭ヶ丘幼稚園",
        "address": "周南市久米旭ヶ丘1008",
        "lat": 34.032869,
        "lng": 131.84515
    },
    {
        "code": "A135310000456",
        "type": 16011,
        "name": "愛光幼稚園",
        "address": "周南市上御弓町3400-1",
        "lat": 34.094488,
        "lng": 131.786707
    },
    {
        "code": "A135310000465",
        "type": 16011,
        "name": "徳山幼稚園",
        "address": "周南市権現町4-6",
        "lat": 34.056981,
        "lng": 131.798229
    },
    {
        "code": "A135310000474",
        "type": 16011,
        "name": "河原幼稚園",
        "address": "周南市大字徳山5670-1",
        "lat": 34.05893,
        "lng": 131.817881
    },
    {
        "code": "A135310000483",
        "type": 16011,
        "name": "蓮生・まこと幼稚園",
        "address": "周南市大字久米3920-1",
        "lat": 34.030832,
        "lng": 131.83104
    },
    {
        "code": "A135310000492",
        "type": 16011,
        "name": "小さき花幼稚園",
        "address": "周南市三番町1-9-2",
        "lat": 34.054146,
        "lng": 131.810682
    },
    {
        "code": "A135310000508",
        "type": 16011,
        "name": "徳山めぐみ幼稚園",
        "address": "周南市弥生町2-29",
        "lat": 34.057732,
        "lng": 131.806652
    },
    {
        "code": "A135310000517",
        "type": 16011,
        "name": "周南小さき花幼稚園",
        "address": "周南市桜木1-9-1",
        "lat": 34.042043,
        "lng": 131.838489
    },
    {
        "code": "A135310000526",
        "type": 16011,
        "name": "徳山中央幼稚園",
        "address": "周南市城ヶ丘3-18-22",
        "lat": 34.042335,
        "lng": 131.845721
    },
    {
        "code": "A135310001222",
        "type": 16011,
        "name": "大河内幼稚園",
        "address": "周南市大字大河内1649-2",
        "lat": 34.028835,
        "lng": 131.941044
    },
    {
        "code": "A135310001231",
        "type": 16011,
        "name": "明照幼稚園",
        "address": "周南市大字樋口328",
        "lat": 34.060162,
        "lng": 131.979406
    },
    {
        "code": "A135310001240",
        "type": 16011,
        "name": "あおば幼稚園",
        "address": "周南市大字呼坂1240-3",
        "lat": 34.044507,
        "lng": 131.954948
    },
    {
        "code": "A135310001259",
        "type": 16011,
        "name": "富田幼稚園",
        "address": "周南市大字富田2960",
        "lat": 34.074003,
        "lng": 131.758457
    },
    {
        "code": "A135310001268",
        "type": 16011,
        "name": "南陽幼稚園",
        "address": "周南市福川3-7-30",
        "lat": 34.074526,
        "lng": 131.73606
    },
    {
        "code": "A235210000135",
        "type": 16013,
        "name": "鹿野こども園",
        "address": "周南市大字鹿野上2800",
        "lat": 34.230562,
        "lng": 131.81314
    },
    {
        "code": "A235310000115",
        "type": 16013,
        "name": "ふくがわこども園",
        "address": "周南市福川南町3-30",
        "lat": 34.072046,
        "lng": 131.739676
    },
    {
        "code": "A235310000160",
        "type": 16013,
        "name": "共楽保育園",
        "address": "周南市大字久米1311",
        "lat": 34.032585,
        "lng": 131.842253
    },
    {
        "code": "B135210000820",
        "type": 16001,
        "name": "徳山小学校",
        "address": "周南市毛利町1-1",
        "lat": 34.054324,
        "lng": 131.808988
    },
    {
        "code": "B135210000839",
        "type": 16001,
        "name": "遠石小学校",
        "address": "周南市遠石1-3-48",
        "lat": 34.042492,
        "lng": 131.818209
    },
    {
        "code": "B135210000848",
        "type": 16001,
        "name": "今宿小学校",
        "address": "周南市今住町1-40",
        "lat": 34.06249,
        "lng": 131.802822
    },
    {
        "code": "B135210000857",
        "type": 16001,
        "name": "久米小学校",
        "address": "周南市大字久米3417",
        "lat": 34.041021,
        "lng": 131.845096
    },
    {
        "code": "B135210000866",
        "type": 16001,
        "name": "久米小学校譲羽分校",
        "address": "周南市大字譲羽559-1",
        "lat": 34.068463,
        "lng": 131.860817
    },
    {
        "code": "B135210000875",
        "type": 16001,
        "name": "菊川小学校",
        "address": "周南市大字下上80-1",
        "lat": 34.089876,
        "lng": 131.784156
    },
    {
        "code": "B135210000884",
        "type": 16001,
        "name": "櫛浜小学校",
        "address": "周南市大字栗屋860",
        "lat": 34.0218,
        "lng": 131.832098
    },
    {
        "code": "B135210000893",
        "type": 16001,
        "name": "四熊小学校",
        "address": "周南市大字四熊1547",
        "lat": 34.11204,
        "lng": 131.76499
    },
    {
        "code": "B135210000900",
        "type": 16001,
        "name": "小畑小学校",
        "address": "周南市大字小畑190",
        "lat": 34.089764,
        "lng": 131.756158
    },
    {
        "code": "B135210000919",
        "type": 16001,
        "name": "夜市小学校",
        "address": "周南市大字夜市730",
        "lat": 34.082347,
        "lng": 131.716133
    },
    {
        "code": "B135210000928",
        "type": 16001,
        "name": "戸田小学校",
        "address": "周南市大字戸田2527-2",
        "lat": 34.078403,
        "lng": 131.688219
    },
    {
        "code": "B135210000937",
        "type": 16001,
        "name": "湯野小学校",
        "address": "周南市大字湯野3843",
        "lat": 34.09965,
        "lng": 131.677969
    },
    {
        "code": "B135210000946",
        "type": 16001,
        "name": "大向小学校",
        "address": "周南市大字大向1652-1",
        "lat": 34.18145,
        "lng": 131.818485
    },
    {
        "code": "B135210000955",
        "type": 16001,
        "name": "岐山小学校",
        "address": "周南市大字徳山5673",
        "lat": 34.059935,
        "lng": 131.817903
    },
    {
        "code": "B135210000964",
        "type": 16001,
        "name": "須磨小学校",
        "address": "周南市大字須万2581",
        "lat": 34.200812,
        "lng": 131.922057
    },
    {
        "code": "B135210000973",
        "type": 16001,
        "name": "須磨小学校峰畑分校",
        "address": "周南市大字須万3834",
        "lat": 34.200783,
        "lng": 131.921944
    },
    {
        "code": "B135210000982",
        "type": 16001,
        "name": "中須小学校",
        "address": "周南市大字中須南2583",
        "lat": 34.11471,
        "lng": 131.918532
    },
    {
        "code": "B135210000991",
        "type": 16001,
        "name": "沼城小学校",
        "address": "周南市大字須々万本郷514",
        "lat": 34.121569,
        "lng": 131.867704
    },
    {
        "code": "B135210001008",
        "type": 16001,
        "name": "周陽小学校",
        "address": "周南市周陽1-15-1",
        "lat": 34.047464,
        "lng": 131.828597
    },
    {
        "code": "B135210001017",
        "type": 16001,
        "name": "秋月小学校",
        "address": "周南市秋月1-1-50",
        "lat": 34.054158,
        "lng": 131.826347
    },
    {
        "code": "B135210001026",
        "type": 16001,
        "name": "桜木小学校",
        "address": "周南市桜木1-11-1",
        "lat": 34.041187,
        "lng": 131.838264
    },
    {
        "code": "B135210001035",
        "type": 16001,
        "name": "大津島小学校",
        "address": "周南市大字大津島1964-1",
        "lat": 33.991105,
        "lng": 131.718553
    },
    {
        "code": "B135210001044",
        "type": 16001,
        "name": "鼓南小学校",
        "address": "周南市大字大島1436",
        "lat": 33.983857,
        "lng": 131.777316
    },
    {
        "code": "B135210002329",
        "type": 16001,
        "name": "三丘小学校",
        "address": "周南市大字小松原1242",
        "lat": 34.035497,
        "lng": 131.991695
    },
    {
        "code": "B135210002338",
        "type": 16001,
        "name": "高水小学校",
        "address": "周南市大字樋口288",
        "lat": 34.06105,
        "lng": 131.977918
    },
    {
        "code": "B135210002347",
        "type": 16001,
        "name": "勝間小学校",
        "address": "周南市勝間ヶ丘1-1-1",
        "lat": 34.047399,
        "lng": 131.953751
    },
    {
        "code": "B135210002356",
        "type": 16001,
        "name": "大河内小学校",
        "address": "周南市大字大河内1115-1",
        "lat": 34.026969,
        "lng": 131.94081
    },
    {
        "code": "B135210002365",
        "type": 16001,
        "name": "八代小学校",
        "address": "周南市大字八代10877-3",
        "lat": 34.088121,
        "lng": 131.937033
    },
    {
        "code": "B135210002374",
        "type": 16001,
        "name": "鹿野小学校",
        "address": "周南市大字鹿野上3054-1",
        "lat": 34.22839,
        "lng": 131.816067
    },
    {
        "code": "B135210002383",
        "type": 16001,
        "name": "富田東小学校",
        "address": "周南市桶川町2-1",
        "lat": 34.071821,
        "lng": 131.775269
    },
    {
        "code": "B135210002392",
        "type": 16001,
        "name": "富田西小学校",
        "address": "周南市富田2-14-1",
        "lat": 34.074737,
        "lng": 131.753492
    },
    {
        "code": "B135210002409",
        "type": 16001,
        "name": "福川小学校",
        "address": "周南市福川3-2-1",
        "lat": 34.075348,
        "lng": 131.737493
    },
    {
        "code": "B135210002418",
        "type": 16001,
        "name": "和田小学校",
        "address": "周南市大字垰212-1",
        "lat": 34.149813,
        "lng": 131.736657
    },
    {
        "code": "B135210002427",
        "type": 16001,
        "name": "福川南小学校",
        "address": "周南市中畷町6-1",
        "lat": 34.071626,
        "lng": 131.727438
    },
    {
        "code": "C135210000490",
        "type": 16002,
        "name": "鼓南中学校",
        "address": "周南市大字大島10880",
        "lat": 33.983469,
        "lng": 131.776965
    },
    {
        "code": "C135210000506",
        "type": 16002,
        "name": "太華中学校",
        "address": "周南市大字久米4117-4",
        "lat": 34.033021,
        "lng": 131.832098
    },
    {
        "code": "C135210000515",
        "type": 16002,
        "name": "岐陽中学校",
        "address": "周南市大字徳山4915",
        "lat": 34.05459,
        "lng": 131.81422
    },
    {
        "code": "C135210000524",
        "type": 16002,
        "name": "住吉中学校",
        "address": "周南市住吉町1-80",
        "lat": 34.064629,
        "lng": 131.805127
    },
    {
        "code": "C135210000533",
        "type": 16002,
        "name": "菊川中学校",
        "address": "周南市大字上村685-2",
        "lat": 34.096126,
        "lng": 131.789989
    },
    {
        "code": "C135210000542",
        "type": 16002,
        "name": "桜田中学校",
        "address": "周南市大字戸田2960",
        "lat": 34.079514,
        "lng": 131.686885
    },
    {
        "code": "C135210000551",
        "type": 16002,
        "name": "大津島中学校",
        "address": "周南市大字大津島1964-1",
        "lat": 34.006853,
        "lng": 131.703665
    },
    {
        "code": "C135210000560",
        "type": 16002,
        "name": "須金中学校",
        "address": "周南市大字須万2581",
        "lat": 34.20084,
        "lng": 131.922057
    },
    {
        "code": "C135210000579",
        "type": 16002,
        "name": "中須中学校",
        "address": "周南市大字中須南2281",
        "lat": 34.115516,
        "lng": 131.917004
    },
    {
        "code": "C135210000588",
        "type": 16002,
        "name": "須々万中学校",
        "address": "周南市大字須々万本郷10362-5",
        "lat": 34.113551,
        "lng": 131.865848
    },
    {
        "code": "C135210000597",
        "type": 16002,
        "name": "周陽中学校",
        "address": "周南市周陽3-3-1",
        "lat": 34.044242,
        "lng": 131.829986
    },
    {
        "code": "C135210000604",
        "type": 16002,
        "name": "秋月中学校",
        "address": "周南市秋月1-1-53",
        "lat": 34.053297,
        "lng": 131.825625
    },
    {
        "code": "C135210001239",
        "type": 16002,
        "name": "熊毛中学校",
        "address": "周南市大字安田1827-1",
        "lat": 34.048551,
        "lng": 131.966919
    },
    {
        "code": "C135210001248",
        "type": 16002,
        "name": "鹿野中学校",
        "address": "周南市大字鹿野上3061",
        "lat": 34.227418,
        "lng": 131.815123
    },
    {
        "code": "C135210001257",
        "type": 16002,
        "name": "富田中学校",
        "address": "周南市大字富田2703-1",
        "lat": 34.073043,
        "lng": 131.762186
    },
    {
        "code": "C135210001266",
        "type": 16002,
        "name": "福川中学校",
        "address": "周南市若山1-7-1",
        "lat": 34.076126,
        "lng": 131.728077
    },
    {
        "code": "C135310000078",
        "type": 16002,
        "name": "晃英館中学校",
        "address": "周南市大字徳山5626-1",
        "lat": 34.06105,
        "lng": 131.817467
    },
    {
        "code": "D135210000096",
        "type": 16004,
        "name": "熊毛北高等学校",
        "address": "周南市大字安田字追迫1-2",
        "lat": 34.039603,
        "lng": 131.979512
    },
    {
        "code": "D135210000121",
        "type": 16004,
        "name": "徳山高等学校",
        "address": "周南市鐘楼町2-50",
        "lat": 34.06049,
        "lng": 131.808932
    },
    {
        "code": "D135210000130",
        "type": 16004,
        "name": "南陽工業高等学校",
        "address": "周南市温田1-1-1",
        "lat": 34.072682,
        "lng": 131.746215
    },
    {
        "code": "D135210000363",
        "type": 16004,
        "name": "新南陽高等学校",
        "address": "周南市土井1-8-1",
        "lat": 34.077765,
        "lng": 131.771102
    },
    {
        "code": "D135210000416",
        "type": 16004,
        "name": "徳山商工高等学校",
        "address": "周南市周陽3-1-1",
        "lat": 34.046325,
        "lng": 131.827236
    },
    {
        "code": "D135210000461",
        "type": 16004,
        "name": "徳山高等学校鹿野分校",
        "address": "周南市大字鹿野下字木引原1228",
        "lat": 34.195782,
        "lng": 131.80893
    },
    {
        "code": "D135210000513",
        "type": 16004,
        "name": "徳山高等学校徳山北分校",
        "address": "周南市大字須々万奥430-1",
        "lat": 34.125552,
        "lng": 131.86433
    },
    {
        "code": "D135310000110",
        "type": 16004,
        "name": "山口県桜ケ丘高等学校",
        "address": "周南市大字徳山5626-1",
        "lat": 34.060994,
        "lng": 131.817464
    },
    {
        "code": "E135210000084",
        "type": 16012,
        "name": "周南総合支援学校",
        "address": "周南市大字久米761",
        "lat": 34.038167,
        "lng": 131.849347
    },
    {
        "code": "E135210000119",
        "type": 16012,
        "name": "徳山総合支援学校",
        "address": "周南市大字栗屋字小踏中崎267-1",
        "lat": 34.020521,
        "lng": 131.823015
    },
    {
        "code": "F135310110103",
        "type": 16007,
        "name": "徳山大学",
        "address": "周南市学園台843-4-2",
        "lat": 34.047983,
        "lng": 131.844798
    },
    {
        "code": "G135110110203",
        "type": 16005,
        "name": "徳山工業高等専門学校",
        "address": "周南市学園台",
        "lat": 34.052089,
        "lng": 131.84658
    },
    {
        "code": "H135310000200",
        "type": 16016,
        "name": "徳山看護専門学校",
        "address": "周南市慶万町10-1",
        "lat": 34.050274,
        "lng": 131.815908
    },
    {
        "code": "H135310000219",
        "type": 16016,
        "name": "ＹＩＣキャリアデザイン専門学校",
        "address": "周南市代々木通2-33",
        "lat": 34.055224,
        "lng": 131.802555
    },
    {
        "code": "H135310000228",
        "type": 16016,
        "name": "徳山総合ビジネス専門学校",
        "address": "周南市本町2-13",
        "lat": 34.054921,
        "lng": 131.801991
    },
    {
        "code": "H235310000174",
        "type": 16015,
        "name": "山口県周南自動車学校",
        "address": "周南市大字栗屋字双葉屋開作1041-2",
        "lat": 34.012539,
        "lng": 131.833956
    }
]