[
    {
        "code": "A136220800010",
        "type": 16011,
        "name": "三野幼稚園",
        "address": "三好市三野町太刀野970",
        "lat": 34.048063,
        "lng": 133.953155
    },
    {
        "code": "A136220800029",
        "type": 16011,
        "name": "白地幼稚園",
        "address": "三好市池田町白地本名155",
        "lat": 34.016841,
        "lng": 133.781777
    },
    {
        "code": "A136220800038",
        "type": 16011,
        "name": "馬路幼稚園",
        "address": "三好市池田町馬路立石33-1",
        "lat": 34.009783,
        "lng": 133.735053
    },
    {
        "code": "A136220800047",
        "type": 16011,
        "name": "三繩幼稚園",
        "address": "三好市池田町中西ｲﾊﾞ504-11",
        "lat": 33.996977,
        "lng": 133.791231
    },
    {
        "code": "A136220800056",
        "type": 16011,
        "name": "川崎幼稚園",
        "address": "三好市池田町川崎浪会31",
        "lat": 33.968063,
        "lng": 133.774657
    },
    {
        "code": "A136220800065",
        "type": 16011,
        "name": "池田幼稚園",
        "address": "三好市池田町ｳｴﾉ2869-2",
        "lat": 34.030893,
        "lng": 133.808768
    },
    {
        "code": "A136220800074",
        "type": 16011,
        "name": "箸蔵幼稚園",
        "address": "三好市池田町州津井関1109-1",
        "lat": 34.037882,
        "lng": 133.837487
    },
    {
        "code": "A136220800083",
        "type": 16011,
        "name": "山城幼稚園",
        "address": "三好市山城町大川持30-2",
        "lat": 33.966045,
        "lng": 133.754169
    },
    {
        "code": "A136220800092",
        "type": 16011,
        "name": "下名幼稚園",
        "address": "三好市山城町下名1001-1",
        "lat": 33.869988,
        "lng": 133.77258
    },
    {
        "code": "A136220800109",
        "type": 16011,
        "name": "辻幼稚園",
        "address": "三好市井川町辻39",
        "lat": 34.028019,
        "lng": 133.87819
    },
    {
        "code": "A136220800118",
        "type": 16011,
        "name": "西井川幼稚園",
        "address": "三好市井川町西井川610-1",
        "lat": 34.032399,
        "lng": 133.843798
    },
    {
        "code": "A136220800127",
        "type": 16011,
        "name": "吾橋幼稚園",
        "address": "三好市西祖谷山村下吾橋303-2",
        "lat": 33.86627,
        "lng": 133.786706
    },
    {
        "code": "B136220800018",
        "type": 16001,
        "name": "王地小学校",
        "address": "三好市三野町加茂野宮1393",
        "lat": 34.051137,
        "lng": 133.989776
    },
    {
        "code": "B136220800027",
        "type": 16001,
        "name": "芝生小学校",
        "address": "三好市三野町芝生1230",
        "lat": 34.041545,
        "lng": 133.96673
    },
    {
        "code": "B136220800036",
        "type": 16001,
        "name": "芝生小学校太刀野分校",
        "address": "三好市三野町太刀野970",
        "lat": 34.048315,
        "lng": 133.953255
    },
    {
        "code": "B136220800045",
        "type": 16001,
        "name": "箸蔵小学校",
        "address": "三好市池田町州津井関1208",
        "lat": 34.036944,
        "lng": 133.836764
    },
    {
        "code": "B136220800054",
        "type": 16001,
        "name": "池田小学校",
        "address": "三好市池田町ｳｴﾉ2379-4",
        "lat": 34.031301,
        "lng": 133.810253
    },
    {
        "code": "B136220800063",
        "type": 16001,
        "name": "白地小学校",
        "address": "三好市池田町白地本名57",
        "lat": 34.017023,
        "lng": 133.782522
    },
    {
        "code": "B136220800072",
        "type": 16001,
        "name": "馬路小学校",
        "address": "三好市池田町馬路立石33-1",
        "lat": 34.009688,
        "lng": 133.735506
    },
    {
        "code": "B136220800081",
        "type": 16001,
        "name": "三縄小学校",
        "address": "三好市池田町中西ｲﾊﾞ508-1",
        "lat": 33.996019,
        "lng": 133.791702
    },
    {
        "code": "B136220800090",
        "type": 16001,
        "name": "川崎小学校",
        "address": "三好市池田町川崎浪会31",
        "lat": 33.968245,
        "lng": 133.774516
    },
    {
        "code": "B136220800107",
        "type": 16001,
        "name": "山城小学校",
        "address": "三好市山城町大川持30-2",
        "lat": 33.965858,
        "lng": 133.754206
    },
    {
        "code": "B136220800116",
        "type": 16001,
        "name": "下名小学校",
        "address": "三好市山城町下名1001-1",
        "lat": 33.870386,
        "lng": 133.77271
    },
    {
        "code": "B136220800125",
        "type": 16001,
        "name": "辻小学校",
        "address": "三好市井川町辻53-1",
        "lat": 34.028265,
        "lng": 133.878458
    },
    {
        "code": "B136220800134",
        "type": 16001,
        "name": "西井川小学校",
        "address": "三好市井川町西井川734-3",
        "lat": 34.032431,
        "lng": 133.846284
    },
    {
        "code": "B136220800143",
        "type": 16001,
        "name": "井内小学校",
        "address": "三好市井内西4896-1",
        "lat": 33.998667,
        "lng": 133.879582
    },
    {
        "code": "B136220800152",
        "type": 16001,
        "name": "東祖谷小学校",
        "address": "三好市東祖谷下瀬12-1",
        "lat": 33.875041,
        "lng": 133.9214
    },
    {
        "code": "B136220800161",
        "type": 16001,
        "name": "檪生小学校",
        "address": "三好市西祖谷山村一宇262-1",
        "lat": 33.893648,
        "lng": 133.815332
    },
    {
        "code": "B136220800170",
        "type": 16001,
        "name": "吾橋小学校",
        "address": "三好市西祖谷山村下吾橋303-2",
        "lat": 33.866698,
        "lng": 133.787016
    },
    {
        "code": "C136220800016",
        "type": 16002,
        "name": "三野中学校",
        "address": "三好市三野町芝生1232",
        "lat": 34.040851,
        "lng": 133.967072
    },
    {
        "code": "C136220800025",
        "type": 16002,
        "name": "池田中学校",
        "address": "三好市池田町ｳｴﾉ2861-1",
        "lat": 34.031041,
        "lng": 133.807666
    },
    {
        "code": "C136220800034",
        "type": 16002,
        "name": "山城中学校",
        "address": "三好市山城町大川持544",
        "lat": 33.960351,
        "lng": 133.748462
    },
    {
        "code": "C136220800043",
        "type": 16002,
        "name": "井川中学校",
        "address": "三好市井川町ﾀｸﾐ田100-2",
        "lat": 34.029089,
        "lng": 133.867961
    },
    {
        "code": "C136220800052",
        "type": 16002,
        "name": "東祖谷中学校",
        "address": "三好市東祖谷下瀬12-1",
        "lat": 33.874727,
        "lng": 133.921425
    },
    {
        "code": "C136220800061",
        "type": 16002,
        "name": "西祖谷中学校",
        "address": "三好市西祖谷山村東西岡10",
        "lat": 33.896078,
        "lng": 133.815137
    },
    {
        "code": "D136220800014",
        "type": 16004,
        "name": "池田高等学校",
        "address": "三好市池田町ｳｴﾉ2834",
        "lat": 34.030694,
        "lng": 133.804492
    },
    {
        "code": "D136220800023",
        "type": 16004,
        "name": "池田高等学校辻校",
        "address": "三好市井川町御領田61-1",
        "lat": 34.028785,
        "lng": 133.874699
    },
    {
        "code": "D136220800032",
        "type": 16004,
        "name": "池田高等学校三好校",
        "address": "三好市池田町州津大深田720",
        "lat": 34.038029,
        "lng": 133.848969
    },
    {
        "code": "E136220800011",
        "type": 16012,
        "name": "池田支援学校",
        "address": "三好市池田町州津井関1103-3",
        "lat": 34.038945,
        "lng": 133.837776
    },
    {
        "code": "H236320800012",
        "type": 16015,
        "name": "三好市医師会准看護学院",
        "address": "三好市池田町ｼﾏ842-1",
        "lat": 34.028143,
        "lng": 133.816893
    }
]