[
    {
        "code": "A236220600011",
        "type": 16013,
        "name": "一条認定こども園",
        "address": "阿波市吉野町西条字岡ﾉ川原134-1",
        "lat": 34.10053,
        "lng": 134.386134
    },
    {
        "code": "A236220600020",
        "type": 16013,
        "name": "土成中央認定こども園",
        "address": "阿波市土成町吉田字山の神23-1",
        "lat": 34.123601,
        "lng": 134.351743
    },
    {
        "code": "A236220600039",
        "type": 16013,
        "name": "八幡認定こども園",
        "address": "阿波市市場町大野島字稲荷179",
        "lat": 34.091387,
        "lng": 134.310668
    },
    {
        "code": "A236220600048",
        "type": 16013,
        "name": "伊沢認定こども園",
        "address": "阿波市阿波町南柴生83-1",
        "lat": 34.088397,
        "lng": 134.229931
    },
    {
        "code": "A236220600057",
        "type": 16013,
        "name": "大俣認定こども園",
        "address": "阿波市市場町大俣字行峯257-1",
        "lat": 34.103327,
        "lng": 134.262292
    },
    {
        "code": "A236320600019",
        "type": 16013,
        "name": "かきはら子ども園",
        "address": "阿波市吉野町柿原字ﾋﾛﾅｶ238-1",
        "lat": 34.097153,
        "lng": 134.353407
    },
    {
        "code": "A236320600028",
        "type": 16013,
        "name": "はやし子ども園",
        "address": "阿波市阿波町東整理155-1",
        "lat": 34.074159,
        "lng": 134.201082
    },
    {
        "code": "A236320600037",
        "type": 16013,
        "name": "市場かもめこども園",
        "address": "阿波市市場町市場字上野段669",
        "lat": 34.088021,
        "lng": 134.286807
    },
    {
        "code": "A236320600046",
        "type": 16013,
        "name": "久勝かもめこども園",
        "address": "阿波市阿波町森沢26",
        "lat": 34.085345,
        "lng": 134.251391
    },
    {
        "code": "B136220600010",
        "type": 16001,
        "name": "一条小学校",
        "address": "阿波市吉野町西条字岡ﾉ川原135",
        "lat": 34.100701,
        "lng": 134.386708
    },
    {
        "code": "B136220600029",
        "type": 16001,
        "name": "柿原小学校",
        "address": "阿波市吉野町柿原字ﾋﾛﾅｶ256-1",
        "lat": 34.097431,
        "lng": 134.352887
    },
    {
        "code": "B136220600038",
        "type": 16001,
        "name": "御所小学校",
        "address": "阿波市土成町宮川内字広坪89",
        "lat": 34.119584,
        "lng": 134.361275
    },
    {
        "code": "B136220600047",
        "type": 16001,
        "name": "土成小学校",
        "address": "阿波市土成町成当1203",
        "lat": 34.108805,
        "lng": 134.324393
    },
    {
        "code": "B136220600056",
        "type": 16001,
        "name": "八幡小学校",
        "address": "阿波市市場町大野島稲荷138-1",
        "lat": 34.090834,
        "lng": 134.311579
    },
    {
        "code": "B136220600065",
        "type": 16001,
        "name": "市場小学校",
        "address": "阿波市市場町市場字上野段670",
        "lat": 34.08746,
        "lng": 134.287206
    },
    {
        "code": "B136220600074",
        "type": 16001,
        "name": "大俣小学校",
        "address": "阿波市市場町上喜来字西原200",
        "lat": 34.103752,
        "lng": 134.262754
    },
    {
        "code": "B136220600092",
        "type": 16001,
        "name": "久勝小学校",
        "address": "阿波市阿波町森沢28",
        "lat": 34.084639,
        "lng": 134.251304
    },
    {
        "code": "B136220600109",
        "type": 16001,
        "name": "伊沢小学校",
        "address": "阿波市阿波町南柴生172",
        "lat": 34.089542,
        "lng": 134.229387
    },
    {
        "code": "B136220600118",
        "type": 16001,
        "name": "林小学校",
        "address": "阿波市阿波町東整理155-1",
        "lat": 34.074131,
        "lng": 134.201672
    },
    {
        "code": "C136220600018",
        "type": 16002,
        "name": "吉野中学校",
        "address": "阿波市吉野町西条字大西4-1",
        "lat": 34.098781,
        "lng": 134.369898
    },
    {
        "code": "C136220600027",
        "type": 16002,
        "name": "土成中学校",
        "address": "阿波市土成町吉田字一本松の二42",
        "lat": 34.11373,
        "lng": 134.348177
    },
    {
        "code": "C136220600036",
        "type": 16002,
        "name": "市場中学校",
        "address": "阿波市市場町市場字上野段6-3",
        "lat": 34.098741,
        "lng": 134.28644
    },
    {
        "code": "C136220600045",
        "type": 16002,
        "name": "阿波中学校",
        "address": "阿波市阿波町東原230-1",
        "lat": 34.085798,
        "lng": 134.235364
    },
    {
        "code": "D136220600016",
        "type": 16004,
        "name": "阿波高等学校",
        "address": "阿波市吉野町柿原字ﾋﾛﾅｶ180",
        "lat": 34.09912,
        "lng": 134.352163
    },
    {
        "code": "D136220600025",
        "type": 16004,
        "name": "阿波西高等学校",
        "address": "阿波市阿波町下喜来南228-1",
        "lat": 34.088198,
        "lng": 134.26471
    }
]