[
    {
        "code": "A136240300013",
        "type": 16011,
        "name": "藍住北幼稚園",
        "address": "板野郡藍住町住吉字乾1",
        "lat": 34.131819,
        "lng": 134.505874
    },
    {
        "code": "A136240300022",
        "type": 16011,
        "name": "藍住南幼稚園",
        "address": "板野郡藍住町奥野字猪熊89-1",
        "lat": 34.123413,
        "lng": 134.491912
    },
    {
        "code": "A136240300031",
        "type": 16011,
        "name": "藍住西幼稚園",
        "address": "板野郡藍住町富吉字地神79",
        "lat": 34.137658,
        "lng": 134.488676
    },
    {
        "code": "A136240300040",
        "type": 16011,
        "name": "藍住東幼稚園",
        "address": "板野郡藍住町勝瑞字成長65",
        "lat": 34.128574,
        "lng": 134.518923
    },
    {
        "code": "B136240300011",
        "type": 16001,
        "name": "藍住北小学校",
        "address": "板野郡藍住町住吉字乾1",
        "lat": 34.132637,
        "lng": 134.505683
    },
    {
        "code": "B136240300020",
        "type": 16001,
        "name": "藍住南小学校",
        "address": "板野郡藍住町奥野字和田95",
        "lat": 34.121666,
        "lng": 134.491629
    },
    {
        "code": "B136240300039",
        "type": 16001,
        "name": "藍住西小学校",
        "address": "板野郡藍住町富吉字豊吉55-1",
        "lat": 34.134831,
        "lng": 134.484713
    },
    {
        "code": "B136240300048",
        "type": 16001,
        "name": "藍住東小学校",
        "address": "板野郡藍住町勝瑞字成長155-1",
        "lat": 34.127527,
        "lng": 134.517265
    },
    {
        "code": "C136240300019",
        "type": 16002,
        "name": "藍住中学校",
        "address": "板野郡藍住町奥野字矢上前18-1",
        "lat": 34.125026,
        "lng": 134.496212
    },
    {
        "code": "C136240300028",
        "type": 16002,
        "name": "藍住東中学校",
        "address": "板野郡藍住町住吉字若宮49-1",
        "lat": 34.128554,
        "lng": 134.510627
    }
]