[
    {
        "code": "A136240500011",
        "type": 16011,
        "name": "神宅幼稚園",
        "address": "板野郡上板町神宅字喜来135",
        "lat": 34.133807,
        "lng": 134.414003
    },
    {
        "code": "A136240500020",
        "type": 16011,
        "name": "東光幼稚園",
        "address": "板野郡上板町西分字東光8",
        "lat": 34.117148,
        "lng": 134.428429
    },
    {
        "code": "A136240500039",
        "type": 16011,
        "name": "高志幼稚園",
        "address": "板野郡上板町高瀬字天目一1108",
        "lat": 34.104031,
        "lng": 134.41911
    },
    {
        "code": "A136240500048",
        "type": 16011,
        "name": "松島幼稚園",
        "address": "板野郡上板町鍛冶屋原字北原20",
        "lat": 34.120645,
        "lng": 134.399611
    },
    {
        "code": "B136240500019",
        "type": 16001,
        "name": "神宅小学校",
        "address": "板野郡上板町神宅字喜来135",
        "lat": 34.134385,
        "lng": 134.414831
    },
    {
        "code": "B136240500028",
        "type": 16001,
        "name": "東光小学校",
        "address": "板野郡上板町西分字東光8",
        "lat": 34.117526,
        "lng": 134.428857
    },
    {
        "code": "B136240500037",
        "type": 16001,
        "name": "松島小学校",
        "address": "板野郡上板町鍛冶屋原字北原20",
        "lat": 34.121185,
        "lng": 134.398721
    },
    {
        "code": "B136240500046",
        "type": 16001,
        "name": "高志小学校",
        "address": "板野郡上板町高瀬字天目一1108",
        "lat": 34.103523,
        "lng": 134.419178
    },
    {
        "code": "C136240500017",
        "type": 16002,
        "name": "上板中学校",
        "address": "板野郡上板町神宅字西金屋44",
        "lat": 34.125164,
        "lng": 134.410748
    }
]