[
    {
        "code": "A136248900010",
        "type": 16011,
        "name": "昼間幼稚園",
        "address": "三好郡東みよし町昼間1550-1",
        "lat": 34.042504,
        "lng": 133.877568
    },
    {
        "code": "A136248900029",
        "type": 16011,
        "name": "足代幼稚園",
        "address": "三好郡東みよし町足代2708",
        "lat": 34.043101,
        "lng": 133.901818
    },
    {
        "code": "A136248900038",
        "type": 16011,
        "name": "加茂幼稚園",
        "address": "三好郡東みよし町加茂2688",
        "lat": 34.036257,
        "lng": 133.923117
    },
    {
        "code": "A136248900047",
        "type": 16011,
        "name": "三庄幼稚園",
        "address": "三好郡東みよし町中庄1125",
        "lat": 34.038218,
        "lng": 133.946118
    },
    {
        "code": "B136248900018",
        "type": 16001,
        "name": "足代小学校",
        "address": "三好郡東みよし町足代2708",
        "lat": 34.043695,
        "lng": 133.902435
    },
    {
        "code": "B136248900027",
        "type": 16001,
        "name": "昼間小学校",
        "address": "三好郡東みよし町昼間1637",
        "lat": 34.041668,
        "lng": 133.876743
    },
    {
        "code": "B136248900036",
        "type": 16001,
        "name": "加茂小学校",
        "address": "三好郡東みよし町加茂2688",
        "lat": 34.036557,
        "lng": 133.923349
    },
    {
        "code": "B136248900045",
        "type": 16001,
        "name": "三庄小学校",
        "address": "三好郡東みよし町中庄1130-1",
        "lat": 34.038391,
        "lng": 133.947319
    },
    {
        "code": "C136248900016",
        "type": 16002,
        "name": "三好中学校",
        "address": "三好郡東みよし町昼間1893",
        "lat": 34.038668,
        "lng": 133.875493
    },
    {
        "code": "C136248900025",
        "type": 16002,
        "name": "三加茂中学校",
        "address": "三好郡東みよし町西庄字横手51",
        "lat": 34.042034,
        "lng": 133.938639
    }
]