[
    {
        "code": "A137220100016",
        "type": 16011,
        "name": "前田幼稚園",
        "address": "高松市前田東町788-1",
        "lat": 34.296237,
        "lng": 134.113888
    },
    {
        "code": "A137220100025",
        "type": 16011,
        "name": "川添幼稚園",
        "address": "高松市東山崎町601",
        "lat": 34.306791,
        "lng": 134.094218
    },
    {
        "code": "A137220100034",
        "type": 16011,
        "name": "三渓幼稚園",
        "address": "高松市三谷町2316-2",
        "lat": 34.276022,
        "lng": 134.07029
    },
    {
        "code": "A137220100043",
        "type": 16011,
        "name": "香西幼稚園",
        "address": "高松市香西西町59-1",
        "lat": 34.345908,
        "lng": 133.99673
    },
    {
        "code": "A137220100052",
        "type": 16011,
        "name": "一宮幼稚園",
        "address": "高松市一宮町1233-2",
        "lat": 34.291786,
        "lng": 134.024175
    },
    {
        "code": "A137220100061",
        "type": 16011,
        "name": "多肥幼稚園",
        "address": "高松市多肥上町990-2",
        "lat": 34.292392,
        "lng": 134.051674
    },
    {
        "code": "A137220100070",
        "type": 16011,
        "name": "川岡幼稚園",
        "address": "高松市川部町524-3",
        "lat": 34.268119,
        "lng": 134.008163
    },
    {
        "code": "A137220100089",
        "type": 16011,
        "name": "円座幼稚園",
        "address": "高松市円座町125-2",
        "lat": 34.285748,
        "lng": 134.003176
    },
    {
        "code": "A137220100098",
        "type": 16011,
        "name": "檀紙幼稚園",
        "address": "高松市御厩町776-1",
        "lat": 34.300935,
        "lng": 133.995117
    },
    {
        "code": "A137220100105",
        "type": 16011,
        "name": "弦打幼稚園",
        "address": "高松市鶴市町360",
        "lat": 34.327708,
        "lng": 134.005089
    },
    {
        "code": "A137220100114",
        "type": 16011,
        "name": "鬼無幼稚園",
        "address": "高松市鬼無町佐藤128-1",
        "lat": 34.328046,
        "lng": 133.992836
    },
    {
        "code": "A137220100123",
        "type": 16011,
        "name": "木太幼稚園",
        "address": "高松市木太町3901-1",
        "lat": 34.322384,
        "lng": 134.076558
    },
    {
        "code": "A137220100141",
        "type": 16011,
        "name": "春日幼稚園",
        "address": "高松市春日町744",
        "lat": 34.325753,
        "lng": 134.091351
    },
    {
        "code": "A137220100150",
        "type": 16011,
        "name": "木太北部幼稚園",
        "address": "高松市木太町2604-5",
        "lat": 34.336216,
        "lng": 134.07924
    },
    {
        "code": "A137220100169",
        "type": 16011,
        "name": "栗山幼稚園",
        "address": "高松市牟礼町牟礼3028",
        "lat": 34.350429,
        "lng": 134.126707
    },
    {
        "code": "A137220100178",
        "type": 16011,
        "name": "田井幼稚園",
        "address": "高松市牟礼町牟礼1243-2",
        "lat": 34.34436,
        "lng": 134.137112
    },
    {
        "code": "A137220100187",
        "type": 16011,
        "name": "大町幼稚園",
        "address": "高松市牟礼町大町605-1",
        "lat": 34.339882,
        "lng": 134.148387
    },
    {
        "code": "A137220100196",
        "type": 16011,
        "name": "大野幼稚園",
        "address": "高松市香川町大野1331-1",
        "lat": 34.267347,
        "lng": 134.024323
    },
    {
        "code": "A137220100212",
        "type": 16011,
        "name": "国分寺北部幼稚園",
        "address": "高松市国分寺町新居1870-2",
        "lat": 34.306976,
        "lng": 133.963484
    },
    {
        "code": "A137220100221",
        "type": 16011,
        "name": "国分寺南部幼稚園",
        "address": "高松市国分寺町福家甲3123-1",
        "lat": 34.285301,
        "lng": 133.961122
    },
    {
        "code": "A137320100014",
        "type": 16011,
        "name": "高松中央高校幼稚園",
        "address": "高松市松島町1-14-8",
        "lat": 34.339913,
        "lng": 134.060167
    },
    {
        "code": "A137320100023",
        "type": 16011,
        "name": "ときわ幼稚園",
        "address": "高松市飯田町138",
        "lat": 34.314811,
        "lng": 133.994908
    },
    {
        "code": "A137320100032",
        "type": 16011,
        "name": "マリア幼稚園",
        "address": "高松市多肥下町14-3",
        "lat": 34.299672,
        "lng": 134.050054
    },
    {
        "code": "A137320100041",
        "type": 16011,
        "name": "亀阜幼稚園",
        "address": "高松市宮脇町1-2-23",
        "lat": 34.338691,
        "lng": 134.03826
    },
    {
        "code": "A137320100050",
        "type": 16011,
        "name": "高松幼稚園",
        "address": "高松市亀岡町1-6",
        "lat": 34.337602,
        "lng": 134.042871
    },
    {
        "code": "A137320100069",
        "type": 16011,
        "name": "栗林幼稚園",
        "address": "高松市栗林町2-19-4",
        "lat": 34.33003,
        "lng": 134.05066
    },
    {
        "code": "A137320100078",
        "type": 16011,
        "name": "屋島教会幼稚園",
        "address": "高松市屋島西町1392-7",
        "lat": 34.345068,
        "lng": 134.095111
    },
    {
        "code": "A137320100087",
        "type": 16011,
        "name": "高松聖母幼稚園",
        "address": "高松市番町2-4-31",
        "lat": 34.343401,
        "lng": 134.044393
    },
    {
        "code": "A137320100096",
        "type": 16011,
        "name": "高松聖ヤコブ幼稚園",
        "address": "高松市西宝町2-3-14",
        "lat": 34.339083,
        "lng": 134.031197
    },
    {
        "code": "A137320100103",
        "type": 16011,
        "name": "二番丁幼稚園",
        "address": "高松市昭和町2-7-1",
        "lat": 34.343454,
        "lng": 134.031963
    },
    {
        "code": "A137320100112",
        "type": 16011,
        "name": "青空幼稚園",
        "address": "高松市三条町498",
        "lat": 34.318493,
        "lng": 134.045912
    },
    {
        "code": "A137320100121",
        "type": 16011,
        "name": "太田百華幼稚園",
        "address": "高松市太田上町932",
        "lat": 34.301491,
        "lng": 134.044068
    },
    {
        "code": "A137320100130",
        "type": 16011,
        "name": "光華幼稚園",
        "address": "高松市瓦町1-13-8",
        "lat": 34.340604,
        "lng": 134.05262
    },
    {
        "code": "A137320100149",
        "type": 16011,
        "name": "相愛幼稚園",
        "address": "高松市仏生山町甲546",
        "lat": 34.280096,
        "lng": 134.047224
    },
    {
        "code": "A137320100158",
        "type": 16011,
        "name": "愛育幼稚園",
        "address": "高松市西ﾊｾﾞ町310",
        "lat": 34.31905,
        "lng": 134.034394
    },
    {
        "code": "A137320100167",
        "type": 16011,
        "name": "らく楽寺井幼稚園",
        "address": "高松市寺井町1369-4",
        "lat": 34.279796,
        "lng": 134.02235
    },
    {
        "code": "A137320100176",
        "type": 16011,
        "name": "のぞみ幼稚園",
        "address": "高松市屋島中町30",
        "lat": 34.341346,
        "lng": 134.107993
    },
    {
        "code": "A137320100185",
        "type": 16011,
        "name": "桜町聖母幼稚園",
        "address": "高松市桜町1-8-13",
        "lat": 34.330575,
        "lng": 134.051343
    },
    {
        "code": "A137320100194",
        "type": 16011,
        "name": "勅使百華幼稚園",
        "address": "高松市勅使町955",
        "lat": 34.304491,
        "lng": 134.021805
    },
    {
        "code": "A137320100201",
        "type": 16011,
        "name": "くにとう幼稚園",
        "address": "高松市伏石町1611",
        "lat": 34.322628,
        "lng": 134.052716
    },
    {
        "code": "A137320100210",
        "type": 16011,
        "name": "やしま幼稚園",
        "address": "高松市屋島西町2477-4",
        "lat": 34.353795,
        "lng": 134.091105
    },
    {
        "code": "A137320100229",
        "type": 16011,
        "name": "つくし幼稚園",
        "address": "高松市高松町1711-7",
        "lat": 34.334052,
        "lng": 134.115115
    },
    {
        "code": "A137320100238",
        "type": 16011,
        "name": "まゆみ幼稚園",
        "address": "高松市檀紙町1541-4",
        "lat": 34.304479,
        "lng": 134.000141
    },
    {
        "code": "A237220100015",
        "type": 16013,
        "name": "下笠居こども園",
        "address": "高松市生島町335",
        "lat": 34.358506,
        "lng": 133.967534
    },
    {
        "code": "A237220100024",
        "type": 16013,
        "name": "はらこども園",
        "address": "高松市牟礼町原570-1",
        "lat": 34.328642,
        "lng": 134.156044
    },
    {
        "code": "A237220100033",
        "type": 16013,
        "name": "庵治こども園",
        "address": "高松市庵治町853-1",
        "lat": 34.385743,
        "lng": 134.13152
    },
    {
        "code": "A237220100042",
        "type": 16013,
        "name": "香南こども園",
        "address": "高松市香南町横井865-1",
        "lat": 34.24209,
        "lng": 134.005834
    },
    {
        "code": "A237220100051",
        "type": 16013,
        "name": "塩江こども園",
        "address": "高松市塩江町安原下第1887",
        "lat": 34.203808,
        "lng": 134.036838
    },
    {
        "code": "A237220100060",
        "type": 16013,
        "name": "川東こども園",
        "address": "高松市香川町川東上1987-4",
        "lat": 34.237752,
        "lng": 134.035134
    },
    {
        "code": "A237220100079",
        "type": 16013,
        "name": "林こども園",
        "address": "高松市林町1405-4",
        "lat": 34.301572,
        "lng": 134.07502
    },
    {
        "code": "A237220100088",
        "type": 16013,
        "name": "屋島こども園",
        "address": "高松市屋島西町1744-1",
        "lat": 34.342543,
        "lng": 134.099813
    },
    {
        "code": "A237220100097",
        "type": 16013,
        "name": "川島こども園",
        "address": "高松市川島東町253-4",
        "lat": 34.276778,
        "lng": 134.09149
    },
    {
        "code": "A237220100104",
        "type": 16013,
        "name": "浅野こども園",
        "address": "高松市香川町浅野816-1",
        "lat": 34.257824,
        "lng": 134.036941
    },
    {
        "code": "A237320100013",
        "type": 16013,
        "name": "サンシャインこどもの森",
        "address": "高松市上林町502-2",
        "lat": 34.292143,
        "lng": 134.066236
    },
    {
        "code": "A237320100022",
        "type": 16013,
        "name": "いずみこども園",
        "address": "高松市国分寺町国分2408",
        "lat": 34.303293,
        "lng": 133.949158
    },
    {
        "code": "A237320100031",
        "type": 16013,
        "name": "いずみこども園分園",
        "address": "高松市国分寺町新居281-1",
        "lat": 34.304324,
        "lng": 133.972461
    },
    {
        "code": "A237320100040",
        "type": 16013,
        "name": "高松東幼稚園",
        "address": "高松市春日町688",
        "lat": 34.32755,
        "lng": 134.087346
    },
    {
        "code": "A237320100059",
        "type": 16013,
        "name": "新田幼稚園",
        "address": "高松市新田町甲2630-1",
        "lat": 34.325418,
        "lng": 134.099019
    },
    {
        "code": "A237320100068",
        "type": 16013,
        "name": "和光こども園",
        "address": "高松市川部町1561-1",
        "lat": 34.268472,
        "lng": 134.00673
    },
    {
        "code": "A237320100077",
        "type": 16013,
        "name": "春日こども園",
        "address": "高松市春日町1287-1",
        "lat": 34.331458,
        "lng": 134.094442
    },
    {
        "code": "A237320100086",
        "type": 16013,
        "name": "花ノ宮こども園",
        "address": "高松市花ﾉ宮町1-10-22",
        "lat": 34.326545,
        "lng": 134.047877
    },
    {
        "code": "A237320100095",
        "type": 16013,
        "name": "中野保育所",
        "address": "高松市中野町27-5",
        "lat": 34.333463,
        "lng": 134.04506
    },
    {
        "code": "A237320100102",
        "type": 16013,
        "name": "カナン保育園",
        "address": "高松市仏生山町甲745-2",
        "lat": 34.279874,
        "lng": 134.042352
    },
    {
        "code": "A237320100111",
        "type": 16013,
        "name": "幼保連携型認定こども園すまいる",
        "address": "高松市三名町591-1",
        "lat": 34.293412,
        "lng": 134.035074
    },
    {
        "code": "A237320100120",
        "type": 16013,
        "name": "げんき･結愛･げんきこども園",
        "address": "高松市六条町604-7",
        "lat": 34.293704,
        "lng": 134.0789
    },
    {
        "code": "A237320100139",
        "type": 16013,
        "name": "カナン十河こども園",
        "address": "高松市十川西町546-1",
        "lat": 34.273551,
        "lng": 134.102375
    },
    {
        "code": "A237320100148",
        "type": 16013,
        "name": "高松和貴こども園",
        "address": "高松市林町2197-1",
        "lat": 34.307241,
        "lng": 134.078428
    },
    {
        "code": "A237320100157",
        "type": 16013,
        "name": "みらい学園",
        "address": "高松市木太町3429-3",
        "lat": 34.32643,
        "lng": 134.077556
    },
    {
        "code": "A237320100166",
        "type": 16013,
        "name": "西光寺保育所",
        "address": "高松市前田西町167-1",
        "lat": 34.300412,
        "lng": 134.115799
    },
    {
        "code": "A237320100175",
        "type": 16013,
        "name": "川添こども園",
        "address": "高松市下田井町52",
        "lat": 34.299517,
        "lng": 134.092276
    },
    {
        "code": "A237320100184",
        "type": 16013,
        "name": "円座百華こども園",
        "address": "高松市円座町1478-1",
        "lat": 34.284917,
        "lng": 134.010142
    },
    {
        "code": "A237320100193",
        "type": 16013,
        "name": "高松くりの木学舎",
        "address": "高松市花園町3-4-5",
        "lat": 34.333036,
        "lng": 134.055793
    },
    {
        "code": "B137110000018",
        "type": 16001,
        "name": "香川大学教育学部附属高松小学校",
        "address": "高松市番町5-1-55",
        "lat": 34.339327,
        "lng": 134.042252
    },
    {
        "code": "B137220100014",
        "type": 16001,
        "name": "新番丁小学校",
        "address": "高松市錦町2-14-1",
        "lat": 34.345852,
        "lng": 134.040814
    },
    {
        "code": "B137220100023",
        "type": 16001,
        "name": "亀阜小学校",
        "address": "高松市亀岡町10-1",
        "lat": 34.337882,
        "lng": 134.039724
    },
    {
        "code": "B137220100032",
        "type": 16001,
        "name": "亀阜小学校みねやま分校",
        "address": "高松市西宝町2-6-9",
        "lat": 34.339978,
        "lng": 134.030244
    },
    {
        "code": "B137220100041",
        "type": 16001,
        "name": "栗林小学校",
        "address": "高松市栗林町2-10-7",
        "lat": 34.330827,
        "lng": 134.050085
    },
    {
        "code": "B137220100050",
        "type": 16001,
        "name": "花園小学校",
        "address": "高松市花園町2-7-7",
        "lat": 34.333549,
        "lng": 134.057167
    },
    {
        "code": "B137220100069",
        "type": 16001,
        "name": "高松第一小学校",
        "address": "高松市松島町2-14-5",
        "lat": 34.338509,
        "lng": 134.062311
    },
    {
        "code": "B137220100078",
        "type": 16001,
        "name": "鶴尾小学校",
        "address": "高松市松並町636-1",
        "lat": 34.315384,
        "lng": 134.028197
    },
    {
        "code": "B137220100087",
        "type": 16001,
        "name": "太田小学校",
        "address": "高松市伏石町845-1",
        "lat": 34.312385,
        "lng": 134.051864
    },
    {
        "code": "B137220100096",
        "type": 16001,
        "name": "木太小学校",
        "address": "高松市木太町3480-1",
        "lat": 34.324912,
        "lng": 134.076666
    },
    {
        "code": "B137220100103",
        "type": 16001,
        "name": "古高松小学校",
        "address": "高松市高松町398",
        "lat": 34.332022,
        "lng": 134.10694
    },
    {
        "code": "B137220100112",
        "type": 16001,
        "name": "屋島小学校",
        "address": "高松市屋島西町1205-1",
        "lat": 34.347493,
        "lng": 134.100107
    },
    {
        "code": "B137220100121",
        "type": 16001,
        "name": "前田小学校",
        "address": "高松市前田東町819-3",
        "lat": 34.295915,
        "lng": 134.112996
    },
    {
        "code": "B137220100130",
        "type": 16001,
        "name": "川添小学校",
        "address": "高松市東山崎町207-1",
        "lat": 34.306136,
        "lng": 134.092971
    },
    {
        "code": "B137220100149",
        "type": 16001,
        "name": "林小学校",
        "address": "高松市林町1108-1",
        "lat": 34.30147,
        "lng": 134.07014
    },
    {
        "code": "B137220100158",
        "type": 16001,
        "name": "三渓小学校",
        "address": "高松市三谷町2173-1",
        "lat": 34.273695,
        "lng": 134.068807
    },
    {
        "code": "B137220100167",
        "type": 16001,
        "name": "仏生山小学校",
        "address": "高松市仏生山町甲2461",
        "lat": 34.274444,
        "lng": 134.047726
    },
    {
        "code": "B137220100176",
        "type": 16001,
        "name": "香西小学校",
        "address": "高松市香西南町703-1",
        "lat": 34.344992,
        "lng": 133.998144
    },
    {
        "code": "B137220100185",
        "type": 16001,
        "name": "一宮小学校",
        "address": "高松市一宮町672-1",
        "lat": 34.291081,
        "lng": 134.024505
    },
    {
        "code": "B137220100194",
        "type": 16001,
        "name": "多肥小学校",
        "address": "高松市多肥上町902-2",
        "lat": 34.292137,
        "lng": 134.052838
    },
    {
        "code": "B137220100201",
        "type": 16001,
        "name": "川岡小学校",
        "address": "高松市川部町1552",
        "lat": 34.267361,
        "lng": 134.007008
    },
    {
        "code": "B137220100210",
        "type": 16001,
        "name": "円座小学校",
        "address": "高松市円座町1630-2",
        "lat": 34.28472,
        "lng": 134.004285
    },
    {
        "code": "B137220100229",
        "type": 16001,
        "name": "檀紙小学校",
        "address": "高松市御厩町816",
        "lat": 34.299941,
        "lng": 133.994006
    },
    {
        "code": "B137220100238",
        "type": 16001,
        "name": "弦打小学校",
        "address": "高松市鶴市町374-1",
        "lat": 34.328577,
        "lng": 134.004809
    },
    {
        "code": "B137220100247",
        "type": 16001,
        "name": "鬼無小学校",
        "address": "高松市鬼無町佐藤607-1",
        "lat": 34.327049,
        "lng": 133.988255
    },
    {
        "code": "B137220100256",
        "type": 16001,
        "name": "下笠居小学校",
        "address": "高松市生島町345",
        "lat": 34.358184,
        "lng": 133.968259
    },
    {
        "code": "B137220100265",
        "type": 16001,
        "name": "女木小学校",
        "address": "高松市女木町236-2",
        "lat": 34.391876,
        "lng": 134.053444
    },
    {
        "code": "B137220100274",
        "type": 16001,
        "name": "男木小学校",
        "address": "高松市男木町165",
        "lat": 34.420133,
        "lng": 134.056833
    },
    {
        "code": "B137220100283",
        "type": 16001,
        "name": "川島小学校",
        "address": "高松市川島東町864-1",
        "lat": 34.275473,
        "lng": 134.089082
    },
    {
        "code": "B137220100292",
        "type": 16001,
        "name": "十河小学校",
        "address": "高松市十川西町366-5",
        "lat": 34.274862,
        "lng": 134.102414
    },
    {
        "code": "B137220100309",
        "type": 16001,
        "name": "東植田小学校",
        "address": "高松市東植田町2008",
        "lat": 34.238895,
        "lng": 134.097831
    },
    {
        "code": "B137220100318",
        "type": 16001,
        "name": "東植田小学校菅沢分校",
        "address": "高松市菅沢町339",
        "lat": 34.193651,
        "lng": 134.098305
    },
    {
        "code": "B137220100327",
        "type": 16001,
        "name": "植田小学校",
        "address": "高松市西植田町2337",
        "lat": 34.23895,
        "lng": 134.078862
    },
    {
        "code": "B137220100336",
        "type": 16001,
        "name": "中央小学校",
        "address": "高松市松縄町1138",
        "lat": 34.312051,
        "lng": 134.062629
    },
    {
        "code": "B137220100345",
        "type": 16001,
        "name": "太田南小学校",
        "address": "高松市太田下町1823-1",
        "lat": 34.30608,
        "lng": 134.044532
    },
    {
        "code": "B137220100354",
        "type": 16001,
        "name": "木太南小学校",
        "address": "高松市木太町1530-1",
        "lat": 34.320606,
        "lng": 134.074389
    },
    {
        "code": "B137220100363",
        "type": 16001,
        "name": "古高松南小学校",
        "address": "高松市新田町甲2605",
        "lat": 34.327189,
        "lng": 134.098858
    },
    {
        "code": "B137220100372",
        "type": 16001,
        "name": "屋島東小学校",
        "address": "高松市屋島東町942-1",
        "lat": 34.354131,
        "lng": 134.116356
    },
    {
        "code": "B137220100381",
        "type": 16001,
        "name": "屋島西小学校",
        "address": "高松市屋島西町2469",
        "lat": 34.351464,
        "lng": 134.09058
    },
    {
        "code": "B137220100390",
        "type": 16001,
        "name": "木太北部小学校",
        "address": "高松市木太町2613",
        "lat": 34.335994,
        "lng": 134.08011
    },
    {
        "code": "B137220100407",
        "type": 16001,
        "name": "牟礼小学校",
        "address": "高松市牟礼町大町1560",
        "lat": 34.33578,
        "lng": 134.141906
    },
    {
        "code": "B137220100416",
        "type": 16001,
        "name": "牟礼北小学校",
        "address": "高松市牟礼町牟礼2900-1",
        "lat": 34.350579,
        "lng": 134.125843
    },
    {
        "code": "B137220100425",
        "type": 16001,
        "name": "牟礼南小学校",
        "address": "高松市牟礼町大町1115-1",
        "lat": 34.333523,
        "lng": 134.152843
    },
    {
        "code": "B137220100434",
        "type": 16001,
        "name": "庵治小学校",
        "address": "高松市庵治町790-1",
        "lat": 34.384602,
        "lng": 134.131557
    },
    {
        "code": "B137220100443",
        "type": 16001,
        "name": "庵治第二小学校",
        "address": "高松市庵治町6034-1",
        "lat": 34.404478,
        "lng": 134.105435
    },
    {
        "code": "B137220100452",
        "type": 16001,
        "name": "塩江小学校",
        "address": "高松市塩江安原上231-1",
        "lat": 34.170437,
        "lng": 134.083127
    },
    {
        "code": "B137220100461",
        "type": 16001,
        "name": "大野小学校",
        "address": "高松市香川町大野1045-1",
        "lat": 34.26682,
        "lng": 134.026489
    },
    {
        "code": "B137220100470",
        "type": 16001,
        "name": "浅野小学校",
        "address": "高松市香川町浅野3088",
        "lat": 34.260007,
        "lng": 134.041625
    },
    {
        "code": "B137220100489",
        "type": 16001,
        "name": "川東小学校",
        "address": "高松市香川町川東上1865-8",
        "lat": 34.24126,
        "lng": 134.035669
    },
    {
        "code": "B137220100498",
        "type": 16001,
        "name": "香南小学校",
        "address": "高松市香南町横井1008",
        "lat": 34.240869,
        "lng": 134.008768
    },
    {
        "code": "B137220100504",
        "type": 16001,
        "name": "国分寺北部小学校",
        "address": "高松市国分寺町新居1880",
        "lat": 34.306225,
        "lng": 133.963358
    },
    {
        "code": "B137220100513",
        "type": 16001,
        "name": "国分寺南部小学校",
        "address": "高松市国分寺町福家甲3005",
        "lat": 34.283615,
        "lng": 133.961651
    },
    {
        "code": "C137110000016",
        "type": 16002,
        "name": "香川大学教育学部附属高松中学校",
        "address": "高松市鹿角町394",
        "lat": 34.299386,
        "lng": 134.032449
    },
    {
        "code": "C137220100012",
        "type": 16002,
        "name": "高松北中学校",
        "address": "高松市牟礼町牟礼1583-1",
        "lat": 34.345028,
        "lng": 134.143616
    },
    {
        "code": "C137220100021",
        "type": 16002,
        "name": "桜町中学校",
        "address": "高松市桜町2-12-4",
        "lat": 34.3263,
        "lng": 134.051946
    },
    {
        "code": "C137220100030",
        "type": 16002,
        "name": "紫雲中学校",
        "address": "高松市紫雲町8-25",
        "lat": 34.34091,
        "lng": 134.035002
    },
    {
        "code": "C137220100049",
        "type": 16002,
        "name": "紫雲中学校みねやま分校",
        "address": "高松市西宝町2-6-9",
        "lat": 34.340185,
        "lng": 134.030091
    },
    {
        "code": "C137220100058",
        "type": 16002,
        "name": "玉藻中学校",
        "address": "高松市上福岡町714-1",
        "lat": 34.333716,
        "lng": 134.06675
    },
    {
        "code": "C137220100067",
        "type": 16002,
        "name": "高松第一中学校",
        "address": "高松市松島町2-14-5",
        "lat": 34.338941,
        "lng": 134.062311
    },
    {
        "code": "C137220100085",
        "type": 16002,
        "name": "屋島中学校",
        "address": "高松市屋島中町295",
        "lat": 34.341132,
        "lng": 134.105051
    },
    {
        "code": "C137220100094",
        "type": 16002,
        "name": "協和中学校",
        "address": "高松市元山町88-2",
        "lat": 34.307136,
        "lng": 134.085749
    },
    {
        "code": "C137220100101",
        "type": 16002,
        "name": "龍雲中学校",
        "address": "高松市出作町331-2",
        "lat": 34.282693,
        "lng": 134.050421
    },
    {
        "code": "C137220100110",
        "type": 16002,
        "name": "勝賀中学校",
        "address": "高松市香西南町565",
        "lat": 34.342298,
        "lng": 133.999282
    },
    {
        "code": "C137220100129",
        "type": 16002,
        "name": "一宮中学校",
        "address": "高松市一宮町1185-1",
        "lat": 34.29272,
        "lng": 134.025088
    },
    {
        "code": "C137220100138",
        "type": 16002,
        "name": "香東中学校",
        "address": "高松市円座町771",
        "lat": 34.29483,
        "lng": 134.009172
    },
    {
        "code": "C137220100147",
        "type": 16002,
        "name": "下笠居中学校",
        "address": "高松市生島町372-1",
        "lat": 34.357267,
        "lng": 133.966648
    },
    {
        "code": "C137220100156",
        "type": 16002,
        "name": "男木中学校",
        "address": "高松市男木町165",
        "lat": 34.420094,
        "lng": 134.056833
    },
    {
        "code": "C137220100165",
        "type": 16002,
        "name": "山田中学校",
        "address": "高松市川島東町1257-1",
        "lat": 34.267335,
        "lng": 134.092776
    },
    {
        "code": "C137220100174",
        "type": 16002,
        "name": "太田中学校",
        "address": "高松市太田下町1800",
        "lat": 34.305941,
        "lng": 134.045976
    },
    {
        "code": "C137220100183",
        "type": 16002,
        "name": "古高松中学校",
        "address": "高松市新田町甲190-1",
        "lat": 34.331994,
        "lng": 134.103135
    },
    {
        "code": "C137220100192",
        "type": 16002,
        "name": "木太中学校",
        "address": "高松市木太町5059-3",
        "lat": 34.314071,
        "lng": 134.067405
    },
    {
        "code": "C137220100209",
        "type": 16002,
        "name": "牟礼中学校",
        "address": "高松市牟礼町牟礼46-2",
        "lat": 34.339382,
        "lng": 134.143469
    },
    {
        "code": "C137220100218",
        "type": 16002,
        "name": "庵治中学校",
        "address": "高松市庵治町691-1",
        "lat": 34.38343,
        "lng": 134.131068
    },
    {
        "code": "C137220100227",
        "type": 16002,
        "name": "塩江中学校",
        "address": "高松市塩江町安原上231-1",
        "lat": 34.180896,
        "lng": 134.074144
    },
    {
        "code": "C137220100236",
        "type": 16002,
        "name": "香川第一中学校",
        "address": "高松市香川町浅野1188",
        "lat": 34.253367,
        "lng": 134.031079
    },
    {
        "code": "C137220100245",
        "type": 16002,
        "name": "香南中学校",
        "address": "高松市香南町横井801",
        "lat": 34.243299,
        "lng": 134.008231
    },
    {
        "code": "C137220100254",
        "type": 16002,
        "name": "国分寺中学校",
        "address": "高松市国分寺町新居1131-1",
        "lat": 34.297024,
        "lng": 133.964433
    },
    {
        "code": "C137320100010",
        "type": 16002,
        "name": "香川県明善中学校",
        "address": "高松市亀岡町1-10",
        "lat": 34.337316,
        "lng": 134.042613
    },
    {
        "code": "C137320100029",
        "type": 16002,
        "name": "香川県大手前高松中学校",
        "address": "高松市室新町1166",
        "lat": 34.326623,
        "lng": 134.034258
    },
    {
        "code": "C137320100038",
        "type": 16002,
        "name": "香川誠陵中学校",
        "address": "高松市鬼無町佐料469-1",
        "lat": 34.331271,
        "lng": 133.986284
    },
    {
        "code": "D137220100010",
        "type": 16004,
        "name": "高松高等学校",
        "address": "高松市番町3-1-1",
        "lat": 34.341715,
        "lng": 134.04439
    },
    {
        "code": "D137220100029",
        "type": 16004,
        "name": "高松工芸高等学校",
        "address": "高松市番町2-9-30",
        "lat": 34.344104,
        "lng": 134.042029
    },
    {
        "code": "D137220100038",
        "type": 16004,
        "name": "高松商業高等学校",
        "address": "高松市松島町1-18-54",
        "lat": 34.338632,
        "lng": 134.059945
    },
    {
        "code": "D137220100047",
        "type": 16004,
        "name": "高松東高等学校",
        "address": "高松市前田東町690-1",
        "lat": 34.291721,
        "lng": 134.111746
    },
    {
        "code": "D137220100056",
        "type": 16004,
        "name": "高松南高等学校",
        "address": "高松市一宮町531",
        "lat": 34.286609,
        "lng": 134.024005
    },
    {
        "code": "D137220100065",
        "type": 16004,
        "name": "高松西高等学校",
        "address": "高松市鬼無町山口257-1",
        "lat": 34.326577,
        "lng": 133.981701
    },
    {
        "code": "D137220100074",
        "type": 16004,
        "name": "高松北高等学校",
        "address": "高松市牟礼町牟礼1583-1",
        "lat": 34.34498,
        "lng": 134.143616
    },
    {
        "code": "D137220100083",
        "type": 16004,
        "name": "香川中央高等学校",
        "address": "高松市香川町大野2001",
        "lat": 34.267557,
        "lng": 134.018092
    },
    {
        "code": "D137220100092",
        "type": 16004,
        "name": "高松桜井高等学校",
        "address": "高松市多肥上町1250",
        "lat": 34.295664,
        "lng": 134.056643
    },
    {
        "code": "D137220100109",
        "type": 16004,
        "name": "高松第一高等学校",
        "address": "高松市桜町2-5-10",
        "lat": 34.327994,
        "lng": 134.052418
    },
    {
        "code": "D137320100018",
        "type": 16004,
        "name": "英明高等学校",
        "address": "高松市亀岡町1-10",
        "lat": 34.337271,
        "lng": 134.042613
    },
    {
        "code": "D137320100027",
        "type": 16004,
        "name": "高松中央高等学校",
        "address": "高松市松島町1-14-8",
        "lat": 34.339688,
        "lng": 134.060889
    },
    {
        "code": "D137320100036",
        "type": 16004,
        "name": "大手前高松高等学校",
        "address": "高松市室新町1166",
        "lat": 34.326578,
        "lng": 134.034252
    },
    {
        "code": "D137320100045",
        "type": 16004,
        "name": "香川誠陵高等学校",
        "address": "高松市鬼無町佐料469-1",
        "lat": 34.331326,
        "lng": 133.986228
    },
    {
        "code": "D137320100054",
        "type": 16004,
        "name": "穴吹学園高等学校",
        "address": "高松市番町2-4-14",
        "lat": 34.343096,
        "lng": 134.04436
    },
    {
        "code": "E137220100017",
        "type": 16012,
        "name": "香川県立盲学校",
        "address": "高松市扇町2-9-12",
        "lat": 34.345131,
        "lng": 134.034974
    },
    {
        "code": "E137220100026",
        "type": 16012,
        "name": "香川県立聾学校",
        "address": "高松市太田上町513-1",
        "lat": 34.29747,
        "lng": 134.041616
    },
    {
        "code": "E137220100035",
        "type": 16012,
        "name": "香川中部養護学校",
        "address": "高松市田村町784",
        "lat": 34.305385,
        "lng": 134.031365
    },
    {
        "code": "E137220100044",
        "type": 16012,
        "name": "高松養護学校",
        "address": "高松市田村町1098-1",
        "lat": 34.305913,
        "lng": 134.03156
    },
    {
        "code": "F137110110310",
        "type": 16007,
        "name": "香川大学",
        "address": "高松市幸町1-1",
        "lat": 34.342696,
        "lng": 134.038218
    },
    {
        "code": "F137210110327",
        "type": 16007,
        "name": "香川県立保健医療大学",
        "address": "高松市牟礼町原281-1",
        "lat": 34.32198,
        "lng": 134.158408
    },
    {
        "code": "F137310110343",
        "type": 16007,
        "name": "高松大学",
        "address": "高松市春日町960",
        "lat": 34.328897,
        "lng": 134.087626
    },
    {
        "code": "F237310110360",
        "type": 16006,
        "name": "高松短期大学",
        "address": "高松市春日町960",
        "lat": 34.328022,
        "lng": 134.087304
    },
    {
        "code": "F237310111939",
        "type": 16006,
        "name": "せとうち観光専門職短期大学",
        "address": "高松市屋島西町2366-1",
        "lat": 34.346618,
        "lng": 134.085433
    },
    {
        "code": "G137110110372",
        "type": 16005,
        "name": "香川高等専門学校",
        "address": "高松市勅使町355",
        "lat": 34.311085,
        "lng": 134.011051
    },
    {
        "code": "H137320100019",
        "type": 16016,
        "name": "シャルムドレスメーカー専門学校",
        "address": "高松市常盤町2-9-7",
        "lat": 34.342735,
        "lng": 134.046812
    },
    {
        "code": "H137320100028",
        "type": 16016,
        "name": "高松市医師会看護専門学校",
        "address": "高松市松島町1-16-20",
        "lat": 34.339291,
        "lng": 134.059617
    },
    {
        "code": "H137320100037",
        "type": 16016,
        "name": "香川県歯科医療専門学校",
        "address": "高松市錦町2-8-37",
        "lat": 34.347229,
        "lng": 134.04294
    },
    {
        "code": "H137320100046",
        "type": 16016,
        "name": "吉田愛服飾専門学校",
        "address": "高松市番町2-3-11",
        "lat": 34.343707,
        "lng": 134.044312
    },
    {
        "code": "H137320100055",
        "type": 16016,
        "name": "キッス調理技術専門学校",
        "address": "高松市天神前9-25",
        "lat": 34.33861,
        "lng": 134.046479
    },
    {
        "code": "H137320100064",
        "type": 16016,
        "name": "香川県美容学校",
        "address": "高松市松縄町1091-3",
        "lat": 34.31626,
        "lng": 134.063521
    },
    {
        "code": "H137320100073",
        "type": 16016,
        "name": "穴吹コンピュータカレッジ",
        "address": "高松市番町2-4-14",
        "lat": 34.343092,
        "lng": 134.044317
    },
    {
        "code": "H137320100082",
        "type": 16016,
        "name": "穴吹デザインカレッジ",
        "address": "高松市錦町1-3-5",
        "lat": 34.349163,
        "lng": 134.044834
    },
    {
        "code": "H137320100091",
        "type": 16016,
        "name": "穴吹ビジネスカレッジ",
        "address": "高松市番町2-4-14",
        "lat": 34.343027,
        "lng": 134.044302
    },
    {
        "code": "H137320100108",
        "type": 16016,
        "name": "四国総合ビジネス専門学校",
        "address": "高松市松並町1026-1",
        "lat": 34.320998,
        "lng": 134.029533
    },
    {
        "code": "H137320100117",
        "type": 16016,
        "name": "四国医療福祉専門学校",
        "address": "高松市上之町2-12-30",
        "lat": 34.319381,
        "lng": 134.048
    },
    {
        "code": "H137320100126",
        "type": 16016,
        "name": "穴吹ビューティカレッジ",
        "address": "高松市錦町1-3-5",
        "lat": 34.349295,
        "lng": 134.044843
    },
    {
        "code": "H137320100135",
        "type": 16016,
        "name": "穴吹リハビリテーションカレッジ",
        "address": "高松市上天神町722-1",
        "lat": 34.306743,
        "lng": 134.036968
    },
    {
        "code": "H137320100144",
        "type": 16016,
        "name": "穴吹工科カレッジ",
        "address": "高松市上天神町722-1",
        "lat": 34.306869,
        "lng": 134.036926
    },
    {
        "code": "H137320100153",
        "type": 16016,
        "name": "穴吹パティシエ福祉カレッジ",
        "address": "高松市西の丸町14-10",
        "lat": 34.348912,
        "lng": 134.046912
    },
    {
        "code": "H137320100162",
        "type": 16016,
        "name": "高松高等予備校",
        "address": "高松市観光町547-1",
        "lat": 34.334561,
        "lng": 134.063373
    },
    {
        "code": "H137320100171",
        "type": 16016,
        "name": "穴吹動物看護カレッジ",
        "address": "高松市塩屋町6-2",
        "lat": 34.341646,
        "lng": 134.054576
    },
    {
        "code": "H137320100180",
        "type": 16016,
        "name": "穴吹医療大学校",
        "address": "高松市錦町1-22-23",
        "lat": 34.349614,
        "lng": 134.044679
    },
    {
        "code": "H137320100199",
        "type": 16016,
        "name": "守里会看護福祉専門学校",
        "address": "高松市香西本町17-9",
        "lat": 34.350094,
        "lng": 134.003893
    },
    {
        "code": "H237320100018",
        "type": 16015,
        "name": "島田芸術舞踊学校",
        "address": "高松市塩上町1-5-7",
        "lat": 34.337488,
        "lng": 134.054023
    },
    {
        "code": "H237320100027",
        "type": 16015,
        "name": "久保料理学院",
        "address": "高松市浜ﾉ町60-55-608",
        "lat": 34.351011,
        "lng": 134.040115
    },
    {
        "code": "H237320100036",
        "type": 16015,
        "name": "香川編物学院",
        "address": "高松市田町4-28",
        "lat": 34.335963,
        "lng": 134.048464
    }
]