[
    {
        "code": "A137220700010",
        "type": 16011,
        "name": "本町幼稚園",
        "address": "東かがわ市松原170-6",
        "lat": 34.24868,
        "lng": 134.364678
    },
    {
        "code": "A237220700019",
        "type": 16013,
        "name": "大内こども園",
        "address": "東かがわ市中筋367-1",
        "lat": 34.242842,
        "lng": 134.322959
    },
    {
        "code": "A237220700028",
        "type": 16013,
        "name": "引田こども園",
        "address": "東かがわ市引田545‐6",
        "lat": 34.220942,
        "lng": 134.403147
    },
    {
        "code": "A237220700037",
        "type": 16013,
        "name": "丹生こども園",
        "address": "東かがわ市町田182‐1",
        "lat": 34.25035,
        "lng": 134.30104
    },
    {
        "code": "A237320700017",
        "type": 16013,
        "name": "けいあいこども園",
        "address": "東かがわ市白鳥647-1",
        "lat": 34.238974,
        "lng": 134.348377
    },
    {
        "code": "B137220700018",
        "type": 16001,
        "name": "引田小学校",
        "address": "東かがわ市引田545-1",
        "lat": 34.222424,
        "lng": 134.403725
    },
    {
        "code": "B137220700027",
        "type": 16001,
        "name": "白鳥小学校",
        "address": "東かがわ市白鳥757-1",
        "lat": 34.240566,
        "lng": 134.348224
    },
    {
        "code": "B137220700036",
        "type": 16001,
        "name": "大内小学校",
        "address": "東かがわ市西村1510",
        "lat": 34.248678,
        "lng": 134.322331
    },
    {
        "code": "C137220700016",
        "type": 16002,
        "name": "引田中学校",
        "address": "東かがわ市引田545-1",
        "lat": 34.222969,
        "lng": 134.404058
    },
    {
        "code": "C137220700025",
        "type": 16002,
        "name": "白鳥中学校",
        "address": "東かがわ市白鳥757-1",
        "lat": 34.237623,
        "lng": 134.353168
    },
    {
        "code": "C137220700034",
        "type": 16002,
        "name": "大川中学校",
        "address": "東かがわ市西村1510",
        "lat": 34.24912,
        "lng": 134.322782
    },
    {
        "code": "D137220700014",
        "type": 16004,
        "name": "三本松高等学校",
        "address": "東かがわ市三本松1500-1",
        "lat": 34.248121,
        "lng": 134.336253
    }
]