[
    {
        "code": "A137232400018",
        "type": 16011,
        "name": "安田幼稚園",
        "address": "小豆郡小豆島町安田甲491-2",
        "lat": 34.483707,
        "lng": 134.318837
    },
    {
        "code": "A137232400027",
        "type": 16011,
        "name": "苗羽幼稚園",
        "address": "小豆郡小豆島町苗羽甲2277",
        "lat": 34.469566,
        "lng": 134.31706
    },
    {
        "code": "A137232400036",
        "type": 16011,
        "name": "旭幼稚園",
        "address": "小豆郡小豆島町橘甲450-1",
        "lat": 34.491695,
        "lng": 134.34174
    },
    {
        "code": "A137232400045",
        "type": 16011,
        "name": "福田幼稚園",
        "address": "小豆郡小豆島町福田甲389",
        "lat": 34.542547,
        "lng": 134.341335
    },
    {
        "code": "A137232400054",
        "type": 16011,
        "name": "池田幼稚園",
        "address": "小豆郡小豆島町蒲生甲1805-1",
        "lat": 34.483578,
        "lng": 134.211279
    },
    {
        "code": "A137232400063",
        "type": 16011,
        "name": "星城幼稚園",
        "address": "小豆郡小豆島町草壁本町419-1",
        "lat": 34.48347,
        "lng": 134.301875
    },
    {
        "code": "A237332400015",
        "type": 16013,
        "name": "せいけんじこども園",
        "address": "小豆郡小豆島町草壁本町395",
        "lat": 34.484935,
        "lng": 134.303143
    },
    {
        "code": "B137232400016",
        "type": 16001,
        "name": "星城小学校",
        "address": "小豆郡小豆島町草壁本町632-1",
        "lat": 34.481342,
        "lng": 134.300947
    },
    {
        "code": "B137232400025",
        "type": 16001,
        "name": "安田小学校",
        "address": "小豆郡小豆島町安田甲472-1",
        "lat": 34.484342,
        "lng": 134.318585
    },
    {
        "code": "B137232400034",
        "type": 16001,
        "name": "苗羽小学校",
        "address": "小豆郡小豆島町苗羽甲1371-1",
        "lat": 34.470177,
        "lng": 134.319446
    },
    {
        "code": "B137232400043",
        "type": 16001,
        "name": "池田小学校",
        "address": "小豆郡小豆島町池田1760",
        "lat": 34.479618,
        "lng": 134.236565
    },
    {
        "code": "C137232400014",
        "type": 16002,
        "name": "小豆島中学校",
        "address": "小豆郡小豆島町片城甲44-1",
        "lat": 34.480171,
        "lng": 134.310624
    },
    {
        "code": "D137232400012",
        "type": 16004,
        "name": "小豆島中央高等学校",
        "address": "小豆郡小豆島町蒲生甲1001",
        "lat": 34.484731,
        "lng": 134.305919
    },
    {
        "code": "H237332400010",
        "type": 16015,
        "name": "小豆島准看護学院",
        "address": "小豆郡小豆島町片城甲44-341",
        "lat": 34.480132,
        "lng": 134.308602
    }
]