[
    {
        "code": "A138220400012",
        "type": 16011,
        "name": "神山幼稚園",
        "address": "八幡浜市五反田1-耕地173",
        "lat": 33.44734,
        "lng": 132.437101
    },
    {
        "code": "A138220400021",
        "type": 16011,
        "name": "保内幼稚園",
        "address": "八幡浜市保内町宮内4-耕地50",
        "lat": 33.492352,
        "lng": 132.395684
    },
    {
        "code": "A138320400010",
        "type": 16011,
        "name": "八幡浜幼稚園",
        "address": "八幡浜市本町113",
        "lat": 33.45987,
        "lng": 132.425718
    },
    {
        "code": "A138320400029",
        "type": 16011,
        "name": "八幡浜聖母幼稚園",
        "address": "八幡浜市昭和通り1182-7",
        "lat": 33.45773,
        "lng": 132.429881
    },
    {
        "code": "A138320400038",
        "type": 16011,
        "name": "日土幼稚園",
        "address": "八幡浜市日土町1-耕地253-3",
        "lat": 33.494187,
        "lng": 132.42272
    },
    {
        "code": "B138220400010",
        "type": 16001,
        "name": "松蔭小学校",
        "address": "八幡浜市広瀬3-4-3",
        "lat": 33.454598,
        "lng": 132.426944
    },
    {
        "code": "B138220400029",
        "type": 16001,
        "name": "白浜小学校",
        "address": "八幡浜市向灘3063",
        "lat": 33.465542,
        "lng": 132.423333
    },
    {
        "code": "B138220400038",
        "type": 16001,
        "name": "江戸岡小学校",
        "address": "八幡浜市江戸岡1-7-1",
        "lat": 33.457543,
        "lng": 132.433971
    },
    {
        "code": "B138220400047",
        "type": 16001,
        "name": "神山小学校",
        "address": "八幡浜市五反田1-耕地154",
        "lat": 33.447377,
        "lng": 132.437555
    },
    {
        "code": "B138220400056",
        "type": 16001,
        "name": "千丈小学校",
        "address": "八幡浜市郷4-1",
        "lat": 33.464681,
        "lng": 132.451414
    },
    {
        "code": "B138220400065",
        "type": 16001,
        "name": "日土小学校",
        "address": "八幡浜市日土町2-851",
        "lat": 33.500733,
        "lng": 132.427887
    },
    {
        "code": "B138220400074",
        "type": 16001,
        "name": "真穴小学校",
        "address": "八幡浜市真網代戊162",
        "lat": 33.403298,
        "lng": 132.392032
    },
    {
        "code": "B138220400083",
        "type": 16001,
        "name": "川上小学校",
        "address": "八幡浜市川上町川名津甲305",
        "lat": 33.42299,
        "lng": 132.407613
    },
    {
        "code": "B138220400092",
        "type": 16001,
        "name": "双岩小学校",
        "address": "八幡浜市若山3-167",
        "lat": 33.420575,
        "lng": 132.458914
    },
    {
        "code": "B138220400109",
        "type": 16001,
        "name": "喜須来小学校",
        "address": "八幡浜市保内町喜木2-224",
        "lat": 33.486895,
        "lng": 132.411611
    },
    {
        "code": "B138220400118",
        "type": 16001,
        "name": "川之石小学校",
        "address": "八幡浜市保内町川之石3-300",
        "lat": 33.476218,
        "lng": 132.393937
    },
    {
        "code": "B138220400127",
        "type": 16001,
        "name": "宮内小学校",
        "address": "八幡浜市保内町宮内5-46",
        "lat": 33.491538,
        "lng": 132.396719
    },
    {
        "code": "C138220400018",
        "type": 16002,
        "name": "愛宕中学校",
        "address": "八幡浜市字西海寺325",
        "lat": 33.460764,
        "lng": 132.428305
    },
    {
        "code": "C138220400027",
        "type": 16002,
        "name": "八代中学校",
        "address": "八幡浜市八代1-2-1",
        "lat": 33.450266,
        "lng": 132.430777
    },
    {
        "code": "C138220400036",
        "type": 16002,
        "name": "松柏中学校",
        "address": "八幡浜市松柏甲734-1",
        "lat": 33.464653,
        "lng": 132.445803
    },
    {
        "code": "C138220400054",
        "type": 16002,
        "name": "保内中学校",
        "address": "八幡浜市保内町川之石1-243-1",
        "lat": 33.47943,
        "lng": 132.39672
    },
    {
        "code": "D138220400016",
        "type": 16004,
        "name": "八幡浜高等学校",
        "address": "八幡浜市松柏丙654",
        "lat": 33.462348,
        "lng": 132.439832
    },
    {
        "code": "D138220400025",
        "type": 16004,
        "name": "八幡浜工業高等学校",
        "address": "八幡浜市古町2-3-1",
        "lat": 33.452015,
        "lng": 132.431305
    },
    {
        "code": "D138220400034",
        "type": 16004,
        "name": "川之石高等学校",
        "address": "八幡浜市保内町川之石1-112",
        "lat": 33.478085,
        "lng": 132.399307
    }
]