[
    {
        "code": "A138221400010",
        "type": 16011,
        "name": "野村幼稚園",
        "address": "西予市野村町野村12576-1",
        "lat": 33.376822,
        "lng": 132.644665
    },
    {
        "code": "A138221400029",
        "type": 16011,
        "name": "惣川幼稚園",
        "address": "西予市野村町惣川3888",
        "lat": 33.480771,
        "lng": 132.796395
    },
    {
        "code": "A138321400018",
        "type": 16011,
        "name": "三瓶幼稚園",
        "address": "西予市三瓶町津布理40",
        "lat": 33.377518,
        "lng": 132.424338
    },
    {
        "code": "A138321400027",
        "type": 16011,
        "name": "卯之町幼稚園",
        "address": "西予市宇和町卯之町3-104-1",
        "lat": 33.363878,
        "lng": 132.514145
    },
    {
        "code": "B138221400018",
        "type": 16001,
        "name": "明浜小学校",
        "address": "西予市明浜町俵津8-耕地316-1",
        "lat": 33.324995,
        "lng": 132.487924
    },
    {
        "code": "B138221400036",
        "type": 16001,
        "name": "中川小学校",
        "address": "西予市宇和町田苗真土1614-1",
        "lat": 33.39897,
        "lng": 132.506559
    },
    {
        "code": "B138221400045",
        "type": 16001,
        "name": "石城小学校",
        "address": "西予市宇和町西山田164-1",
        "lat": 33.384303,
        "lng": 132.474597
    },
    {
        "code": "B138221400054",
        "type": 16001,
        "name": "宇和町小学校",
        "address": "西予市宇和町卯之町2-145",
        "lat": 33.366512,
        "lng": 132.510776
    },
    {
        "code": "B138221400063",
        "type": 16001,
        "name": "皆田小学校",
        "address": "西予市宇和町皆田1115-1",
        "lat": 33.345812,
        "lng": 132.537044
    },
    {
        "code": "B138221400072",
        "type": 16001,
        "name": "田之筋小学校",
        "address": "西予市宇和町新城982-1",
        "lat": 33.383892,
        "lng": 132.532536
    },
    {
        "code": "B138221400081",
        "type": 16001,
        "name": "野村小学校",
        "address": "西予市野村町野村11-43-1",
        "lat": 33.373124,
        "lng": 132.643773
    },
    {
        "code": "B138221400090",
        "type": 16001,
        "name": "大野ヶ原小学校",
        "address": "西予市野村町大野ヶ原217-1",
        "lat": 33.479999,
        "lng": 132.871098
    },
    {
        "code": "B138221400107",
        "type": 16001,
        "name": "惣川小学校",
        "address": "西予市野村町惣川3888",
        "lat": 33.474234,
        "lng": 132.786382
    },
    {
        "code": "B138221400116",
        "type": 16001,
        "name": "城川小学校",
        "address": "西予市城川町魚成5673-1",
        "lat": 33.379493,
        "lng": 132.722585
    },
    {
        "code": "B138221400125",
        "type": 16001,
        "name": "三瓶小学校",
        "address": "西予市三瓶町朝立1-耕地337-2",
        "lat": 33.381525,
        "lng": 132.422746
    },
    {
        "code": "C138221400016",
        "type": 16002,
        "name": "明浜中学校",
        "address": "西予市明浜町俵津8-耕地316-1",
        "lat": 33.325341,
        "lng": 132.487144
    },
    {
        "code": "C138221400025",
        "type": 16002,
        "name": "宇和中学校",
        "address": "西予市宇和町下松葉629-1",
        "lat": 33.370504,
        "lng": 132.507407
    },
    {
        "code": "C138221400034",
        "type": 16002,
        "name": "野村中学校",
        "address": "西予市野村町阿下7147",
        "lat": 33.381488,
        "lng": 132.652022
    },
    {
        "code": "C138221400043",
        "type": 16002,
        "name": "城川中学校",
        "address": "西予市城川町下相1237",
        "lat": 33.378974,
        "lng": 132.747716
    },
    {
        "code": "C138221400052",
        "type": 16002,
        "name": "三瓶中学校",
        "address": "西予市三瓶町津布理48",
        "lat": 33.37827,
        "lng": 132.424602
    },
    {
        "code": "D138221400014",
        "type": 16004,
        "name": "宇和高等学校",
        "address": "西予市宇和町卯之町4-190-1",
        "lat": 33.362823,
        "lng": 132.520688
    },
    {
        "code": "D138221400023",
        "type": 16004,
        "name": "宇和高等学校三瓶分校",
        "address": "西予市三瓶町津布理3463",
        "lat": 33.376925,
        "lng": 132.424406
    },
    {
        "code": "D138221400032",
        "type": 16004,
        "name": "野村高等学校",
        "address": "西予市野村町阿下6-2",
        "lat": 33.38522,
        "lng": 132.65251
    },
    {
        "code": "E138221400011",
        "type": 16012,
        "name": "宇和特別支援学校",
        "address": "西予市宇和町永長1287-1",
        "lat": 33.375387,
        "lng": 132.496052
    },
    {
        "code": "H138321400013",
        "type": 16016,
        "name": "島岩編物専門学校",
        "address": "西予市宇和町卯之町4-249",
        "lat": 33.361059,
        "lng": 132.519978
    }
]