[
    {
        "code": "A138238600012",
        "type": 16011,
        "name": "久万幼稚園",
        "address": "上浮穴郡久万高原町上野尻甲751-1",
        "lat": 33.65208,
        "lng": 132.905168
    },
    {
        "code": "A138238600021",
        "type": 16011,
        "name": "明神幼稚園",
        "address": "上浮穴郡久万高原町東明神甲698-1",
        "lat": 33.680334,
        "lng": 132.885173
    },
    {
        "code": "A138238600030",
        "type": 16011,
        "name": "畑野川幼稚園",
        "address": "上浮穴郡久万高原町上畑野川甲521",
        "lat": 33.68649,
        "lng": 132.925668
    },
    {
        "code": "A138238600049",
        "type": 16011,
        "name": "直瀬幼稚園",
        "address": "上浮穴郡久万高原町直瀬甲3974-3",
        "lat": 33.699954,
        "lng": 132.965039
    },
    {
        "code": "A138238600058",
        "type": 16011,
        "name": "美川幼稚園",
        "address": "上浮穴郡久万高原町大川4333",
        "lat": 33.617261,
        "lng": 132.939898
    },
    {
        "code": "A138238600067",
        "type": 16011,
        "name": "父二峰幼稚園",
        "address": "上浮穴郡久万高原町露峰甲364",
        "lat": 33.614065,
        "lng": 132.88556
    },
    {
        "code": "A138238600076",
        "type": 16011,
        "name": "おもご幼稚園",
        "address": "上浮穴郡久万高原町渋草2314",
        "lat": 33.68757,
        "lng": 133.032882
    },
    {
        "code": "A138238600085",
        "type": 16011,
        "name": "仕七川幼稚園",
        "address": "上浮穴郡久万高原町東川207-1",
        "lat": 33.637034,
        "lng": 133.004469
    },
    {
        "code": "A138238600094",
        "type": 16011,
        "name": "柳谷幼稚園",
        "address": "上浮穴郡久万高原町柳井川3542",
        "lat": 33.538446,
        "lng": 133.001628
    },
    {
        "code": "A238338600019",
        "type": 16013,
        "name": "久万こども園",
        "address": "上浮穴郡久万高原町久万1447",
        "lat": 33.653586,
        "lng": 132.900665
    },
    {
        "code": "B138238600010",
        "type": 16001,
        "name": "明神小学校",
        "address": "上浮穴郡久万高原町東明神甲698-1",
        "lat": 33.680196,
        "lng": 132.885313
    },
    {
        "code": "B138238600029",
        "type": 16001,
        "name": "久万小学校",
        "address": "上浮穴郡久万高原町大字上野尻甲846",
        "lat": 33.652755,
        "lng": 132.904618
    },
    {
        "code": "B138238600038",
        "type": 16001,
        "name": "畑野川小学校",
        "address": "上浮穴郡久万高原町上畑野川甲521-1",
        "lat": 33.685791,
        "lng": 132.925322
    },
    {
        "code": "B138238600047",
        "type": 16001,
        "name": "直瀬小学校",
        "address": "上浮穴郡久万高原町直瀬甲3974-3",
        "lat": 33.699917,
        "lng": 132.964778
    },
    {
        "code": "B138238600056",
        "type": 16001,
        "name": "父二峰小学校",
        "address": "上浮穴郡久万高原町露峰甲364",
        "lat": 33.613933,
        "lng": 132.885784
    },
    {
        "code": "B138238600065",
        "type": 16001,
        "name": "面河小学校",
        "address": "上浮穴郡久万高原町渋草2314",
        "lat": 33.687847,
        "lng": 133.032844
    },
    {
        "code": "B138238600074",
        "type": 16001,
        "name": "仕七川小学校",
        "address": "上浮穴郡久万高原町東川207-1",
        "lat": 33.636982,
        "lng": 133.004135
    },
    {
        "code": "B138238600083",
        "type": 16001,
        "name": "美川小学校",
        "address": "上浮穴郡久万高原町大川4333",
        "lat": 33.617204,
        "lng": 132.940087
    },
    {
        "code": "B138238600092",
        "type": 16001,
        "name": "柳谷小学校",
        "address": "上浮穴郡久万高原町柳井川3542",
        "lat": 33.537773,
        "lng": 133.001888
    },
    {
        "code": "C138238600018",
        "type": 16002,
        "name": "久万中学校",
        "address": "上浮穴郡久万高原町久万600",
        "lat": 33.660326,
        "lng": 132.898526
    },
    {
        "code": "C138238600027",
        "type": 16002,
        "name": "美川中学校",
        "address": "上浮穴郡久万高原町上黒岩2890",
        "lat": 33.615582,
        "lng": 132.974157
    },
    {
        "code": "D138238600016",
        "type": 16004,
        "name": "上浮穴高等学校",
        "address": "上浮穴郡久万高原町上野尻甲486",
        "lat": 33.651367,
        "lng": 132.906201
    }
]