[
    {
        "code": "A138240200012",
        "type": 16011,
        "name": "麻生幼稚園",
        "address": "伊予郡砥部町原町170",
        "lat": 33.770103,
        "lng": 132.789707
    },
    {
        "code": "A138240200021",
        "type": 16011,
        "name": "宮内幼稚園",
        "address": "伊予郡砥部町川井1651",
        "lat": 33.752459,
        "lng": 132.785131
    },
    {
        "code": "A238240200011",
        "type": 16013,
        "name": "砥部こども園",
        "address": "伊予郡砥部町大南710",
        "lat": 33.737903,
        "lng": 132.792274
    },
    {
        "code": "A238340200019",
        "type": 16013,
        "name": "愛育幼稚園",
        "address": "伊予郡砥部町大南766",
        "lat": 33.73565,
        "lng": 132.792021
    },
    {
        "code": "B138240200010",
        "type": 16001,
        "name": "麻生小学校",
        "address": "伊予郡砥部町高尾田760",
        "lat": 33.779375,
        "lng": 132.791767
    },
    {
        "code": "B138240200029",
        "type": 16001,
        "name": "宮内小学校",
        "address": "伊予郡砥部町宮内640",
        "lat": 33.753406,
        "lng": 132.787072
    },
    {
        "code": "B138240200038",
        "type": 16001,
        "name": "砥部小学校",
        "address": "伊予郡砥部町大南1039",
        "lat": 33.735964,
        "lng": 132.790599
    },
    {
        "code": "B138240200047",
        "type": 16001,
        "name": "広田小学校",
        "address": "伊予郡砥部町総津375",
        "lat": 33.632338,
        "lng": 132.797462
    },
    {
        "code": "C138240200018",
        "type": 16002,
        "name": "砥部中学校",
        "address": "伊予郡砥部町千足68",
        "lat": 33.746879,
        "lng": 132.790766
    },
    {
        "code": "D138240200016",
        "type": 16004,
        "name": "松山南高等学校砥部分校",
        "address": "伊予郡砥部町岩谷口7",
        "lat": 33.738964,
        "lng": 132.795932
    },
    {
        "code": "F138210110399",
        "type": 16007,
        "name": "愛媛県立医療技術大学",
        "address": "伊予郡砥部町高尾田543",
        "lat": 33.781097,
        "lng": 132.798096
    }
]