[
    {
        "code": "A138240100013",
        "type": 16011,
        "name": "松前幼稚園",
        "address": "伊予郡松前町北黒田966-2",
        "lat": 33.78173,
        "lng": 132.700956
    },
    {
        "code": "A138240100022",
        "type": 16011,
        "name": "古城幼稚園",
        "address": "伊予郡松前町筒井1387-1",
        "lat": 33.792908,
        "lng": 132.702742
    },
    {
        "code": "A238340100010",
        "type": 16013,
        "name": "エンゼル幼稚園",
        "address": "伊予郡松前町西古泉561-1",
        "lat": 33.798694,
        "lng": 132.712053
    },
    {
        "code": "A238340100029",
        "type": 16013,
        "name": "青葉幼稚園",
        "address": "伊予郡松前町大字徳丸332-2",
        "lat": 33.789695,
        "lng": 132.760789
    },
    {
        "code": "B138240100011",
        "type": 16001,
        "name": "北伊予小学校",
        "address": "伊予郡松前町神崎226",
        "lat": 33.785818,
        "lng": 132.745217
    },
    {
        "code": "B138240100020",
        "type": 16001,
        "name": "岡田小学校",
        "address": "伊予郡松前町大字西高柳156",
        "lat": 33.80451,
        "lng": 132.721107
    },
    {
        "code": "B138240100039",
        "type": 16001,
        "name": "松前小学校",
        "address": "伊予郡松前町大字筒井1175",
        "lat": 33.782318,
        "lng": 132.702887
    },
    {
        "code": "C138240100019",
        "type": 16002,
        "name": "北伊予中学校",
        "address": "伊予郡松前町神崎415-1",
        "lat": 33.787207,
        "lng": 132.742439
    },
    {
        "code": "C138240100028",
        "type": 16002,
        "name": "岡田中学校",
        "address": "伊予郡松前町大字昌農内443-1",
        "lat": 33.8009,
        "lng": 132.722468
    },
    {
        "code": "C138240100037",
        "type": 16002,
        "name": "松前中学校",
        "address": "伊予郡松前町大字浜963",
        "lat": 33.785762,
        "lng": 132.707942
    },
    {
        "code": "D138240100017",
        "type": 16004,
        "name": "伊予高等学校",
        "address": "伊予郡松前町北黒田119-2",
        "lat": 33.781874,
        "lng": 132.714358
    },
    {
        "code": "H138340100016",
        "type": 16016,
        "name": "愛媛情報専門学校",
        "address": "伊予郡松前町徳丸25-5",
        "lat": 33.786496,
        "lng": 132.75551
    }
]