[
    {
        "code": "B138248800017",
        "type": 16001,
        "name": "好藤小学校",
        "address": "北宇和郡鬼北町大字内深田805-1",
        "lat": 33.268738,
        "lng": 132.659011
    },
    {
        "code": "B138248800026",
        "type": 16001,
        "name": "愛治小学校",
        "address": "北宇和郡鬼北町大字清水351",
        "lat": 33.302208,
        "lng": 132.68598
    },
    {
        "code": "B138248800035",
        "type": 16001,
        "name": "三島小学校",
        "address": "北宇和郡鬼北町大字延川43-1",
        "lat": 33.305285,
        "lng": 132.744398
    },
    {
        "code": "B138248800044",
        "type": 16001,
        "name": "泉小学校",
        "address": "北宇和郡鬼北町大字岩谷233-6",
        "lat": 33.263188,
        "lng": 132.711248
    },
    {
        "code": "B138248800053",
        "type": 16001,
        "name": "近永小学校",
        "address": "北宇和郡鬼北町大字奈良3774",
        "lat": 33.250769,
        "lng": 132.672315
    },
    {
        "code": "B138248800062",
        "type": 16001,
        "name": "日吉小学校",
        "address": "北宇和郡鬼北町大字下鍵山807",
        "lat": 33.332317,
        "lng": 132.799662
    },
    {
        "code": "C138248800015",
        "type": 16002,
        "name": "広見中学校",
        "address": "北宇和郡鬼北町大字永野市1200",
        "lat": 33.247908,
        "lng": 132.679731
    },
    {
        "code": "C138248800024",
        "type": 16002,
        "name": "日吉中学校",
        "address": "北宇和郡鬼北町下鍵山816",
        "lat": 33.331194,
        "lng": 132.799909
    },
    {
        "code": "D138248800013",
        "type": 16004,
        "name": "北宇和高等学校",
        "address": "北宇和郡鬼北町大字近永942",
        "lat": 33.254796,
        "lng": 132.675398
    }
]