[
    {
        "code": "B139210000372",
        "type": 16001,
        "name": "佐喜浜小学校",
        "address": "室戸市佐喜浜1700",
        "lat": 33.395234,
        "lng": 134.205038
    },
    {
        "code": "B139210000381",
        "type": 16001,
        "name": "室戸小学校",
        "address": "室戸市浮津115",
        "lat": 33.291434,
        "lng": 134.151134
    },
    {
        "code": "B139210000390",
        "type": 16001,
        "name": "元小学校",
        "address": "室戸市元甲1854",
        "lat": 33.301682,
        "lng": 134.123581
    },
    {
        "code": "B139210000407",
        "type": 16001,
        "name": "吉良川小学校",
        "address": "室戸市吉良川町甲2771",
        "lat": 33.33354,
        "lng": 134.099777
    },
    {
        "code": "B139210000416",
        "type": 16001,
        "name": "羽根小学校",
        "address": "室戸市羽根町乙3793-3",
        "lat": 33.367815,
        "lng": 134.056227
    },
    {
        "code": "C139210000165",
        "type": 16002,
        "name": "佐喜浜中学校",
        "address": "室戸市佐喜浜町3848",
        "lat": 33.40117,
        "lng": 134.210601
    },
    {
        "code": "C139210000174",
        "type": 16002,
        "name": "室戸中学校",
        "address": "室戸市浮津三番町92-1",
        "lat": 33.292934,
        "lng": 134.14244
    },
    {
        "code": "C139210000183",
        "type": 16002,
        "name": "吉良川中学校",
        "address": "室戸市吉良川町乙2000",
        "lat": 33.337457,
        "lng": 134.096277
    },
    {
        "code": "C139210000192",
        "type": 16002,
        "name": "羽根中学校",
        "address": "室戸市羽根町乙774",
        "lat": 33.372565,
        "lng": 134.059838
    },
    {
        "code": "D139210000010",
        "type": 16004,
        "name": "室戸高等学校",
        "address": "室戸市室津221",
        "lat": 33.296572,
        "lng": 134.167827
    }
]