[
    {
        "code": "A139310000185",
        "type": 16011,
        "name": "中村幼稚園",
        "address": "四万十市不破2079",
        "lat": 32.982732,
        "lng": 132.93623
    },
    {
        "code": "A239310000095",
        "type": 16013,
        "name": "ひかりこども園",
        "address": "四万十市中村東町1-2-13",
        "lat": 32.993828,
        "lng": 132.938935
    },
    {
        "code": "B139210000880",
        "type": 16001,
        "name": "竹島小学校",
        "address": "四万十市竹島3332",
        "lat": 32.969031,
        "lng": 132.976544
    },
    {
        "code": "B139210000899",
        "type": 16001,
        "name": "東山小学校",
        "address": "四万十市佐岡953-1",
        "lat": 32.99525,
        "lng": 132.944767
    },
    {
        "code": "B139210000906",
        "type": 16001,
        "name": "蕨岡小学校",
        "address": "四万十市蕨岡甲6685",
        "lat": 33.046356,
        "lng": 132.942905
    },
    {
        "code": "B139210000915",
        "type": 16001,
        "name": "大用小学校",
        "address": "四万十市大用428",
        "lat": 33.102739,
        "lng": 132.962206
    },
    {
        "code": "B139210000924",
        "type": 16001,
        "name": "竹屋敷小学校",
        "address": "四万十市竹屋敷929-ﾛ",
        "lat": 33.097536,
        "lng": 132.900354
    },
    {
        "code": "B139210000933",
        "type": 16001,
        "name": "常六小学校",
        "address": "四万十市常六ｶﾄﾞﾀ272",
        "lat": 33.129311,
        "lng": 133.01324
    },
    {
        "code": "B139210000942",
        "type": 16001,
        "name": "片魚小学校",
        "address": "四万十市片魚316",
        "lat": 33.13321,
        "lng": 132.984326
    },
    {
        "code": "B139210000951",
        "type": 16001,
        "name": "田野川小学校",
        "address": "四万十市田野川小塚1240",
        "lat": 33.027246,
        "lng": 132.926823
    },
    {
        "code": "B139210000960",
        "type": 16001,
        "name": "利岡小学校",
        "address": "四万十市利岡137",
        "lat": 33.019886,
        "lng": 132.903742
    },
    {
        "code": "B139210000979",
        "type": 16001,
        "name": "川登小学校",
        "address": "四万十市川登1030",
        "lat": 33.029551,
        "lng": 132.854274
    },
    {
        "code": "B139210000988",
        "type": 16001,
        "name": "勝間小学校",
        "address": "四万十市勝間114-1",
        "lat": 33.060396,
        "lng": 132.821795
    },
    {
        "code": "B139210000997",
        "type": 16001,
        "name": "中村小学校",
        "address": "四万十市中村新町3-20",
        "lat": 32.995474,
        "lng": 132.936232
    },
    {
        "code": "B139210001004",
        "type": 16001,
        "name": "八束小学校",
        "address": "四万十市間崎1483",
        "lat": 32.952533,
        "lng": 132.971156
    },
    {
        "code": "B139210001013",
        "type": 16001,
        "name": "具同小学校",
        "address": "四万十市具同田黒1-4-1",
        "lat": 32.989789,
        "lng": 132.920218
    },
    {
        "code": "B139210001022",
        "type": 16001,
        "name": "東中筋小学校",
        "address": "四万十市国見460",
        "lat": 32.976335,
        "lng": 132.885895
    },
    {
        "code": "B139210001031",
        "type": 16001,
        "name": "中筋小学校",
        "address": "四万十市有岡931",
        "lat": 32.961362,
        "lng": 132.831027
    },
    {
        "code": "B139210001040",
        "type": 16001,
        "name": "中村南小学校",
        "address": "四万十市不破上町1949-1",
        "lat": 32.986057,
        "lng": 132.935491
    },
    {
        "code": "B139210002165",
        "type": 16001,
        "name": "藤ノ川小学校",
        "address": "四万十市西土佐藤ﾉ川640",
        "lat": 33.159177,
        "lng": 132.840053
    },
    {
        "code": "B139210002174",
        "type": 16001,
        "name": "津野川小学校",
        "address": "四万十市西土佐津野川208",
        "lat": 33.150264,
        "lng": 132.781811
    },
    {
        "code": "B139210002183",
        "type": 16001,
        "name": "大宮小学校",
        "address": "四万十市西土佐大宮524",
        "lat": 33.141718,
        "lng": 132.738054
    },
    {
        "code": "B139210002192",
        "type": 16001,
        "name": "須﨑小学校",
        "address": "四万十市西土佐須﨑810-3",
        "lat": 33.147193,
        "lng": 132.750731
    },
    {
        "code": "B139210002209",
        "type": 16001,
        "name": "下家地小学校",
        "address": "四万十市西土佐下家地1379",
        "lat": 33.16838,
        "lng": 132.746243
    },
    {
        "code": "B139210002218",
        "type": 16001,
        "name": "西ケ方小学校",
        "address": "四万十市西土佐544-1",
        "lat": 33.189277,
        "lng": 132.766857
    },
    {
        "code": "B139210002227",
        "type": 16001,
        "name": "本村小学校",
        "address": "四万十市西土佐江川619",
        "lat": 33.2086,
        "lng": 132.789168
    },
    {
        "code": "B139210002236",
        "type": 16001,
        "name": "西土佐小学校",
        "address": "四万十市西土佐用井1110-33",
        "lat": 33.172056,
        "lng": 132.793505
    },
    {
        "code": "C139210000398",
        "type": 16002,
        "name": "下田中学校",
        "address": "四万十市下田3216-1",
        "lat": 32.944978,
        "lng": 132.991127
    },
    {
        "code": "C139210000405",
        "type": 16002,
        "name": "中村中学校",
        "address": "四万十市中村東町2-1-30",
        "lat": 32.995518,
        "lng": 132.937306
    },
    {
        "code": "C139210000414",
        "type": 16002,
        "name": "蕨岡中学校",
        "address": "四万十市蕨岡甲6959",
        "lat": 33.041912,
        "lng": 132.941349
    },
    {
        "code": "C139210000423",
        "type": 16002,
        "name": "大用中学校",
        "address": "四万十市大用393",
        "lat": 33.104295,
        "lng": 132.962012
    },
    {
        "code": "C139210000432",
        "type": 16002,
        "name": "竹屋敷中学校",
        "address": "四万十市竹屋敷929-ﾛ",
        "lat": 33.097465,
        "lng": 132.900475
    },
    {
        "code": "C139210000441",
        "type": 16002,
        "name": "片魚中学校",
        "address": "四万十市片魚139-7",
        "lat": 33.120135,
        "lng": 132.986643
    },
    {
        "code": "C139210000450",
        "type": 16002,
        "name": "後川中学校",
        "address": "四万十市利岡132",
        "lat": 33.019608,
        "lng": 132.905075
    },
    {
        "code": "C139210000469",
        "type": 16002,
        "name": "大川筋中学校",
        "address": "四万十市川登1106-10",
        "lat": 33.030625,
        "lng": 132.853719
    },
    {
        "code": "C139210000478",
        "type": 16002,
        "name": "八束中学校",
        "address": "四万十市実崎1230",
        "lat": 32.955591,
        "lng": 132.968702
    },
    {
        "code": "C139210000487",
        "type": 16002,
        "name": "東中筋中学校",
        "address": "四万十市国見222",
        "lat": 32.977584,
        "lng": 132.883217
    },
    {
        "code": "C139210000496",
        "type": 16002,
        "name": "中筋中学校",
        "address": "四万十市有岡1008",
        "lat": 32.961917,
        "lng": 132.830055
    },
    {
        "code": "C139210000502",
        "type": 16002,
        "name": "中村西中学校",
        "address": "四万十市具同7058-1",
        "lat": 32.986664,
        "lng": 132.902446
    },
    {
        "code": "C139210001128",
        "type": 16002,
        "name": "西土佐中学校",
        "address": "四万十市西土佐用井1111-1",
        "lat": 33.170969,
        "lng": 132.793368
    },
    {
        "code": "C139210001182",
        "type": 16002,
        "name": "中村中学校",
        "address": "四万十市中村丸の内24",
        "lat": 32.998866,
        "lng": 132.932125
    },
    {
        "code": "D139210000172",
        "type": 16004,
        "name": "中村高等学校",
        "address": "四万十市中村丸の内24",
        "lat": 32.998816,
        "lng": 132.932131
    },
    {
        "code": "D139210000181",
        "type": 16004,
        "name": "中村高等学校西土佐分校",
        "address": "四万十市西土佐津野川223",
        "lat": 33.149834,
        "lng": 132.781993
    },
    {
        "code": "D139210000234",
        "type": 16004,
        "name": "幡多農業高等学校",
        "address": "四万十市古津賀3711",
        "lat": 32.984002,
        "lng": 132.966794
    },
    {
        "code": "E139210000071",
        "type": 16012,
        "name": "中村特別支援学校",
        "address": "四万十市古津賀3091",
        "lat": 32.991224,
        "lng": 132.970571
    },
    {
        "code": "H139310000171",
        "type": 16016,
        "name": "中村女子専門学校",
        "address": "四万十市中村小姓町48",
        "lat": 32.99406,
        "lng": 132.932921
    },
    {
        "code": "H139310000180",
        "type": 16016,
        "name": "四万十看護学院",
        "address": "四万十市有岡字石場2252-1",
        "lat": 32.967378,
        "lng": 132.830677
    }
]