[
    {
        "code": "A139310000210",
        "type": 16011,
        "name": "土佐山田幼稚園",
        "address": "香美市土佐山田町秦山町1-48-3",
        "lat": 33.607012,
        "lng": 133.68192
    },
    {
        "code": "A139310000229",
        "type": 16011,
        "name": "第二土佐山田幼稚園",
        "address": "香美市土佐山田町旭町2-6-12",
        "lat": 33.603765,
        "lng": 133.690044
    },
    {
        "code": "B139210001362",
        "type": 16001,
        "name": "舟入小学校",
        "address": "香美市土佐山田町山田1218",
        "lat": 33.596505,
        "lng": 133.689175
    },
    {
        "code": "B139210001371",
        "type": 16001,
        "name": "山田小学校",
        "address": "香美市土佐山田町西本町2-4-5",
        "lat": 33.60614,
        "lng": 133.683463
    },
    {
        "code": "B139210001380",
        "type": 16001,
        "name": "楠目小学校",
        "address": "香美市土佐山田町楠目391-2",
        "lat": 33.607701,
        "lng": 133.702015
    },
    {
        "code": "B139210001399",
        "type": 16001,
        "name": "片地小学校",
        "address": "香美市土佐山田町宮ﾉ口9",
        "lat": 33.617596,
        "lng": 133.717492
    },
    {
        "code": "B139210001406",
        "type": 16001,
        "name": "香長小学校",
        "address": "香美市土佐山田町須江32",
        "lat": 33.622154,
        "lng": 133.677604
    },
    {
        "code": "B139210001415",
        "type": 16001,
        "name": "繁藤小学校",
        "address": "香美市土佐山田町繁藤2091",
        "lat": 33.677051,
        "lng": 133.673356
    },
    {
        "code": "B139210001460",
        "type": 16001,
        "name": "大宮小学校",
        "address": "香美市香北町美良布654-1",
        "lat": 33.651839,
        "lng": 133.777055
    },
    {
        "code": "B139210001488",
        "type": 16001,
        "name": "大栃小学校",
        "address": "香美市物部町大栃1177-3",
        "lat": 33.697451,
        "lng": 133.875775
    },
    {
        "code": "C139210000726",
        "type": 16002,
        "name": "鏡野中学校",
        "address": "香美市土佐山田町楠目1973",
        "lat": 33.612258,
        "lng": 133.697914
    },
    {
        "code": "C139210000735",
        "type": 16002,
        "name": "繁藤中学校",
        "address": "香美市土佐山田町繁藤2091",
        "lat": 33.677006,
        "lng": 133.673356
    },
    {
        "code": "C139210000762",
        "type": 16002,
        "name": "香北中学校",
        "address": "香美市香北町美良布892",
        "lat": 33.65275,
        "lng": 133.781059
    },
    {
        "code": "C139210000771",
        "type": 16002,
        "name": "大栃中学校",
        "address": "香美市大栃1800ｰｲ",
        "lat": 33.701877,
        "lng": 133.87851
    },
    {
        "code": "D139210000056",
        "type": 16004,
        "name": "山田高等学校",
        "address": "香美市土佐山田町旭町3-1-3",
        "lat": 33.604924,
        "lng": 133.689614
    },
    {
        "code": "E139210000053",
        "type": 16012,
        "name": "山田特別支援学校",
        "address": "香美市土佐山田町山田1361",
        "lat": 33.599529,
        "lng": 133.691378
    },
    {
        "code": "F139210110520",
        "type": 16007,
        "name": "高知工科大学",
        "address": "香美市土佐山田町宮ﾉ口185",
        "lat": 33.620776,
        "lng": 133.719735
    }
]