[
    {
        "code": "A139210000025",
        "type": 16011,
        "name": "田野幼稚園",
        "address": "安芸郡田野町747-4",
        "lat": 33.426819,
        "lng": 134.01107
    },
    {
        "code": "B139210001282",
        "type": 16001,
        "name": "田野小学校",
        "address": "安芸郡田野町924-1",
        "lat": 33.428586,
        "lng": 134.010832
    },
    {
        "code": "C139210000655",
        "type": 16002,
        "name": "田野中学校",
        "address": "安芸郡田野町3778-1",
        "lat": 33.431974,
        "lng": 134.00454
    },
    {
        "code": "D139210000029",
        "type": 16004,
        "name": "中芸高等学校",
        "address": "安芸郡田野町1203-4",
        "lat": 33.43389,
        "lng": 134.011095
    },
    {
        "code": "E139210000142",
        "type": 16012,
        "name": "山田特別支援学校田野分校",
        "address": "安芸郡田野町1203-4",
        "lat": 33.433913,
        "lng": 134.011101
    }
]