[
    {
        "code": "A139210000098",
        "type": 16011,
        "name": "脇の山幼稚園",
        "address": "吾川郡いの町脇ﾉ山228-4",
        "lat": 33.779259,
        "lng": 133.346595
    },
    {
        "code": "A139210000105",
        "type": 16011,
        "name": "伊野幼稚園",
        "address": "吾川郡いの町柳町12",
        "lat": 33.550122,
        "lng": 133.426543
    },
    {
        "code": "A139210000114",
        "type": 16011,
        "name": "清水幼稚園",
        "address": "吾川郡いの町清水上分2327-3",
        "lat": 33.68398,
        "lng": 133.340452
    },
    {
        "code": "A139210000123",
        "type": 16011,
        "name": "下八川幼稚園",
        "address": "吾川郡いの町下八川丁3800",
        "lat": 33.606203,
        "lng": 133.297194
    },
    {
        "code": "A239210000079",
        "type": 16013,
        "name": "幼保連携型認定こども園えだがわ",
        "address": "吾川郡いの町枝川5811-1",
        "lat": 33.555318,
        "lng": 133.459636
    },
    {
        "code": "A239210000088",
        "type": 16013,
        "name": "幼保連携型認定こども園ごほく",
        "address": "吾川郡いの町小川西津賀才553",
        "lat": 33.630347,
        "lng": 133.283746
    },
    {
        "code": "B139210001558",
        "type": 16001,
        "name": "本川小学校",
        "address": "吾川郡いの町脇ﾉ山228-7",
        "lat": 33.778797,
        "lng": 133.346459
    },
    {
        "code": "B139210001567",
        "type": 16001,
        "name": "長沢小学校",
        "address": "吾川郡いの町長沢4-2",
        "lat": 33.726299,
        "lng": 133.307618
    },
    {
        "code": "B139210001576",
        "type": 16001,
        "name": "越裏門小学校",
        "address": "吾川郡いの町越裏門340-8",
        "lat": 33.730498,
        "lng": 133.233251
    },
    {
        "code": "B139210001585",
        "type": 16001,
        "name": "枝川小学校",
        "address": "吾川郡いの町枝川2964-1",
        "lat": 33.553613,
        "lng": 133.45865
    },
    {
        "code": "B139210001594",
        "type": 16001,
        "name": "伊野南小学校",
        "address": "吾川郡いの町八田2321",
        "lat": 33.53042,
        "lng": 133.438374
    },
    {
        "code": "B139210001601",
        "type": 16001,
        "name": "伊野小学校",
        "address": "吾川郡いの町3583",
        "lat": 33.550198,
        "lng": 133.425806
    },
    {
        "code": "B139210001610",
        "type": 16001,
        "name": "川内小学校",
        "address": "吾川郡いの町鎌田216",
        "lat": 33.542557,
        "lng": 133.419043
    },
    {
        "code": "B139210001629",
        "type": 16001,
        "name": "神谷小学校",
        "address": "吾川郡いの町神谷694",
        "lat": 33.554028,
        "lng": 133.386296
    },
    {
        "code": "B139210001638",
        "type": 16001,
        "name": "中追小学校",
        "address": "吾川郡いの町中追2929-3",
        "lat": 33.609386,
        "lng": 133.376548
    },
    {
        "code": "B139210001647",
        "type": 16001,
        "name": "柳瀬小学校",
        "address": "吾川郡いの町柳瀬本村539",
        "lat": 33.561322,
        "lng": 133.332599
    },
    {
        "code": "B139210001683",
        "type": 16001,
        "name": "下八川小学校",
        "address": "吾川郡いの町下八川丁3800",
        "lat": 33.605964,
        "lng": 133.297303
    },
    {
        "code": "B139210001692",
        "type": 16001,
        "name": "上八川小学校",
        "address": "吾川郡いの町上八川甲3069",
        "lat": 33.648626,
        "lng": 133.342604
    },
    {
        "code": "B139210001709",
        "type": 16001,
        "name": "上東小学校",
        "address": "吾川郡いの町上八川丙4904",
        "lat": 33.671396,
        "lng": 133.414652
    },
    {
        "code": "B139210001718",
        "type": 16001,
        "name": "清水第一小学校",
        "address": "吾川郡いの町清水上分2327-3",
        "lat": 33.684039,
        "lng": 133.340271
    },
    {
        "code": "B139210001727",
        "type": 16001,
        "name": "清水第二小学校",
        "address": "吾川郡いの町清水上分2106",
        "lat": 33.689531,
        "lng": 133.381746
    },
    {
        "code": "B139210001736",
        "type": 16001,
        "name": "吾北小学校",
        "address": "吾川郡いの町小川西津賀才553",
        "lat": 33.630905,
        "lng": 133.284498
    },
    {
        "code": "B139310000021",
        "type": 16001,
        "name": "とさ自由学校",
        "address": "吾川郡いの町勝賀瀬4387",
        "lat": 33.586255,
        "lng": 133.364185
    },
    {
        "code": "C139210000833",
        "type": 16002,
        "name": "本川中学校",
        "address": "吾川郡いの町長沢22-1",
        "lat": 33.727144,
        "lng": 133.306329
    },
    {
        "code": "C139210000842",
        "type": 16002,
        "name": "伊野中学校",
        "address": "吾川郡いの町1152",
        "lat": 33.545203,
        "lng": 133.43085
    },
    {
        "code": "C139210000851",
        "type": 16002,
        "name": "神谷中学校",
        "address": "吾川郡いの町加田2479",
        "lat": 33.554025,
        "lng": 133.386296
    },
    {
        "code": "C139210000860",
        "type": 16002,
        "name": "中追中学校",
        "address": "吾川郡いの町中追2929-3",
        "lat": 33.609766,
        "lng": 133.376733
    },
    {
        "code": "C139210000879",
        "type": 16002,
        "name": "伊野南中学校",
        "address": "吾川郡いの町八田2300",
        "lat": 33.53167,
        "lng": 133.440652
    },
    {
        "code": "C139210000904",
        "type": 16002,
        "name": "吾北中学校",
        "address": "吾川郡いの町上八川甲3047",
        "lat": 33.64821,
        "lng": 133.343076
    },
    {
        "code": "D139210000083",
        "type": 16004,
        "name": "高知追手前高等学校吾北分校",
        "address": "吾川郡いの町上八川甲2075-1",
        "lat": 33.646738,
        "lng": 133.342938
    },
    {
        "code": "D139210000289",
        "type": 16004,
        "name": "伊野商業高等学校",
        "address": "吾川郡いの町332-1",
        "lat": 33.551752,
        "lng": 133.445818
    },
    {
        "code": "H139210000020",
        "type": 16016,
        "name": "高知県立農業大学校",
        "address": "吾川郡いの町波川234",
        "lat": 33.542621,
        "lng": 133.409525
    }
]