[
    {
        "code": "A239210000051",
        "type": 16013,
        "name": "認定こども園たのの",
        "address": "高岡郡四万十町大正388",
        "lat": 33.198292,
        "lng": 132.976004
    },
    {
        "code": "B139210001816",
        "type": 16001,
        "name": "仁井田小学校",
        "address": "高岡郡四万十町仁井田1920",
        "lat": 33.24556,
        "lng": 133.160875
    },
    {
        "code": "B139210001825",
        "type": 16001,
        "name": "影野小学校",
        "address": "高岡郡四万十町影野653",
        "lat": 33.276168,
        "lng": 133.171263
    },
    {
        "code": "B139210001834",
        "type": 16001,
        "name": "七里小学校",
        "address": "高岡郡四万十町七里甲1214",
        "lat": 33.263502,
        "lng": 133.130712
    },
    {
        "code": "B139210001843",
        "type": 16001,
        "name": "米奥小学校",
        "address": "高岡郡四万十町米奥149",
        "lat": 33.28236,
        "lng": 133.110104
    },
    {
        "code": "B139210001852",
        "type": 16001,
        "name": "窪川小学校",
        "address": "高岡郡四万十町琴平町500-4",
        "lat": 33.211832,
        "lng": 133.134287
    },
    {
        "code": "B139210001861",
        "type": 16001,
        "name": "若井川小学校",
        "address": "高岡郡四万十町若井川531",
        "lat": 33.176235,
        "lng": 133.121577
    },
    {
        "code": "B139210001870",
        "type": 16001,
        "name": "口神ノ川小学校",
        "address": "高岡郡四万十町口神ﾉ川208",
        "lat": 33.196898,
        "lng": 133.108327
    },
    {
        "code": "B139210001889",
        "type": 16001,
        "name": "川口小学校",
        "address": "高岡郡四万十町南川口108",
        "lat": 33.200094,
        "lng": 133.081611
    },
    {
        "code": "B139210001905",
        "type": 16001,
        "name": "東又小学校",
        "address": "高岡郡四万十町黒石502",
        "lat": 33.224563,
        "lng": 133.196095
    },
    {
        "code": "B139210001914",
        "type": 16001,
        "name": "興津小学校",
        "address": "高岡郡四万十町興津1572",
        "lat": 33.167794,
        "lng": 133.206762
    },
    {
        "code": "B139210002058",
        "type": 16001,
        "name": "田野々小学校",
        "address": "高岡郡四万十町大正93",
        "lat": 33.193316,
        "lng": 132.971299
    },
    {
        "code": "B139210002067",
        "type": 16001,
        "name": "大奈路小学校",
        "address": "高岡郡四万十町大正大奈路99",
        "lat": 33.229954,
        "lng": 132.981827
    },
    {
        "code": "B139210002076",
        "type": 16001,
        "name": "北ノ川小学校",
        "address": "高岡郡四万十町大正北ﾉ川358-20",
        "lat": 33.187901,
        "lng": 133.04721
    },
    {
        "code": "B139210002147",
        "type": 16001,
        "name": "十川小学校",
        "address": "高岡郡四万十町十和川口505-1",
        "lat": 33.234235,
        "lng": 132.847723
    },
    {
        "code": "B139210002156",
        "type": 16001,
        "name": "昭和小学校",
        "address": "高岡郡四万十町昭和462-1",
        "lat": 33.21803,
        "lng": 132.897043
    },
    {
        "code": "C139210000977",
        "type": 16002,
        "name": "窪川中学校",
        "address": "高岡郡四万十町香月が丘993-1",
        "lat": 33.215452,
        "lng": 133.127658
    },
    {
        "code": "C139210000986",
        "type": 16002,
        "name": "興津中学校",
        "address": "高岡郡四万十町興津1604",
        "lat": 33.167627,
        "lng": 133.208039
    },
    {
        "code": "C139210001066",
        "type": 16002,
        "name": "大正中学校",
        "address": "高岡郡四万十町大正291",
        "lat": 33.195751,
        "lng": 132.977019
    },
    {
        "code": "C139210001075",
        "type": 16002,
        "name": "北ノ川中学校",
        "address": "高岡郡四万十町大正北ﾉ川358-20",
        "lat": 33.18832,
        "lng": 133.047674
    },
    {
        "code": "C139210001100",
        "type": 16002,
        "name": "十川中学校",
        "address": "高岡郡四万十町十和川口484",
        "lat": 33.234236,
        "lng": 132.848506
    },
    {
        "code": "C139210001119",
        "type": 16002,
        "name": "昭和中学校",
        "address": "高岡郡四万十町昭和516",
        "lat": 33.219363,
        "lng": 132.896099
    },
    {
        "code": "D139210000154",
        "type": 16004,
        "name": "窪川高等学校",
        "address": "高岡郡四万十町北琴平町6-1",
        "lat": 33.215285,
        "lng": 133.132296
    },
    {
        "code": "D139210000163",
        "type": 16004,
        "name": "四万十高等学校",
        "address": "高岡郡四万十町大正590-1",
        "lat": 33.196451,
        "lng": 132.974016
    }
]