[
    {
        "code": "A140210000013",
        "type": 16011,
        "name": "小倉幼稚園",
        "address": "北九州市小倉北区堺町2-4-21",
        "lat": 33.882376,
        "lng": 130.886973
    },
    {
        "code": "A140210000022",
        "type": 16011,
        "name": "小倉南幼稚園",
        "address": "北九州市小倉南区春ｹ丘10-8",
        "lat": 33.847277,
        "lng": 130.884269
    },
    {
        "code": "A140210000031",
        "type": 16011,
        "name": "八幡東幼稚園",
        "address": "北九州市八幡東区高見3-1-32",
        "lat": 33.868252,
        "lng": 130.836642
    },
    {
        "code": "A140210000040",
        "type": 16011,
        "name": "鷹の巣幼稚園",
        "address": "北九州市八幡西区鷹の巣3-10-25",
        "lat": 33.853674,
        "lng": 130.746228
    },
    {
        "code": "A140310000011",
        "type": 16011,
        "name": "門司瞳幼稚園",
        "address": "北九州市門司区柳町4-5-1",
        "lat": 33.901293,
        "lng": 130.94089
    },
    {
        "code": "A140310000020",
        "type": 16011,
        "name": "門司聖母幼稚園",
        "address": "北九州市門司区別院1-21",
        "lat": 33.896062,
        "lng": 130.931288
    },
    {
        "code": "A140310000039",
        "type": 16011,
        "name": "あけぼの幼稚園",
        "address": "北九州市門司区猿喰古新地下939-13",
        "lat": 33.891039,
        "lng": 130.979631
    },
    {
        "code": "A140310000048",
        "type": 16011,
        "name": "愛光幼稚園",
        "address": "北九州市門司区老松町12-3",
        "lat": 33.94799,
        "lng": 130.97158
    },
    {
        "code": "A140310000057",
        "type": 16011,
        "name": "門司幼稚園",
        "address": "北九州市門司区谷町1-8-3",
        "lat": 33.944807,
        "lng": 130.978446
    },
    {
        "code": "A140310000075",
        "type": 16011,
        "name": "門司こばと幼稚園",
        "address": "北九州市門司区東新町1-9-21",
        "lat": 33.893337,
        "lng": 130.924961
    },
    {
        "code": "A140310000084",
        "type": 16011,
        "name": "西門司幼稚園",
        "address": "北九州市門司区杜ﾉ木1-14-8",
        "lat": 33.893556,
        "lng": 130.927299
    },
    {
        "code": "A140310000093",
        "type": 16011,
        "name": "日の丸幼稚園",
        "address": "北九州市門司区大里戸ﾉ上2-3-37",
        "lat": 33.905844,
        "lng": 130.940884
    },
    {
        "code": "A140310000100",
        "type": 16011,
        "name": "幸幼稚園",
        "address": "北九州市門司区老松町7-3",
        "lat": 33.94571,
        "lng": 130.969167
    },
    {
        "code": "A140310000119",
        "type": 16011,
        "name": "敬愛幼稚園",
        "address": "北九州市門司区別院6-1",
        "lat": 33.89446,
        "lng": 130.933887
    },
    {
        "code": "A140310000128",
        "type": 16011,
        "name": "東郷瞳幼稚園",
        "address": "北九州市門司区白野江1-18-7",
        "lat": 33.933536,
        "lng": 131.005409
    },
    {
        "code": "A140310000137",
        "type": 16011,
        "name": "高須幼稚園",
        "address": "北九州市若松区高須東4-12-40",
        "lat": 33.891016,
        "lng": 130.692442
    },
    {
        "code": "A140310000146",
        "type": 16011,
        "name": "神愛幼稚園",
        "address": "北九州市若松区栄盛川町9-1",
        "lat": 33.911949,
        "lng": 130.8001
    },
    {
        "code": "A140310000155",
        "type": 16011,
        "name": "若松天使園幼稚園",
        "address": "北九州市若松区白山1-9-50",
        "lat": 33.902832,
        "lng": 130.80505
    },
    {
        "code": "A140310000164",
        "type": 16011,
        "name": "浜町幼稚園",
        "address": "北九州市若松区北浜1-1-25",
        "lat": 33.908166,
        "lng": 130.811779
    },
    {
        "code": "A140310000173",
        "type": 16011,
        "name": "百華学園精華幼稚園",
        "address": "北九州市若松区和田町13-12",
        "lat": 33.89263,
        "lng": 130.791494
    },
    {
        "code": "A140310000182",
        "type": 16011,
        "name": "小石幼稚園",
        "address": "北九州市若松区棚田町11-28",
        "lat": 33.914662,
        "lng": 130.789442
    },
    {
        "code": "A140310000191",
        "type": 16011,
        "name": "日吉幼稚園",
        "address": "北九州市若松区東二島2-16-6",
        "lat": 33.889,
        "lng": 130.756345
    },
    {
        "code": "A140310000208",
        "type": 16011,
        "name": "行学幼稚園",
        "address": "北九州市若松区乙丸770-1",
        "lat": 33.908925,
        "lng": 130.694019
    },
    {
        "code": "A140310000217",
        "type": 16011,
        "name": "光貞幼稚園",
        "address": "北九州市若松区ひびきの南1-7-102",
        "lat": 33.8851,
        "lng": 130.714974
    },
    {
        "code": "A140310000226",
        "type": 16011,
        "name": "顕照寺朝日ヶ丘幼稚園",
        "address": "北九州市若松区大字頓田594-4",
        "lat": 33.898782,
        "lng": 130.734883
    },
    {
        "code": "A140310000235",
        "type": 16011,
        "name": "若松青葉幼稚園",
        "address": "北九州市若松区青葉台西1-3-1",
        "lat": 33.900514,
        "lng": 130.687926
    },
    {
        "code": "A140310000244",
        "type": 16011,
        "name": "戸畑天使園幼稚園",
        "address": "北九州市戸畑区千防1-11-22",
        "lat": 33.89491,
        "lng": 130.831008
    },
    {
        "code": "A140310000253",
        "type": 16011,
        "name": "明泉寺幼稚園",
        "address": "北九州市戸畑区正津町1-9",
        "lat": 33.891389,
        "lng": 130.830391
    },
    {
        "code": "A140310000262",
        "type": 16011,
        "name": "教学寺幼稚園",
        "address": "北九州市戸畑区新池2-10-1",
        "lat": 33.897052,
        "lng": 130.826523
    },
    {
        "code": "A140310000271",
        "type": 16011,
        "name": "宝福寺幼稚園",
        "address": "北九州市戸畑区中原西1-3-23",
        "lat": 33.897606,
        "lng": 130.839557
    },
    {
        "code": "A140310000280",
        "type": 16011,
        "name": "第二明泉寺幼稚園",
        "address": "北九州市戸畑区西大谷1-9-52",
        "lat": 33.880725,
        "lng": 130.825262
    },
    {
        "code": "A140310000299",
        "type": 16011,
        "name": "西南女学院大学短期大学部附属シオン山幼稚園",
        "address": "北九州市小倉北区井堀1-3-4",
        "lat": 33.884472,
        "lng": 130.849262
    },
    {
        "code": "A140310000306",
        "type": 16011,
        "name": "東筑紫短期大学附属幼稚園",
        "address": "北九州市小倉北区下到津5-3-14",
        "lat": 33.876062,
        "lng": 130.858348
    },
    {
        "code": "A140310000315",
        "type": 16011,
        "name": "小倉カトリック幼稚園",
        "address": "北九州市小倉北区昭和町14-7",
        "lat": 33.872841,
        "lng": 130.877919
    },
    {
        "code": "A140310000324",
        "type": 16011,
        "name": "聖ケ丘幼稚園",
        "address": "北九州市小倉北区清水4-5-1",
        "lat": 33.871724,
        "lng": 130.857626
    },
    {
        "code": "A140310000333",
        "type": 16011,
        "name": "あおば学園あおば幼稚園",
        "address": "北九州市小倉北区上富野3-9-32",
        "lat": 33.885547,
        "lng": 130.900533
    },
    {
        "code": "A140310000342",
        "type": 16011,
        "name": "あかつき幼稚園",
        "address": "北九州市小倉北区黄金2-8-31",
        "lat": 33.869405,
        "lng": 130.879194
    },
    {
        "code": "A140310000351",
        "type": 16011,
        "name": "いづみ幼稚園",
        "address": "北九州市小倉北区三郎丸3-10-36",
        "lat": 33.866,
        "lng": 130.886188
    },
    {
        "code": "A140310000360",
        "type": 16011,
        "name": "森林幼稚園",
        "address": "北九州市小倉北区妙見町1-32",
        "lat": 33.868109,
        "lng": 130.902778
    },
    {
        "code": "A140310000379",
        "type": 16011,
        "name": "栄美幼稚園",
        "address": "北九州市小倉北区上富野3-17-10",
        "lat": 33.885146,
        "lng": 130.902791
    },
    {
        "code": "A140310000388",
        "type": 16011,
        "name": "富野幼稚園",
        "address": "北九州市小倉北区下富野3-5-6",
        "lat": 33.879949,
        "lng": 130.894728
    },
    {
        "code": "A140310000397",
        "type": 16011,
        "name": "木町幼稚園",
        "address": "北九州市小倉北区原町2-7-6",
        "lat": 33.874183,
        "lng": 130.865095
    },
    {
        "code": "A140310000404",
        "type": 16011,
        "name": "天心幼稚園",
        "address": "北九州市小倉北区清水2-7-1",
        "lat": 33.874815,
        "lng": 130.861314
    },
    {
        "code": "A140310000413",
        "type": 16011,
        "name": "おひさま幼稚園",
        "address": "北九州市小倉北区竪町1-2-13",
        "lat": 33.88639,
        "lng": 130.869917
    },
    {
        "code": "A140310000422",
        "type": 16011,
        "name": "光沢寺中井幼稚園",
        "address": "北九州市小倉北区中井2-17-36",
        "lat": 33.890252,
        "lng": 130.849765
    },
    {
        "code": "A140310000431",
        "type": 16011,
        "name": "霧ケ丘幼稚園",
        "address": "北九州市小倉北区霧ヶ丘1-1-13",
        "lat": 33.85804,
        "lng": 130.897548
    },
    {
        "code": "A140310000440",
        "type": 16011,
        "name": "でんき幼稚園",
        "address": "北九州市小倉南区蜷田若園1-2-24",
        "lat": 33.843598,
        "lng": 130.887881
    },
    {
        "code": "A140310000459",
        "type": 16011,
        "name": "小倉瞳幼稚園",
        "address": "北九州市小倉南区上貫3-4-39",
        "lat": 33.814976,
        "lng": 130.92443
    },
    {
        "code": "A140310000468",
        "type": 16011,
        "name": "清和幼稚園",
        "address": "北九州市小倉南区湯川3-3-30",
        "lat": 33.848103,
        "lng": 130.901571
    },
    {
        "code": "A140310000477",
        "type": 16011,
        "name": "神理幼稚園",
        "address": "北九州市小倉南区徳力5-10-10",
        "lat": 33.825138,
        "lng": 130.864782
    },
    {
        "code": "A140310000486",
        "type": 16011,
        "name": "むつみ幼稚園",
        "address": "北九州市小倉南区葛原東4-3-38",
        "lat": 33.836052,
        "lng": 130.933098
    },
    {
        "code": "A140310000495",
        "type": 16011,
        "name": "わしみね幼稚園",
        "address": "北九州市小倉南区蒲生2-8-6",
        "lat": 33.84682,
        "lng": 130.864764
    },
    {
        "code": "A140310000501",
        "type": 16011,
        "name": "山の手学院幼稚園",
        "address": "北九州市小倉南区徳力新町2-3-32",
        "lat": 33.834687,
        "lng": 130.86809
    },
    {
        "code": "A140310000510",
        "type": 16011,
        "name": "ゆうゆう学園吉田幼稚園",
        "address": "北九州市小倉南区上吉田2-18-33",
        "lat": 33.855353,
        "lng": 130.949524
    },
    {
        "code": "A140310000529",
        "type": 16011,
        "name": "お宮の里幼稚園",
        "address": "北九州市小倉南区沼本町4-18-5",
        "lat": 33.848892,
        "lng": 130.946097
    },
    {
        "code": "A140310000538",
        "type": 16011,
        "name": "徳力団地幼稚園",
        "address": "北九州市小倉南区徳力団地1-2",
        "lat": 33.831573,
        "lng": 130.865119
    },
    {
        "code": "A140310000547",
        "type": 16011,
        "name": "曽根ひかり幼稚園",
        "address": "北九州市小倉南区中曽根1-7-1",
        "lat": 33.826277,
        "lng": 130.937774
    },
    {
        "code": "A140310000556",
        "type": 16011,
        "name": "志徳幼稚園",
        "address": "北九州市小倉南区徳力4-26-10",
        "lat": 33.823836,
        "lng": 130.871793
    },
    {
        "code": "A140310000565",
        "type": 16011,
        "name": "恵光学園くさみ幼稚園",
        "address": "北九州市小倉南区朽網東3-2-10",
        "lat": 33.80367,
        "lng": 130.957819
    },
    {
        "code": "A140310000574",
        "type": 16011,
        "name": "フレンズ幼稚園",
        "address": "北九州市小倉南区東貫1-15-3",
        "lat": 33.821487,
        "lng": 130.935085
    },
    {
        "code": "A140310000583",
        "type": 16011,
        "name": "星和台幼稚園",
        "address": "北九州市小倉南区星和台1-6-1",
        "lat": 33.833198,
        "lng": 130.879258
    },
    {
        "code": "A140310000592",
        "type": 16011,
        "name": "志井幼稚園",
        "address": "北九州市小倉南区志井6-19-1",
        "lat": 33.817122,
        "lng": 130.87814
    },
    {
        "code": "A140310000609",
        "type": 16011,
        "name": "石原幼稚園",
        "address": "北九州市小倉南区大字石原町146-1",
        "lat": 33.787149,
        "lng": 130.863568
    },
    {
        "code": "A140310000618",
        "type": 16011,
        "name": "長行幼稚園",
        "address": "北九州市小倉南区長行西4-12-1",
        "lat": 33.813633,
        "lng": 130.851414
    },
    {
        "code": "A140310000627",
        "type": 16011,
        "name": "こども園きっずこくらみなみ",
        "address": "北九州市小倉南区南方3-23-5",
        "lat": 33.832278,
        "lng": 130.859207
    },
    {
        "code": "A140310000636",
        "type": 16011,
        "name": "高見幼稚園",
        "address": "北九州市八幡東区川淵町3-23",
        "lat": 33.867481,
        "lng": 130.83688
    },
    {
        "code": "A140310000645",
        "type": 16011,
        "name": "八幡カトリック幼稚園",
        "address": "北九州市八幡東区八王寺町1-40",
        "lat": 33.870989,
        "lng": 130.842512
    },
    {
        "code": "A140310000654",
        "type": 16011,
        "name": "三島学園乳山幼稚園",
        "address": "北九州市八幡東区大蔵2-18-8",
        "lat": 33.861702,
        "lng": 130.819382
    },
    {
        "code": "A140310000663",
        "type": 16011,
        "name": "済世第一幼稚園",
        "address": "北九州市八幡東区前田3-4-6",
        "lat": 33.866701,
        "lng": 130.787404
    },
    {
        "code": "A140310000672",
        "type": 16011,
        "name": "尾倉幼稚園",
        "address": "北九州市八幡東区尾倉3-8-2",
        "lat": 33.863214,
        "lng": 130.796807
    },
    {
        "code": "A140310000681",
        "type": 16011,
        "name": "小鳩幼稚園",
        "address": "北九州市八幡東区枝光4-10-1",
        "lat": 33.881102,
        "lng": 130.817168
    },
    {
        "code": "A140310000690",
        "type": 16011,
        "name": "華頂幼稚園",
        "address": "北九州市八幡東区春の町3-2-2",
        "lat": 33.865715,
        "lng": 130.80165
    },
    {
        "code": "A140310000707",
        "type": 16011,
        "name": "槻田くるみ幼稚園",
        "address": "北九州市八幡東区山路2-11-27",
        "lat": 33.852839,
        "lng": 130.833551
    },
    {
        "code": "A140310000716",
        "type": 16011,
        "name": "本城西幼稚園",
        "address": "北九州市八幡西区本城1-15-2",
        "lat": 33.880056,
        "lng": 130.729498
    },
    {
        "code": "A140310000725",
        "type": 16011,
        "name": "愛真幼稚園",
        "address": "北九州市八幡西区日吉台1-1-25",
        "lat": 33.859717,
        "lng": 130.705645
    },
    {
        "code": "A140310000734",
        "type": 16011,
        "name": "九州女子大学附属折尾幼稚園",
        "address": "北九州市八幡西区北鷹見町5-10",
        "lat": 33.863583,
        "lng": 130.716433
    },
    {
        "code": "A140310000743",
        "type": 16011,
        "name": "九州女子大学附属自由ケ丘幼稚園",
        "address": "北九州市八幡西区自由ヶ丘2-1",
        "lat": 33.867771,
        "lng": 130.70768
    },
    {
        "code": "A140310000752",
        "type": 16011,
        "name": "楠橋幼稚園",
        "address": "北九州市八幡西区楠橋下方1-1-13",
        "lat": 33.79271,
        "lng": 130.72916
    },
    {
        "code": "A140310000761",
        "type": 16011,
        "name": "聖ヨゼフ幼稚園",
        "address": "北九州市八幡西区山寺町12-56",
        "lat": 33.86027,
        "lng": 130.755346
    },
    {
        "code": "A140310000770",
        "type": 16011,
        "name": "こじか幼稚園",
        "address": "北九州市八幡西区幸神4-1-9",
        "lat": 33.855292,
        "lng": 130.761373
    },
    {
        "code": "A140310000789",
        "type": 16011,
        "name": "モンカルカ学園緑ケ丘幼稚園",
        "address": "北九州市八幡西区上の原2-4-37",
        "lat": 33.836329,
        "lng": 130.756702
    },
    {
        "code": "A140310000798",
        "type": 16011,
        "name": "成松幼稚園",
        "address": "北九州市八幡西区清納2-3-21",
        "lat": 33.860943,
        "lng": 130.777128
    },
    {
        "code": "A140310000805",
        "type": 16011,
        "name": "済世第二幼稚園",
        "address": "北九州市八幡西区幸神3-8-8",
        "lat": 33.852932,
        "lng": 130.762526
    },
    {
        "code": "A140310000814",
        "type": 16011,
        "name": "上津役幼稚園",
        "address": "北九州市八幡西区上上津役4-18-7",
        "lat": 33.826485,
        "lng": 130.757883
    },
    {
        "code": "A140310000823",
        "type": 16011,
        "name": "穴生幼稚園",
        "address": "北九州市八幡西区穴生1-10-22",
        "lat": 33.859156,
        "lng": 130.74523
    },
    {
        "code": "A140310000832",
        "type": 16011,
        "name": "八幡みなみ幼稚園",
        "address": "北九州市八幡西区永犬丸5-10-35",
        "lat": 33.837581,
        "lng": 130.732832
    },
    {
        "code": "A140310000841",
        "type": 16011,
        "name": "緑ケ丘第二幼稚園",
        "address": "北九州市八幡西区相生町11-5",
        "lat": 33.846802,
        "lng": 130.749567
    },
    {
        "code": "A140310000850",
        "type": 16011,
        "name": "下上津役幼稚園",
        "address": "北九州市八幡西区下上津役1-6-2",
        "lat": 33.829179,
        "lng": 130.742623
    },
    {
        "code": "A140310000869",
        "type": 16011,
        "name": "あかね幼稚園",
        "address": "北九州市八幡西区池田2-3-27",
        "lat": 33.800054,
        "lng": 130.747202
    },
    {
        "code": "A140310000878",
        "type": 16011,
        "name": "第二文化幼稚園",
        "address": "北九州市八幡西区的場町20-12",
        "lat": 33.838973,
        "lng": 130.742273
    },
    {
        "code": "A140310000887",
        "type": 16011,
        "name": "こみね幼稚園",
        "address": "北九州市八幡西区小嶺台1-3-30",
        "lat": 33.812242,
        "lng": 130.750745
    },
    {
        "code": "A140310000896",
        "type": 16011,
        "name": "青山幼稚園",
        "address": "北九州市八幡西区萩原3-7-1",
        "lat": 33.85656,
        "lng": 130.752763
    },
    {
        "code": "A140310000903",
        "type": 16011,
        "name": "浅川幼稚園",
        "address": "北九州市八幡西区藤原3-19-1",
        "lat": 33.879042,
        "lng": 130.707558
    },
    {
        "code": "A140310000912",
        "type": 16011,
        "name": "本城東幼稚園",
        "address": "北九州市八幡西区本城東1-18-15",
        "lat": 33.874462,
        "lng": 130.738156
    },
    {
        "code": "A140310000921",
        "type": 16011,
        "name": "こみね星ヶ丘幼稚園",
        "address": "北九州市八幡西区笹田933-5",
        "lat": 33.778077,
        "lng": 130.750318
    },
    {
        "code": "B140110000022",
        "type": 16001,
        "name": "福岡教育大学附属小倉小学校",
        "address": "北九州市小倉北区下富野3-13-1",
        "lat": 33.880268,
        "lng": 130.899622
    },
    {
        "code": "B140210000011",
        "type": 16001,
        "name": "小森江東小学校",
        "address": "北九州市門司区二ﾀ松町2-1",
        "lat": 33.928431,
        "lng": 130.945478
    },
    {
        "code": "B140210000020",
        "type": 16001,
        "name": "田野浦小学校",
        "address": "北九州市門司区田野浦1-18-1",
        "lat": 33.955206,
        "lng": 130.991528
    },
    {
        "code": "B140210000039",
        "type": 16001,
        "name": "大里柳小学校",
        "address": "北九州市門司区不老町2-1-1",
        "lat": 33.897961,
        "lng": 130.937656
    },
    {
        "code": "B140210000048",
        "type": 16001,
        "name": "大里東小学校",
        "address": "北九州市門司区中二十町7-1",
        "lat": 33.908877,
        "lng": 130.941812
    },
    {
        "code": "B140210000057",
        "type": 16001,
        "name": "小森江西小学校",
        "address": "北九州市門司区羽山1-12-1",
        "lat": 33.920237,
        "lng": 130.944784
    },
    {
        "code": "B140210000066",
        "type": 16001,
        "name": "白野江小学校",
        "address": "北九州市門司区白野江3-2-1",
        "lat": 33.938625,
        "lng": 131.007777
    },
    {
        "code": "B140210000075",
        "type": 16001,
        "name": "柄杓田小学校",
        "address": "北九州市門司区大字柄杓田1002-1",
        "lat": 33.908323,
        "lng": 130.991419
    },
    {
        "code": "B140210000084",
        "type": 16001,
        "name": "大積小学校",
        "address": "北九州市門司区大字大積974-3",
        "lat": 33.929348,
        "lng": 130.987585
    },
    {
        "code": "B140210000093",
        "type": 16001,
        "name": "西門司小学校",
        "address": "北九州市門司区東新町1-10-1",
        "lat": 33.893073,
        "lng": 130.92598
    },
    {
        "code": "B140210000100",
        "type": 16001,
        "name": "松ヶ江南小学校",
        "address": "北九州市門司区吉志2-20-1",
        "lat": 33.866605,
        "lng": 130.970116
    },
    {
        "code": "B140210000119",
        "type": 16001,
        "name": "松ヶ江北小学校",
        "address": "北九州市門司区大字畑518",
        "lat": 33.884103,
        "lng": 130.97992
    },
    {
        "code": "B140210000128",
        "type": 16001,
        "name": "萩ケ丘小学校",
        "address": "北九州市門司区寺内2-7-1",
        "lat": 33.9046,
        "lng": 130.945311
    },
    {
        "code": "B140210000137",
        "type": 16001,
        "name": "大里南小学校",
        "address": "北九州市門司区新原町15-1",
        "lat": 33.891129,
        "lng": 130.931591
    },
    {
        "code": "B140210000146",
        "type": 16001,
        "name": "藤松小学校",
        "address": "北九州市門司区藤松1-19-1",
        "lat": 33.887962,
        "lng": 130.925592
    },
    {
        "code": "B140210000155",
        "type": 16001,
        "name": "門司中央小学校",
        "address": "北九州市門司区東門司2-16-1",
        "lat": 33.946929,
        "lng": 130.974724
    },
    {
        "code": "B140210000164",
        "type": 16001,
        "name": "門司海青小学校",
        "address": "北九州市門司区清滝5-3-21",
        "lat": 33.942513,
        "lng": 130.966531
    },
    {
        "code": "B140210000173",
        "type": 16001,
        "name": "港が丘小学校",
        "address": "北九州市門司区清見1-18-38",
        "lat": 33.953095,
        "lng": 130.976029
    },
    {
        "code": "B140210000182",
        "type": 16001,
        "name": "深町小学校",
        "address": "北九州市若松区西畑町13-1",
        "lat": 33.910572,
        "lng": 130.793031
    },
    {
        "code": "B140210000191",
        "type": 16001,
        "name": "小石小学校",
        "address": "北九州市若松区宮前町3-1",
        "lat": 33.915734,
        "lng": 130.789214
    },
    {
        "code": "B140210000208",
        "type": 16001,
        "name": "修多羅小学校",
        "address": "北九州市若松区修多羅1-11-4",
        "lat": 33.900986,
        "lng": 130.801963
    },
    {
        "code": "B140210000217",
        "type": 16001,
        "name": "古前小学校",
        "address": "北九州市若松区古前2-19-36",
        "lat": 33.895959,
        "lng": 130.797325
    },
    {
        "code": "B140210000226",
        "type": 16001,
        "name": "藤木小学校",
        "address": "北九州市若松区今光1-18-1",
        "lat": 33.893903,
        "lng": 130.774104
    },
    {
        "code": "B140210000235",
        "type": 16001,
        "name": "二島小学校",
        "address": "北九州市若松区東二島5-13-1",
        "lat": 33.893514,
        "lng": 130.748662
    },
    {
        "code": "B140210000244",
        "type": 16001,
        "name": "花房小学校",
        "address": "北九州市若松区小竹2227",
        "lat": 33.907956,
        "lng": 130.741329
    },
    {
        "code": "B140210000253",
        "type": 16001,
        "name": "江川小学校",
        "address": "北九州市若松区乙丸5",
        "lat": 33.906789,
        "lng": 130.697944
    },
    {
        "code": "B140210000262",
        "type": 16001,
        "name": "赤崎小学校",
        "address": "北九州市若松区西小石町8-1",
        "lat": 33.920123,
        "lng": 130.790325
    },
    {
        "code": "B140210000271",
        "type": 16001,
        "name": "高須小学校",
        "address": "北九州市若松区高須東4-14-1",
        "lat": 33.890013,
        "lng": 130.694333
    },
    {
        "code": "B140210000280",
        "type": 16001,
        "name": "鴨生田小学校",
        "address": "北九州市若松区鴨生田4-13-1",
        "lat": 33.898124,
        "lng": 130.737135
    },
    {
        "code": "B140210000299",
        "type": 16001,
        "name": "青葉小学校",
        "address": "北九州市若松区青葉台西3-1-1",
        "lat": 33.898705,
        "lng": 130.688264
    },
    {
        "code": "B140210000306",
        "type": 16001,
        "name": "若松中央小学校",
        "address": "北九州市若松区白山2-1-1",
        "lat": 33.905651,
        "lng": 130.804856
    },
    {
        "code": "B140210000315",
        "type": 16001,
        "name": "ひびきの小学校",
        "address": "北九州市若松区ひびきの北8-26",
        "lat": 33.893137,
        "lng": 130.711417
    },
    {
        "code": "B140210000324",
        "type": 16001,
        "name": "牧山小学校",
        "address": "北九州市戸畑区丸町2-15-25",
        "lat": 33.891376,
        "lng": 130.818712
    },
    {
        "code": "B140210000333",
        "type": 16001,
        "name": "中原小学校",
        "address": "北九州市戸畑区中原西3-1-1",
        "lat": 33.893682,
        "lng": 130.84271
    },
    {
        "code": "B140210000342",
        "type": 16001,
        "name": "天籟寺小学校",
        "address": "北九州市戸畑区夜宮2-1-1",
        "lat": 33.886849,
        "lng": 130.832877
    },
    {
        "code": "B140210000351",
        "type": 16001,
        "name": "鞘ヶ谷小学校",
        "address": "北九州市戸畑区東鞘ヶ谷町4-1",
        "lat": 33.877712,
        "lng": 130.836544
    },
    {
        "code": "B140210000360",
        "type": 16001,
        "name": "一枝小学校",
        "address": "北九州市戸畑区一枝2-7-1",
        "lat": 33.884933,
        "lng": 130.840016
    },
    {
        "code": "B140210000379",
        "type": 16001,
        "name": "大谷小学校",
        "address": "北九州市戸畑区菅原4-6-1",
        "lat": 33.883405,
        "lng": 130.827795
    },
    {
        "code": "B140210000388",
        "type": 16001,
        "name": "あやめが丘小学校",
        "address": "北九州市戸畑区沢見2-3-1",
        "lat": 33.895323,
        "lng": 130.838057
    },
    {
        "code": "B140210000397",
        "type": 16001,
        "name": "戸畑中央小学校",
        "address": "北九州市戸畑区新池2-1-12",
        "lat": 33.897883,
        "lng": 130.829122
    },
    {
        "code": "B140210000404",
        "type": 16001,
        "name": "富野小学校",
        "address": "北九州市小倉北区常磐町3-1",
        "lat": 33.881546,
        "lng": 130.905455
    },
    {
        "code": "B140210000413",
        "type": 16001,
        "name": "桜丘小学校",
        "address": "北九州市小倉北区赤坂2-21-1",
        "lat": 33.886685,
        "lng": 130.909649
    },
    {
        "code": "B140210000422",
        "type": 16001,
        "name": "足立小学校",
        "address": "北九州市小倉北区宇佐町1-6-7",
        "lat": 33.877879,
        "lng": 130.890234
    },
    {
        "code": "B140210000431",
        "type": 16001,
        "name": "寿山小学校",
        "address": "北九州市小倉北区大畠3-10-1",
        "lat": 33.871241,
        "lng": 130.899817
    },
    {
        "code": "B140210000440",
        "type": 16001,
        "name": "三郎丸小学校",
        "address": "北九州市小倉北区三郎丸3-13-1",
        "lat": 33.86763,
        "lng": 130.888679
    },
    {
        "code": "B140210000459",
        "type": 16001,
        "name": "霧丘小学校",
        "address": "北九州市小倉北区霧ｹ丘1-12-1",
        "lat": 33.855382,
        "lng": 130.896873
    },
    {
        "code": "B140210000468",
        "type": 16001,
        "name": "藍島小学校",
        "address": "北九州市小倉北区大字藍島246-3",
        "lat": 33.992809,
        "lng": 130.817962
    },
    {
        "code": "B140210000477",
        "type": 16001,
        "name": "中島小学校",
        "address": "北九州市小倉北区昭和町16-1",
        "lat": 33.874324,
        "lng": 130.877318
    },
    {
        "code": "B140210000486",
        "type": 16001,
        "name": "貴船小学校",
        "address": "北九州市小倉北区白銀2-8-1",
        "lat": 33.868102,
        "lng": 130.874874
    },
    {
        "code": "B140210000495",
        "type": 16001,
        "name": "西小倉小学校",
        "address": "北九州市小倉北区城内6-1",
        "lat": 33.882989,
        "lng": 130.870596
    },
    {
        "code": "B140210000501",
        "type": 16001,
        "name": "日明小学校",
        "address": "北九州市小倉北区日明4-4-1",
        "lat": 33.891544,
        "lng": 130.858542
    },
    {
        "code": "B140210000510",
        "type": 16001,
        "name": "中井小学校",
        "address": "北九州市小倉北区中井2-12-1",
        "lat": 33.891016,
        "lng": 130.850042
    },
    {
        "code": "B140210000529",
        "type": 16001,
        "name": "到津小学校",
        "address": "北九州市小倉北区上到津1-9-1",
        "lat": 33.879295,
        "lng": 130.853043
    },
    {
        "code": "B140210000538",
        "type": 16001,
        "name": "井堀小学校",
        "address": "北九州市小倉北区井堀3-15-1",
        "lat": 33.88435,
        "lng": 130.846265
    },
    {
        "code": "B140210000547",
        "type": 16001,
        "name": "泉台小学校",
        "address": "北九州市小倉北区泉台1-3-1",
        "lat": 33.869546,
        "lng": 130.850682
    },
    {
        "code": "B140210000556",
        "type": 16001,
        "name": "清水小学校",
        "address": "北九州市小倉北区清水2-13-1",
        "lat": 33.873629,
        "lng": 130.861514
    },
    {
        "code": "B140210000565",
        "type": 16001,
        "name": "南小倉小学校",
        "address": "北九州市小倉北区新高田1-1-1",
        "lat": 33.868796,
        "lng": 130.864125
    },
    {
        "code": "B140210000574",
        "type": 16001,
        "name": "足原小学校",
        "address": "北九州市小倉北区足原2-8-1",
        "lat": 33.864437,
        "lng": 130.896428
    },
    {
        "code": "B140210000583",
        "type": 16001,
        "name": "南丘小学校",
        "address": "北九州市小倉北区南丘1-1-1",
        "lat": 33.85291,
        "lng": 130.869514
    },
    {
        "code": "B140210000592",
        "type": 16001,
        "name": "今町小学校",
        "address": "北九州市小倉北区今町3-19-1",
        "lat": 33.853826,
        "lng": 130.872236
    },
    {
        "code": "B140210000609",
        "type": 16001,
        "name": "小倉中央小学校",
        "address": "北九州市小倉北区堺町2-4-1",
        "lat": 33.881768,
        "lng": 130.886567
    },
    {
        "code": "B140210000618",
        "type": 16001,
        "name": "北方小学校",
        "address": "北九州市小倉南区北方2-2-1",
        "lat": 33.850604,
        "lng": 130.879625
    },
    {
        "code": "B140210000627",
        "type": 16001,
        "name": "城野小学校",
        "address": "北九州市小倉南区富士見3-2-1",
        "lat": 33.858937,
        "lng": 130.880763
    },
    {
        "code": "B140210000636",
        "type": 16001,
        "name": "徳力小学校",
        "address": "北九州市小倉南区徳力新町2-2-1",
        "lat": 33.834939,
        "lng": 130.867987
    },
    {
        "code": "B140210000645",
        "type": 16001,
        "name": "志井小学校",
        "address": "北九州市小倉南区大字志井280",
        "lat": 33.81469,
        "lng": 130.875702
    },
    {
        "code": "B140210000654",
        "type": 16001,
        "name": "横代小学校",
        "address": "北九州市小倉南区横代南町2-4-1",
        "lat": 33.830746,
        "lng": 130.891957
    },
    {
        "code": "B140210000663",
        "type": 16001,
        "name": "葛原小学校",
        "address": "北九州市小倉南区葛原4-24-1",
        "lat": 33.843856,
        "lng": 130.915649
    },
    {
        "code": "B140210000672",
        "type": 16001,
        "name": "吉田小学校",
        "address": "北九州市小倉南区中吉田1-3-1",
        "lat": 33.84694,
        "lng": 130.94973
    },
    {
        "code": "B140210000681",
        "type": 16001,
        "name": "曽根小学校",
        "address": "北九州市小倉南区中曽根3-9-1",
        "lat": 33.824414,
        "lng": 130.939787
    },
    {
        "code": "B140210000690",
        "type": 16001,
        "name": "貫小学校",
        "address": "北九州市小倉南区上貫3-1-1",
        "lat": 33.816526,
        "lng": 130.9214
    },
    {
        "code": "B140210000707",
        "type": 16001,
        "name": "朽網小学校",
        "address": "北九州市小倉南区朽網西5-12-1",
        "lat": 33.806489,
        "lng": 130.950257
    },
    {
        "code": "B140210000716",
        "type": 16001,
        "name": "新道寺小学校",
        "address": "北九州市小倉南区大字新道寺820-1",
        "lat": 33.786139,
        "lng": 130.869461
    },
    {
        "code": "B140210000725",
        "type": 16001,
        "name": "市丸小学校",
        "address": "北九州市小倉南区大字市丸472-2",
        "lat": 33.762864,
        "lng": 130.868045
    },
    {
        "code": "B140210000734",
        "type": 16001,
        "name": "長行小学校",
        "address": "北九州市小倉南区長行東3-8-1",
        "lat": 33.817858,
        "lng": 130.858849
    },
    {
        "code": "B140210000743",
        "type": 16001,
        "name": "合馬小学校",
        "address": "北九州市小倉南区大字合馬304",
        "lat": 33.812663,
        "lng": 130.832157
    },
    {
        "code": "B140210000752",
        "type": 16001,
        "name": "若園小学校",
        "address": "北九州市小倉南区若園3-14-22",
        "lat": 33.846549,
        "lng": 130.889874
    },
    {
        "code": "B140210000761",
        "type": 16001,
        "name": "広徳小学校",
        "address": "北九州市小倉南区南方4-1-1",
        "lat": 33.82944,
        "lng": 130.862043
    },
    {
        "code": "B140210000770",
        "type": 16001,
        "name": "企救丘小学校",
        "address": "北九州市小倉南区企救丘2-1-1",
        "lat": 33.822608,
        "lng": 130.876376
    },
    {
        "code": "B140210000789",
        "type": 16001,
        "name": "湯川小学校",
        "address": "北九州市小倉南区湯川新町1-8-1",
        "lat": 33.846772,
        "lng": 130.895151
    },
    {
        "code": "B140210000798",
        "type": 16001,
        "name": "沼小学校",
        "address": "北九州市小倉南区沼本町2-4-1",
        "lat": 33.848384,
        "lng": 130.938925
    },
    {
        "code": "B140210000805",
        "type": 16001,
        "name": "守恒小学校",
        "address": "北九州市小倉南区星和台2-1-1",
        "lat": 33.829912,
        "lng": 130.879708
    },
    {
        "code": "B140210000814",
        "type": 16001,
        "name": "曽根東小学校",
        "address": "北九州市小倉南区中曽根東3-5-1",
        "lat": 33.828664,
        "lng": 130.946619
    },
    {
        "code": "B140210000823",
        "type": 16001,
        "name": "田原小学校",
        "address": "北九州市小倉南区田原新町2-1-1",
        "lat": 33.829608,
        "lng": 130.927538
    },
    {
        "code": "B140210000832",
        "type": 16001,
        "name": "高蔵小学校",
        "address": "北九州市小倉南区上吉田3-11-1",
        "lat": 33.85805,
        "lng": 130.947813
    },
    {
        "code": "B140210000841",
        "type": 16001,
        "name": "長尾小学校",
        "address": "北九州市小倉南区長尾4-30-1",
        "lat": 33.822135,
        "lng": 130.856961
    },
    {
        "code": "B140210000850",
        "type": 16001,
        "name": "東朽網小学校",
        "address": "北九州市小倉南区朽網東3-4-1",
        "lat": 33.800945,
        "lng": 130.958841
    },
    {
        "code": "B140210000869",
        "type": 16001,
        "name": "すがお小学校",
        "address": "北九州市小倉南区大字山本393-6",
        "lat": 33.800602,
        "lng": 130.84832
    },
    {
        "code": "B140210000878",
        "type": 16001,
        "name": "高見小学校",
        "address": "北九州市八幡東区高見4-1-1",
        "lat": 33.868685,
        "lng": 130.837461
    },
    {
        "code": "B140210000887",
        "type": 16001,
        "name": "槻田小学校",
        "address": "北九州市八幡東区松尾町9-1",
        "lat": 33.861852,
        "lng": 130.841238
    },
    {
        "code": "B140210000896",
        "type": 16001,
        "name": "高槻小学校",
        "address": "北九州市八幡東区中畑2-5-1",
        "lat": 33.85527,
        "lng": 130.830712
    },
    {
        "code": "B140210000903",
        "type": 16001,
        "name": "祝町小学校",
        "address": "北九州市八幡東区祝町1-23-12",
        "lat": 33.861685,
        "lng": 130.827573
    },
    {
        "code": "B140210000912",
        "type": 16001,
        "name": "大蔵小学校",
        "address": "北九州市八幡東区勝山1-1-1",
        "lat": 33.858186,
        "lng": 130.820213
    },
    {
        "code": "B140210000921",
        "type": 16001,
        "name": "河内小学校",
        "address": "北九州市八幡東区河内1-7-2",
        "lat": 33.830105,
        "lng": 130.79941
    },
    {
        "code": "B140210000930",
        "type": 16001,
        "name": "枝光小学校",
        "address": "北九州市八幡東区枝光4-12-1",
        "lat": 33.881981,
        "lng": 130.818144
    },
    {
        "code": "B140210000949",
        "type": 16001,
        "name": "八幡小学校",
        "address": "北九州市八幡東区中央3-9-1",
        "lat": 33.866101,
        "lng": 130.813269
    },
    {
        "code": "B140210000958",
        "type": 16001,
        "name": "皿倉小学校",
        "address": "北九州市八幡東区尾倉1-15-1",
        "lat": 33.863046,
        "lng": 130.801075
    },
    {
        "code": "B140210000967",
        "type": 16001,
        "name": "ひびきが丘小学校",
        "address": "北九州市八幡東区諏訪2-7-1",
        "lat": 33.871795,
        "lng": 130.822879
    },
    {
        "code": "B140210000976",
        "type": 16001,
        "name": "花尾小学校",
        "address": "北九州市八幡東区祇園1-6-1",
        "lat": 33.859907,
        "lng": 130.789382
    },
    {
        "code": "B140210000985",
        "type": 16001,
        "name": "光貞小学校",
        "address": "北九州市八幡西区光貞台1-4-1",
        "lat": 33.882375,
        "lng": 130.714499
    },
    {
        "code": "B140210000994",
        "type": 16001,
        "name": "赤坂小学校",
        "address": "北九州市八幡西区本城東5-6-1",
        "lat": 33.872182,
        "lng": 130.729109
    },
    {
        "code": "B140210001001",
        "type": 16001,
        "name": "千代小学校",
        "address": "北九州市八幡西区千代5-17-1",
        "lat": 33.808523,
        "lng": 130.738416
    },
    {
        "code": "B140210001010",
        "type": 16001,
        "name": "浅川小学校",
        "address": "北九州市八幡西区浅川町10-1",
        "lat": 33.882083,
        "lng": 130.696321
    },
    {
        "code": "B140210001029",
        "type": 16001,
        "name": "鳴水小学校",
        "address": "北九州市八幡西区東鳴水1-1-1",
        "lat": 33.859185,
        "lng": 130.770606
    },
    {
        "code": "B140210001038",
        "type": 16001,
        "name": "黒畑小学校",
        "address": "北九州市八幡西区西鳴水2-4-1",
        "lat": 33.852852,
        "lng": 130.767717
    },
    {
        "code": "B140210001047",
        "type": 16001,
        "name": "熊西小学校",
        "address": "北九州市八幡西区西曲里町7-1",
        "lat": 33.857435,
        "lng": 130.760379
    },
    {
        "code": "B140210001056",
        "type": 16001,
        "name": "筒井小学校",
        "address": "北九州市八幡西区筒井町3-1",
        "lat": 33.864101,
        "lng": 130.759773
    },
    {
        "code": "B140210001065",
        "type": 16001,
        "name": "穴生小学校",
        "address": "北九州市八幡西区穴生1-13-1",
        "lat": 33.860823,
        "lng": 130.743942
    },
    {
        "code": "B140210001074",
        "type": 16001,
        "name": "萩原小学校",
        "address": "北九州市八幡西区萩原3-5-1",
        "lat": 33.856407,
        "lng": 130.750386
    },
    {
        "code": "B140210001083",
        "type": 16001,
        "name": "引野小学校",
        "address": "北九州市八幡西区引野3-15-1",
        "lat": 33.845714,
        "lng": 130.751136
    },
    {
        "code": "B140210001092",
        "type": 16001,
        "name": "上津役小学校",
        "address": "北九州市八幡西区上の原1-4-1",
        "lat": 33.835437,
        "lng": 130.759552
    },
    {
        "code": "B140210001109",
        "type": 16001,
        "name": "則松小学校",
        "address": "北九州市八幡西区則松2-1-1",
        "lat": 33.859767,
        "lng": 130.717694
    },
    {
        "code": "B140210001118",
        "type": 16001,
        "name": "本城小学校",
        "address": "北九州市八幡西区本城1-23-1",
        "lat": 33.879209,
        "lng": 130.729331
    },
    {
        "code": "B140210001127",
        "type": 16001,
        "name": "永犬丸小学校",
        "address": "北九州市八幡西区美原町9-1",
        "lat": 33.839603,
        "lng": 130.741026
    },
    {
        "code": "B140210001136",
        "type": 16001,
        "name": "折尾東小学校",
        "address": "北九州市八幡西区光明1-2-1",
        "lat": 33.868071,
        "lng": 130.722304
    },
    {
        "code": "B140210001145",
        "type": 16001,
        "name": "香月小学校",
        "address": "北九州市八幡西区香月中央3-3-1",
        "lat": 33.801079,
        "lng": 130.728056
    },
    {
        "code": "B140210001154",
        "type": 16001,
        "name": "池田小学校",
        "address": "北九州市八幡西区池田3-2-1",
        "lat": 33.798858,
        "lng": 130.746804
    },
    {
        "code": "B140210001163",
        "type": 16001,
        "name": "星ヶ丘小学校",
        "address": "北九州市八幡西区星ヶ丘2-7-1",
        "lat": 33.77346,
        "lng": 130.753497
    },
    {
        "code": "B140210001172",
        "type": 16001,
        "name": "楠橋小学校",
        "address": "北九州市八幡西区楠橋上方1-3-1",
        "lat": 33.794941,
        "lng": 130.732889
    },
    {
        "code": "B140210001181",
        "type": 16001,
        "name": "木屋瀬小学校",
        "address": "北九州市八幡西区野面630",
        "lat": 33.778554,
        "lng": 130.728667
    },
    {
        "code": "B140210001190",
        "type": 16001,
        "name": "大原小学校",
        "address": "北九州市八幡西区町上津役東1-12-1",
        "lat": 33.824994,
        "lng": 130.753886
    },
    {
        "code": "B140210001207",
        "type": 16001,
        "name": "折尾西小学校",
        "address": "北九州市八幡西区西折尾町15-1",
        "lat": 33.857878,
        "lng": 130.707778
    },
    {
        "code": "B140210001216",
        "type": 16001,
        "name": "塔野小学校",
        "address": "北九州市八幡西区塔野1-3-1",
        "lat": 33.824688,
        "lng": 130.737832
    },
    {
        "code": "B140210001225",
        "type": 16001,
        "name": "竹末小学校",
        "address": "北九州市八幡西区竹末1-18-1",
        "lat": 33.849713,
        "lng": 130.743359
    },
    {
        "code": "B140210001234",
        "type": 16001,
        "name": "青山小学校",
        "address": "北九州市八幡西区青山1-7-1",
        "lat": 33.862128,
        "lng": 130.752302
    },
    {
        "code": "B140210001243",
        "type": 16001,
        "name": "永犬丸西小学校",
        "address": "北九州市八幡西区永犬丸西町4-4-1",
        "lat": 33.835825,
        "lng": 130.726555
    },
    {
        "code": "B140210001252",
        "type": 16001,
        "name": "八児小学校",
        "address": "北九州市八幡西区町上津役西4-5-1",
        "lat": 33.82046,
        "lng": 130.75164
    },
    {
        "code": "B140210001261",
        "type": 16001,
        "name": "中尾小学校",
        "address": "北九州市八幡西区下上津役1-6-1",
        "lat": 33.829965,
        "lng": 130.742082
    },
    {
        "code": "B140210001270",
        "type": 16001,
        "name": "八枝小学校",
        "address": "北九州市八幡西区八枝4-5-1",
        "lat": 33.847018,
        "lng": 130.729229
    },
    {
        "code": "B140210001289",
        "type": 16001,
        "name": "医生丘小学校",
        "address": "北九州市八幡西区千代ヶ崎2-10-1",
        "lat": 33.877737,
        "lng": 130.718276
    },
    {
        "code": "B140210001298",
        "type": 16001,
        "name": "黒崎中央小学校",
        "address": "北九州市八幡西区藤田4-4-24",
        "lat": 33.862893,
        "lng": 130.770745
    },
    {
        "code": "B140310000019",
        "type": 16001,
        "name": "敬愛小学校",
        "address": "北九州市門司区大里新町11-7",
        "lat": 33.894413,
        "lng": 130.922522
    },
    {
        "code": "B140310000028",
        "type": 16001,
        "name": "明治学園小学校",
        "address": "北九州市戸畑区仙水町5-1",
        "lat": 33.888782,
        "lng": 130.839263
    },
    {
        "code": "B140310000037",
        "type": 16001,
        "name": "北九州子どもの村小学校",
        "address": "北九州市小倉南区平尾台2-5-24",
        "lat": 33.757926,
        "lng": 130.895526
    },
    {
        "code": "C140110000020",
        "type": 16002,
        "name": "福岡教育大学附属小倉中学校",
        "address": "北九州市小倉北区下富野3-12-1",
        "lat": 33.88024,
        "lng": 130.897705
    },
    {
        "code": "C140210000019",
        "type": 16002,
        "name": "早鞆中学校",
        "address": "北九州市門司区清見3-13-1",
        "lat": 33.950224,
        "lng": 130.982573
    },
    {
        "code": "C140210000028",
        "type": 16002,
        "name": "戸ノ上中学校",
        "address": "北九州市門司区寺内4-1-1",
        "lat": 33.905794,
        "lng": 130.950394
    },
    {
        "code": "C140210000037",
        "type": 16002,
        "name": "柳西中学校",
        "address": "北九州市門司区柳原町1-1",
        "lat": 33.898156,
        "lng": 130.934146
    },
    {
        "code": "C140210000046",
        "type": 16002,
        "name": "松ヶ江中学校",
        "address": "北九州市門司区大字畑2077",
        "lat": 33.873021,
        "lng": 130.973394
    },
    {
        "code": "C140210000055",
        "type": 16002,
        "name": "東郷中学校",
        "address": "北九州市門司区黒川西1-9-1",
        "lat": 33.923274,
        "lng": 130.980572
    },
    {
        "code": "C140210000064",
        "type": 16002,
        "name": "緑丘中学校",
        "address": "北九州市門司区緑ｹ丘6-1",
        "lat": 33.883491,
        "lng": 130.930758
    },
    {
        "code": "C140210000073",
        "type": 16002,
        "name": "門司中学校",
        "address": "北九州市門司区丸山2-5-1",
        "lat": 33.938958,
        "lng": 130.969614
    },
    {
        "code": "C140210000082",
        "type": 16002,
        "name": "門司学園中学校",
        "address": "北九州市門司区猿喰1462-2",
        "lat": 33.895109,
        "lng": 130.985456
    },
    {
        "code": "C140210000091",
        "type": 16002,
        "name": "向洋中学校",
        "address": "北九州市若松区小石本村町21-1",
        "lat": 33.918845,
        "lng": 130.780242
    },
    {
        "code": "C140210000108",
        "type": 16002,
        "name": "石峯中学校",
        "address": "北九州市若松区今光1-12-8",
        "lat": 33.893986,
        "lng": 130.776215
    },
    {
        "code": "C140210000117",
        "type": 16002,
        "name": "洞北中学校",
        "address": "北九州市若松区大字竹並3087-1",
        "lat": 33.903512,
        "lng": 130.722775
    },
    {
        "code": "C140210000126",
        "type": 16002,
        "name": "高須中学校",
        "address": "北九州市若松区高須北1-1-1",
        "lat": 33.893624,
        "lng": 130.693
    },
    {
        "code": "C140210000135",
        "type": 16002,
        "name": "若松中学校",
        "address": "北九州市若松区白山2-12-45",
        "lat": 33.907777,
        "lng": 130.80178
    },
    {
        "code": "C140210000144",
        "type": 16002,
        "name": "二島中学校",
        "address": "北九州市若松区二島4-5-1",
        "lat": 33.896402,
        "lng": 130.746884
    },
    {
        "code": "C140210000153",
        "type": 16002,
        "name": "中原中学校",
        "address": "北九州市戸畑区境川2-6-1",
        "lat": 33.892127,
        "lng": 130.843737
    },
    {
        "code": "C140210000162",
        "type": 16002,
        "name": "大谷中学校",
        "address": "北九州市戸畑区東大谷1-9-1",
        "lat": 33.879739,
        "lng": 130.829683
    },
    {
        "code": "C140210000171",
        "type": 16002,
        "name": "高生中学校",
        "address": "北九州市戸畑区高峰1-6-1",
        "lat": 33.888932,
        "lng": 130.824295
    },
    {
        "code": "C140210000180",
        "type": 16002,
        "name": "飛幡中学校",
        "address": "北九州市戸畑区小芝1-8-20",
        "lat": 33.893153,
        "lng": 130.835176
    },
    {
        "code": "C140210000199",
        "type": 16002,
        "name": "足立中学校",
        "address": "北九州市小倉北区萩崎町3-1",
        "lat": 33.875629,
        "lng": 130.885484
    },
    {
        "code": "C140210000206",
        "type": 16002,
        "name": "霧丘中学校",
        "address": "北九州市小倉北区黒原3-17-1",
        "lat": 33.861492,
        "lng": 130.896734
    },
    {
        "code": "C140210000215",
        "type": 16002,
        "name": "菊陵中学校",
        "address": "北九州市小倉北区下富野1-2-1",
        "lat": 33.882601,
        "lng": 130.893956
    },
    {
        "code": "C140210000224",
        "type": 16002,
        "name": "富野中学校",
        "address": "北九州市小倉北区常盤町8-1",
        "lat": 33.880741,
        "lng": 130.907066
    },
    {
        "code": "C140210000233",
        "type": 16002,
        "name": "白銀中学校",
        "address": "北九州市小倉北区白銀1-13-1",
        "lat": 33.870047,
        "lng": 130.875319
    },
    {
        "code": "C140210000242",
        "type": 16002,
        "name": "思永中学校",
        "address": "北九州市小倉北区大門1-5-1",
        "lat": 33.885017,
        "lng": 130.871235
    },
    {
        "code": "C140210000251",
        "type": 16002,
        "name": "篠崎中学校",
        "address": "北九州市小倉北区原町2-8-1",
        "lat": 33.875157,
        "lng": 130.864792
    },
    {
        "code": "C140210000260",
        "type": 16002,
        "name": "板櫃中学校",
        "address": "北九州市小倉北区白萩町8-1",
        "lat": 33.885239,
        "lng": 130.854403
    },
    {
        "code": "C140210000279",
        "type": 16002,
        "name": "南小倉中学校",
        "address": "北九州市小倉北区高尾1-4-1",
        "lat": 33.866908,
        "lng": 130.858931
    },
    {
        "code": "C140210000288",
        "type": 16002,
        "name": "企救中学校",
        "address": "北九州市小倉南区南若園町1-1",
        "lat": 33.843189,
        "lng": 130.885458
    },
    {
        "code": "C140210000297",
        "type": 16002,
        "name": "城南中学校",
        "address": "北九州市小倉南区富士見3-3-1",
        "lat": 33.860048,
        "lng": 130.880652
    },
    {
        "code": "C140210000304",
        "type": 16002,
        "name": "曽根中学校",
        "address": "北九州市小倉南区中曽根2-13-1",
        "lat": 33.823692,
        "lng": 130.938092
    },
    {
        "code": "C140210000313",
        "type": 16002,
        "name": "菅生中学校",
        "address": "北九州市小倉南区徳吉南2-2-1",
        "lat": 33.808553,
        "lng": 130.85335
    },
    {
        "code": "C140210000322",
        "type": 16002,
        "name": "東谷中学校",
        "address": "北九州市小倉南区木下499-1",
        "lat": 33.777307,
        "lng": 130.864545
    },
    {
        "code": "C140210000331",
        "type": 16002,
        "name": "志徳中学校",
        "address": "北九州市小倉南区企救丘4-4-1",
        "lat": 33.826579,
        "lng": 130.873737
    },
    {
        "code": "C140210000340",
        "type": 16002,
        "name": "沼中学校",
        "address": "北九州市小倉南区沼緑町1-1-1",
        "lat": 33.84269,
        "lng": 130.932065
    },
    {
        "code": "C140210000359",
        "type": 16002,
        "name": "横代中学校",
        "address": "北九州市小倉南区横代北町3-5-1",
        "lat": 33.833496,
        "lng": 130.896485
    },
    {
        "code": "C140210000368",
        "type": 16002,
        "name": "湯川中学校",
        "address": "北九州市小倉南区湯川新町4-25-1",
        "lat": 33.839578,
        "lng": 130.904178
    },
    {
        "code": "C140210000377",
        "type": 16002,
        "name": "南曽根中学校",
        "address": "北九州市小倉南区上曽根5-12-1",
        "lat": 33.812721,
        "lng": 130.944592
    },
    {
        "code": "C140210000386",
        "type": 16002,
        "name": "広徳中学校",
        "address": "北九州市小倉南区南方4-13-1",
        "lat": 33.829801,
        "lng": 130.859266
    },
    {
        "code": "C140210000395",
        "type": 16002,
        "name": "吉田中学校",
        "address": "北九州市小倉南区中吉田3-8-1",
        "lat": 33.845801,
        "lng": 130.950563
    },
    {
        "code": "C140210000402",
        "type": 16002,
        "name": "田原中学校",
        "address": "北九州市小倉南区田原5-1-1",
        "lat": 33.822775,
        "lng": 130.929788
    },
    {
        "code": "C140210000411",
        "type": 16002,
        "name": "守恒中学校",
        "address": "北九州市小倉南区葉山町3-3-10",
        "lat": 33.834995,
        "lng": 130.882208
    },
    {
        "code": "C140210000420",
        "type": 16002,
        "name": "枝光台中学校",
        "address": "北九州市八幡東区枝光5-8-1",
        "lat": 33.882216,
        "lng": 130.819699
    },
    {
        "code": "C140210000439",
        "type": 16002,
        "name": "槻田中学校",
        "address": "北九州市八幡東区宮の町1-5-1",
        "lat": 33.861463,
        "lng": 130.832461
    },
    {
        "code": "C140210000448",
        "type": 16002,
        "name": "高見中学校",
        "address": "北九州市八幡東区高見4-4-1",
        "lat": 33.870935,
        "lng": 130.838961
    },
    {
        "code": "C140210000457",
        "type": 16002,
        "name": "大蔵中学校",
        "address": "北九州市八幡東区大蔵1-4-1",
        "lat": 33.865574,
        "lng": 130.821962
    },
    {
        "code": "C140210000466",
        "type": 16002,
        "name": "中央中学校",
        "address": "北九州市八幡東区中央3-9-2",
        "lat": 33.866712,
        "lng": 130.813407
    },
    {
        "code": "C140210000475",
        "type": 16002,
        "name": "尾倉中学校",
        "address": "北九州市八幡東区尾倉3-10-1",
        "lat": 33.862324,
        "lng": 130.795159
    },
    {
        "code": "C140210000484",
        "type": 16002,
        "name": "花尾中学校",
        "address": "北九州市八幡東区桃園4-4-1",
        "lat": 33.861129,
        "lng": 130.78291
    },
    {
        "code": "C140210000493",
        "type": 16002,
        "name": "黒崎中学校",
        "address": "北九州市八幡西区西鳴水1-1-1",
        "lat": 33.854324,
        "lng": 130.768078
    },
    {
        "code": "C140210000509",
        "type": 16002,
        "name": "熊西中学校",
        "address": "北九州市八幡西区山寺町4-1",
        "lat": 33.862573,
        "lng": 130.757024
    },
    {
        "code": "C140210000518",
        "type": 16002,
        "name": "穴生中学校",
        "address": "北九州市八幡西区萩原3-6-1",
        "lat": 33.856851,
        "lng": 130.751719
    },
    {
        "code": "C140210000527",
        "type": 16002,
        "name": "引野中学校",
        "address": "北九州市八幡西区別所町14-1",
        "lat": 33.849241,
        "lng": 130.758857
    },
    {
        "code": "C140210000536",
        "type": 16002,
        "name": "折尾中学校",
        "address": "北九州市八幡西区中須1-3-1",
        "lat": 33.867294,
        "lng": 130.726637
    },
    {
        "code": "C140210000545",
        "type": 16002,
        "name": "本城中学校",
        "address": "北九州市八幡西区本城東6-14-1",
        "lat": 33.873877,
        "lng": 130.729192
    },
    {
        "code": "C140210000554",
        "type": 16002,
        "name": "上津役中学校",
        "address": "北九州市八幡西区上上津役3-12-1",
        "lat": 33.828855,
        "lng": 130.755108
    },
    {
        "code": "C140210000563",
        "type": 16002,
        "name": "香月中学校",
        "address": "北九州市八幡西区香月中央5-6-1",
        "lat": 33.796635,
        "lng": 130.735222
    },
    {
        "code": "C140210000572",
        "type": 16002,
        "name": "木屋瀬中学校",
        "address": "北九州市八幡西区大字野面1942-5",
        "lat": 33.780304,
        "lng": 130.747888
    },
    {
        "code": "C140210000581",
        "type": 16002,
        "name": "沖田中学校",
        "address": "北九州市八幡西区沖田4-18-1",
        "lat": 33.831937,
        "lng": 130.741082
    },
    {
        "code": "C140210000590",
        "type": 16002,
        "name": "永犬丸中学校",
        "address": "北九州市八幡西区永犬丸4-5-1",
        "lat": 33.842408,
        "lng": 130.732082
    },
    {
        "code": "C140210000607",
        "type": 16002,
        "name": "則松中学校",
        "address": "北九州市八幡西区則松3-5-1",
        "lat": 33.856073,
        "lng": 130.718166
    },
    {
        "code": "C140210000616",
        "type": 16002,
        "name": "八児中学校",
        "address": "北九州市八幡西区町上津役西4-16-1",
        "lat": 33.819494,
        "lng": 130.749859
    },
    {
        "code": "C140210000625",
        "type": 16002,
        "name": "浅川中学校",
        "address": "北九州市八幡西区浅川学園台2-4-1",
        "lat": 33.882153,
        "lng": 130.70736
    },
    {
        "code": "C140210000634",
        "type": 16002,
        "name": "千代中学校",
        "address": "北九州市八幡西区千代2-23-1",
        "lat": 33.806357,
        "lng": 130.743499
    },
    {
        "code": "C140310000017",
        "type": 16002,
        "name": "敬愛中学校",
        "address": "北九州市門司区別院6-1",
        "lat": 33.894432,
        "lng": 130.934844
    },
    {
        "code": "C140310000026",
        "type": 16002,
        "name": "明治学園中学校",
        "address": "北九州市戸畑区仙水町5-1",
        "lat": 33.88871,
        "lng": 130.839266
    },
    {
        "code": "C140310000035",
        "type": 16002,
        "name": "西南女学院中学校",
        "address": "北九州市小倉北区上到津1-10-1",
        "lat": 33.879712,
        "lng": 130.851432
    },
    {
        "code": "C140310000044",
        "type": 16002,
        "name": "照曜館中学校",
        "address": "北九州市小倉北区清水4-10-1",
        "lat": 33.871246,
        "lng": 130.858267
    },
    {
        "code": "C140310000053",
        "type": 16002,
        "name": "小倉日新館中学校",
        "address": "北九州市小倉北区片野新町1-3-1",
        "lat": 33.865492,
        "lng": 130.885152
    },
    {
        "code": "C140310000062",
        "type": 16002,
        "name": "北九州子どもの村中学校",
        "address": "北九州市小倉南区平尾台2-5-24",
        "lat": 33.757624,
        "lng": 130.895656
    },
    {
        "code": "C140310000071",
        "type": 16002,
        "name": "九州国際大学付属中学校",
        "address": "北九州市八幡東区枝光5-9-1",
        "lat": 33.881274,
        "lng": 130.820961
    },
    {
        "code": "C140310000080",
        "type": 16002,
        "name": "折尾愛真中学校",
        "address": "北九州市八幡西区堀川町12-10",
        "lat": 33.860112,
        "lng": 130.709731
    },
    {
        "code": "D140210000017",
        "type": 16004,
        "name": "門司大翔館高等学校",
        "address": "北九州市門司区藤松2-7-1",
        "lat": 33.884796,
        "lng": 130.925786
    },
    {
        "code": "D140210000026",
        "type": 16004,
        "name": "門司学園高等学校",
        "address": "北九州市門司区猿喰1462-2",
        "lat": 33.895713,
        "lng": 130.985225
    },
    {
        "code": "D140210000035",
        "type": 16004,
        "name": "若松高等学校",
        "address": "北九州市若松区上原町15-13",
        "lat": 33.912624,
        "lng": 130.792297
    },
    {
        "code": "D140210000044",
        "type": 16004,
        "name": "若松商業高等学校",
        "address": "北九州市若松区片山3-2-1",
        "lat": 33.899402,
        "lng": 130.74594
    },
    {
        "code": "D140210000053",
        "type": 16004,
        "name": "戸畑高等学校",
        "address": "北九州市戸畑区夜宮3-1-1",
        "lat": 33.885155,
        "lng": 130.833877
    },
    {
        "code": "D140210000062",
        "type": 16004,
        "name": "ひびき高等学校",
        "address": "北九州市戸畑区天籟寺1-2-1",
        "lat": 33.890293,
        "lng": 130.832072
    },
    {
        "code": "D140210000071",
        "type": 16004,
        "name": "戸畑工業高等学校",
        "address": "北九州市戸畑区丸町3-10-1",
        "lat": 33.888849,
        "lng": 130.818184
    },
    {
        "code": "D140210000080",
        "type": 16004,
        "name": "北九州市立高等学校",
        "address": "北九州市戸畑区浅生1-10-1",
        "lat": 33.89121,
        "lng": 130.827406
    },
    {
        "code": "D140210000099",
        "type": 16004,
        "name": "小倉高等学校",
        "address": "北九州市小倉北区愛宕2-8-1",
        "lat": 33.886711,
        "lng": 130.862847
    },
    {
        "code": "D140210000106",
        "type": 16004,
        "name": "小倉工業高等学校",
        "address": "北九州市小倉北区白萩町6-1",
        "lat": 33.883517,
        "lng": 130.855264
    },
    {
        "code": "D140210000115",
        "type": 16004,
        "name": "小倉西高等学校",
        "address": "北九州市小倉北区下到津5-7-1",
        "lat": 33.874685,
        "lng": 130.856792
    },
    {
        "code": "D140210000124",
        "type": 16004,
        "name": "小倉南高等学校",
        "address": "北九州市小倉南区富士見1-9-1",
        "lat": 33.857243,
        "lng": 130.882874
    },
    {
        "code": "D140210000133",
        "type": 16004,
        "name": "小倉商業高等学校",
        "address": "北九州市小倉南区富士見3-5-1",
        "lat": 33.860298,
        "lng": 130.878652
    },
    {
        "code": "D140210000142",
        "type": 16004,
        "name": "北九州高等学校",
        "address": "北九州市小倉南区若園5-1-1",
        "lat": 33.847022,
        "lng": 130.883069
    },
    {
        "code": "D140210000151",
        "type": 16004,
        "name": "小倉東高等学校",
        "address": "北九州市小倉南区田原5-2-1",
        "lat": 33.821553,
        "lng": 130.931149
    },
    {
        "code": "D140210000160",
        "type": 16004,
        "name": "八幡高等学校",
        "address": "北九州市八幡東区清田3-1-1",
        "lat": 33.857964,
        "lng": 130.839905
    },
    {
        "code": "D140210000179",
        "type": 16004,
        "name": "八幡中央高等学校",
        "address": "北九州市八幡西区元城町1-1",
        "lat": 33.855241,
        "lng": 130.785299
    },
    {
        "code": "D140210000188",
        "type": 16004,
        "name": "八幡工業高等学校",
        "address": "北九州市八幡西区別所町1-1",
        "lat": 33.846547,
        "lng": 130.760135
    },
    {
        "code": "D140210000197",
        "type": 16004,
        "name": "八幡南高等学校",
        "address": "北九州市八幡西区的場町6-1",
        "lat": 33.840408,
        "lng": 130.744053
    },
    {
        "code": "D140210000204",
        "type": 16004,
        "name": "東筑高等学校",
        "address": "北九州市八幡西区東筑1-1-1",
        "lat": 33.859406,
        "lng": 130.715388
    },
    {
        "code": "D140210000213",
        "type": 16004,
        "name": "折尾高等学校",
        "address": "北九州市八幡西区大膳2-23-1",
        "lat": 33.853128,
        "lng": 130.707389
    },
    {
        "code": "D140210000222",
        "type": 16004,
        "name": "北筑高等学校",
        "address": "北九州市八幡西区北筑1-1-1",
        "lat": 33.848841,
        "lng": 130.733526
    },
    {
        "code": "D140310000015",
        "type": 16004,
        "name": "豊國学園高等学校",
        "address": "北九州市門司区柳町4-5-1",
        "lat": 33.900628,
        "lng": 130.941451
    },
    {
        "code": "D140310000024",
        "type": 16004,
        "name": "敬愛高等学校",
        "address": "北九州市門司区別院6-1",
        "lat": 33.894323,
        "lng": 130.934813
    },
    {
        "code": "D140310000033",
        "type": 16004,
        "name": "高稜高等学校",
        "address": "北九州市若松区二島1-3-60",
        "lat": 33.891097,
        "lng": 130.745496
    },
    {
        "code": "D140310000042",
        "type": 16004,
        "name": "明治学園高等学校",
        "address": "北九州市戸畑区仙水町5-1",
        "lat": 33.888794,
        "lng": 130.840293
    },
    {
        "code": "D140310000051",
        "type": 16004,
        "name": "西南女学院高等学校",
        "address": "北九州市小倉北区上到津1-10-1",
        "lat": 33.879823,
        "lng": 130.85232
    },
    {
        "code": "D140310000060",
        "type": 16004,
        "name": "美萩野女子高等学校",
        "address": "北九州市小倉北区片野新町1‐3‐1",
        "lat": 33.864547,
        "lng": 130.884707
    },
    {
        "code": "D140310000079",
        "type": 16004,
        "name": "東筑紫学園高等学校",
        "address": "北九州市小倉北区清水4-10-1",
        "lat": 33.871185,
        "lng": 130.858292
    },
    {
        "code": "D140310000088",
        "type": 16004,
        "name": "真颯館高等学校",
        "address": "北九州市小倉北区中井口5-1",
        "lat": 33.897238,
        "lng": 130.852098
    },
    {
        "code": "D140310000097",
        "type": 16004,
        "name": "慶成高等学校",
        "address": "北九州市小倉北区皿山町15-1",
        "lat": 33.86788,
        "lng": 130.857459
    },
    {
        "code": "D140310000104",
        "type": 16004,
        "name": "常磐高等学校",
        "address": "北九州市小倉南区大字志井1937",
        "lat": 33.814664,
        "lng": 130.879959
    },
    {
        "code": "D140310000113",
        "type": 16004,
        "name": "九州国際大学付属高等学校",
        "address": "北九州市八幡東区枝光5-9-1",
        "lat": 33.881174,
        "lng": 130.821017
    },
    {
        "code": "D140310000122",
        "type": 16004,
        "name": "折尾愛真高等学校",
        "address": "北九州市八幡西区堀川町12-10",
        "lat": 33.860017,
        "lng": 130.70975
    },
    {
        "code": "D140310000131",
        "type": 16004,
        "name": "星琳高等学校",
        "address": "北九州市八幡西区青山3-3-1",
        "lat": 33.857546,
        "lng": 130.753163
    },
    {
        "code": "D140310000140",
        "type": 16004,
        "name": "自由ケ丘高等学校",
        "address": "北九州市八幡西区自由ｹ丘1-3",
        "lat": 33.869325,
        "lng": 130.707844
    },
    {
        "code": "D140310000159",
        "type": 16004,
        "name": "仰星学園高等学校",
        "address": "北九州市八幡西区平尾町1-1",
        "lat": 33.859624,
        "lng": 130.778196
    },
    {
        "code": "E140210000014",
        "type": 16012,
        "name": "北九州視覚特別支援学校",
        "address": "北九州市八幡東区高見5-1-12",
        "lat": 33.870962,
        "lng": 130.835822
    },
    {
        "code": "E140210000023",
        "type": 16012,
        "name": "小倉聴覚特別支援学校",
        "address": "北九州市小倉北区三郎丸2-9-1",
        "lat": 33.864881,
        "lng": 130.890873
    },
    {
        "code": "E140210000032",
        "type": 16012,
        "name": "門司総合特別支援学校",
        "address": "北九州市門司区矢筈町13-1",
        "lat": 33.944561,
        "lng": 131.013694
    },
    {
        "code": "E140210000041",
        "type": 16012,
        "name": "小池特別支援学校",
        "address": "北九州市若松区小敷583-1",
        "lat": 33.88493,
        "lng": 130.705019
    },
    {
        "code": "E140210000050",
        "type": 16012,
        "name": "北九州中央高等学園",
        "address": "北九州市戸畑区沢見1-3-47",
        "lat": 33.889928,
        "lng": 130.837025
    },
    {
        "code": "E140210000069",
        "type": 16012,
        "name": "小倉北特別支援学校",
        "address": "北九州市小倉北区下到津4-3-1",
        "lat": 33.879173,
        "lng": 130.856552
    },
    {
        "code": "E140210000078",
        "type": 16012,
        "name": "小倉南特別支援学校",
        "address": "北九州市小倉南区若園4-1-1",
        "lat": 33.848046,
        "lng": 130.885606
    },
    {
        "code": "E140210000087",
        "type": 16012,
        "name": "小倉総合特別支援学校",
        "address": "北九州市小倉南区春ｹ丘10-3",
        "lat": 33.85056,
        "lng": 130.884849
    },
    {
        "code": "E140210000096",
        "type": 16012,
        "name": "八幡特別支援学校",
        "address": "北九州市八幡西区鷹の巣3-7-1",
        "lat": 33.854377,
        "lng": 130.743981
    },
    {
        "code": "E140210000103",
        "type": 16012,
        "name": "八幡西特別支援学校",
        "address": "北九州市八幡西区下上津役4-8-2",
        "lat": 33.826858,
        "lng": 130.748803
    },
    {
        "code": "F140110110574",
        "type": 16007,
        "name": "九州工業大学",
        "address": "北九州市戸畑区仙水町1-1",
        "lat": 33.89346,
        "lng": 130.840043
    },
    {
        "code": "F140210110607",
        "type": 16007,
        "name": "北九州市立大学",
        "address": "北九州市小倉南区北方4-2-1",
        "lat": 33.844188,
        "lng": 130.87893
    },
    {
        "code": "F140210110616",
        "type": 16007,
        "name": "九州歯科大学",
        "address": "北九州市小倉北区真鶴2-6-1",
        "lat": 33.871935,
        "lng": 130.853959
    },
    {
        "code": "F140310110641",
        "type": 16007,
        "name": "九州共立大学",
        "address": "北九州市八幡西区自由ｹ丘1-8",
        "lat": 33.870904,
        "lng": 130.7055
    },
    {
        "code": "F140310110650",
        "type": 16007,
        "name": "九州女子大学",
        "address": "北九州市八幡西区自由ヶ丘1-1",
        "lat": 33.86871,
        "lng": 130.706805
    },
    {
        "code": "F140310110669",
        "type": 16007,
        "name": "九州国際大学",
        "address": "北九州市八幡東区平野1-6-1",
        "lat": 33.86273,
        "lng": 130.792993
    },
    {
        "code": "F140310110785",
        "type": 16007,
        "name": "産業医科大学",
        "address": "北九州市八幡西区医生ｹ丘1-1",
        "lat": 33.878681,
        "lng": 130.711999
    },
    {
        "code": "F140310110810",
        "type": 16007,
        "name": "西南女学院大学",
        "address": "北九州市小倉北区井堀1-3-5",
        "lat": 33.883562,
        "lng": 130.850067
    },
    {
        "code": "F140310110838",
        "type": 16007,
        "name": "九州栄養福祉大学",
        "address": "北九州市小倉北区下到津5-1-1",
        "lat": 33.876662,
        "lng": 130.857879
    },
    {
        "code": "F240310110926",
        "type": 16006,
        "name": "折尾愛真短期大学",
        "address": "北九州市八幡西区堀川町11-1",
        "lat": 33.861531,
        "lng": 130.710055
    },
    {
        "code": "F240310110935",
        "type": 16006,
        "name": "九州女子短期大学",
        "address": "北九州市八幡西区自由ｹ丘1",
        "lat": 33.868847,
        "lng": 130.707746
    },
    {
        "code": "F240310110944",
        "type": 16006,
        "name": "西南女学院大学短期大学部",
        "address": "北九州市小倉北区井堀1-3-2",
        "lat": 33.884211,
        "lng": 130.85007
    },
    {
        "code": "F240310110953",
        "type": 16006,
        "name": "東筑紫短期大学",
        "address": "北九州市小倉北区下到津5-1-1",
        "lat": 33.876434,
        "lng": 130.857042
    },
    {
        "code": "G140110111125",
        "type": 16005,
        "name": "北九州工業高等専門学校",
        "address": "北九州市小倉南区志井5-20-1",
        "lat": 33.816025,
        "lng": 130.87282
    },
    {
        "code": "H140210000018",
        "type": 16016,
        "name": "戸畑高等専修学校",
        "address": "北九州市戸畑区沢見1-3-47",
        "lat": 33.889958,
        "lng": 130.836799
    },
    {
        "code": "H140310000025",
        "type": 16016,
        "name": "浅井和裁専門学校",
        "address": "北九州市門司区清見2-7-6",
        "lat": 33.95316,
        "lng": 130.978467
    },
    {
        "code": "H140310000034",
        "type": 16016,
        "name": "北九州市戸畑看護専門学校",
        "address": "北九州市戸畑区正津町2-10",
        "lat": 33.891118,
        "lng": 130.830905
    },
    {
        "code": "H140310000043",
        "type": 16016,
        "name": "専門学校麻生医療福祉＆観光カレッジ",
        "address": "北九州市戸畑区小芝3-3-1",
        "lat": 33.898246,
        "lng": 130.837071
    },
    {
        "code": "H140310000052",
        "type": 16016,
        "name": "北九州市立看護専門学校",
        "address": "北九州市小倉北区馬借2-1-1",
        "lat": 33.879332,
        "lng": 130.87899
    },
    {
        "code": "H140310000061",
        "type": 16016,
        "name": "健和看護学院",
        "address": "北九州市小倉北区大手町15-1",
        "lat": 33.875289,
        "lng": 130.87118
    },
    {
        "code": "H140310000070",
        "type": 16016,
        "name": "美萩野臨床医学専門学校",
        "address": "北九州市小倉北区片野新町1-3-1",
        "lat": 33.865122,
        "lng": 130.884224
    },
    {
        "code": "H140310000089",
        "type": 16016,
        "name": "美萩野保健衛生学院",
        "address": "北九州市小倉北区片野新町2-5-28",
        "lat": 33.862234,
        "lng": 130.88564
    },
    {
        "code": "H140310000098",
        "type": 16016,
        "name": "九州テクノカレッジ",
        "address": "北九州市小倉北区清水4-8-1",
        "lat": 33.870524,
        "lng": 130.859798
    },
    {
        "code": "H140310000105",
        "type": 16016,
        "name": "九州ビジネス専門学校",
        "address": "北九州市小倉北区大門2-2-16",
        "lat": 33.888081,
        "lng": 130.873166
    },
    {
        "code": "H140310000114",
        "type": 16016,
        "name": "北九州小倉看護専門学校",
        "address": "北九州市小倉北区中島1-19-17",
        "lat": 33.876243,
        "lng": 130.87773
    },
    {
        "code": "H140310000132",
        "type": 16016,
        "name": "北九州調理製菓専門学校",
        "address": "北九州市小倉北区浅野2-18-28",
        "lat": 33.885901,
        "lng": 130.887903
    },
    {
        "code": "H140310000141",
        "type": 16016,
        "name": "ＫＣＳ北九州情報専門学校",
        "address": "北九州市小倉北区浅野2-4-1",
        "lat": 33.888881,
        "lng": 130.879218
    },
    {
        "code": "H140310000150",
        "type": 16016,
        "name": "河合塾北九州校",
        "address": "北九州市小倉北区室町2-10-8",
        "lat": 33.887172,
        "lng": 130.873485
    },
    {
        "code": "H140310000169",
        "type": 16016,
        "name": "麻生公務員専門学校北九州校",
        "address": "北九州市小倉北区室町3-2-62",
        "lat": 33.888386,
        "lng": 130.872363
    },
    {
        "code": "H140310000178",
        "type": 16016,
        "name": "麻生情報ビジネス専門学校北九州校",
        "address": "北九州市小倉北区浅野2-11-33",
        "lat": 33.889017,
        "lng": 130.882204
    },
    {
        "code": "H140310000196",
        "type": 16016,
        "name": "北九州予備校小倉駅校",
        "address": "北九州市小倉北区浅野1-3-27",
        "lat": 33.888123,
        "lng": 130.880723
    },
    {
        "code": "H140310000203",
        "type": 16016,
        "name": "福岡美容専門学校北九州校",
        "address": "北九州市小倉北区上富野1‐5‐59",
        "lat": 33.884087,
        "lng": 130.897261
    },
    {
        "code": "H140310000212",
        "type": 16016,
        "name": "大原簿記公務員専門学校小倉校",
        "address": "北九州市小倉北区京町3-9-20",
        "lat": 33.885787,
        "lng": 130.884731
    },
    {
        "code": "H140310000221",
        "type": 16016,
        "name": "九州医療スポーツ専門学校",
        "address": "北九州市小倉北区馬借1-1-2",
        "lat": 33.882512,
        "lng": 130.877854
    },
    {
        "code": "H140310000230",
        "type": 16016,
        "name": "大原医療福祉製菓専門学校小倉校",
        "address": "北九州市小倉北区京町3-15-4",
        "lat": 33.885648,
        "lng": 130.885051
    },
    {
        "code": "H140310000249",
        "type": 16016,
        "name": "北九州自動車大学校",
        "address": "北九州市小倉南区蜷田若園1-2-24",
        "lat": 33.844175,
        "lng": 130.888191
    },
    {
        "code": "H140310000258",
        "type": 16016,
        "name": "小倉南看護専門学校",
        "address": "北九州市小倉南区蒲生5-5-2",
        "lat": 33.838136,
        "lng": 130.859343
    },
    {
        "code": "H140310000267",
        "type": 16016,
        "name": "西日本看護専門学校",
        "address": "北九州市小倉南区湯川5-9-27",
        "lat": 33.843767,
        "lng": 130.906056
    },
    {
        "code": "H140310000276",
        "type": 16016,
        "name": "小倉リハビリテーション学院",
        "address": "北九州市小倉南区葛原東2-2-10",
        "lat": 33.840626,
        "lng": 130.932237
    },
    {
        "code": "H140310000285",
        "type": 16016,
        "name": "北九州看護大学校",
        "address": "北九州市小倉南区春ヶ丘10-15",
        "lat": 33.848146,
        "lng": 130.883724
    },
    {
        "code": "H140310000294",
        "type": 16016,
        "name": "製鉄記念八幡看護専門学校",
        "address": "北九州市八幡東区春の町1-1-1",
        "lat": 33.866071,
        "lng": 130.807135
    },
    {
        "code": "H140310000301",
        "type": 16016,
        "name": "八幡医師会看護専門学院",
        "address": "北九州市八幡東区平野2-1-1",
        "lat": 33.863987,
        "lng": 130.792895
    },
    {
        "code": "H140310000310",
        "type": 16016,
        "name": "大原自動車工科大学校",
        "address": "北九州市八幡東区宮の町1-1-1",
        "lat": 33.861263,
        "lng": 130.831398
    },
    {
        "code": "H140310000329",
        "type": 16016,
        "name": "日本ウェルネススポーツ専門学校北九州校",
        "address": "北九州市八幡東区勝山2-7-5",
        "lat": 33.851692,
        "lng": 130.815044
    },
    {
        "code": "H140310000338",
        "type": 16016,
        "name": "北九州予備校黒崎校",
        "address": "北九州市八幡西区黒崎3-12-21",
        "lat": 33.865553,
        "lng": 130.762015
    },
    {
        "code": "H140310000347",
        "type": 16016,
        "name": "九州ＣＴＢ専門学校",
        "address": "北九州市八幡東区西本町2-2-1",
        "lat": 33.867173,
        "lng": 130.795471
    },
    {
        "code": "H240310000015",
        "type": 16015,
        "name": "北九州予備校小倉校",
        "address": "北九州市小倉北区中島1-19-8",
        "lat": 33.877121,
        "lng": 130.87769
    },
    {
        "code": "H240310000024",
        "type": 16015,
        "name": "北九州ＹＭＣＡ学院",
        "address": "北九州市小倉北区鍛冶町2-3-9",
        "lat": 33.882182,
        "lng": 130.886324
    },
    {
        "code": "H240310000033",
        "type": 16015,
        "name": "九州朝鮮中高級学校",
        "address": "北九州市八幡西区折尾3-5-1",
        "lat": 33.867314,
        "lng": 130.71238
    },
    {
        "code": "H240310000042",
        "type": 16015,
        "name": "北九州朝鮮初級学校",
        "address": "北九州市八幡西区折尾3-5-1",
        "lat": 33.867386,
        "lng": 130.711814
    },
    {
        "code": "H240310000051",
        "type": 16015,
        "name": "日本語学学校",
        "address": "北九州市八幡西区岸の浦1-13-70",
        "lat": 33.856382,
        "lng": 130.764254
    }
]