[
    {
        "code": "A140320200018",
        "type": 16011,
        "name": "大牟田天使幼稚園",
        "address": "大牟田市有明町2-2-12",
        "lat": 33.030907,
        "lng": 130.446824
    },
    {
        "code": "A140320200027",
        "type": 16011,
        "name": "めぐみ幼稚園",
        "address": "大牟田市正山町9",
        "lat": 33.023034,
        "lng": 130.440122
    },
    {
        "code": "A140320200036",
        "type": 16011,
        "name": "はやめ幼稚園",
        "address": "大牟田市黄金町1-406",
        "lat": 33.017016,
        "lng": 130.451926
    },
    {
        "code": "A140320200045",
        "type": 16011,
        "name": "吉野天使幼稚園",
        "address": "大牟田市大字吉野1960",
        "lat": 33.070144,
        "lng": 130.468003
    },
    {
        "code": "A140320200054",
        "type": 16011,
        "name": "大鳥幼稚園",
        "address": "大牟田市姫島町36-8",
        "lat": 33.014121,
        "lng": 130.428642
    },
    {
        "code": "A140320200063",
        "type": 16011,
        "name": "光の子幼稚園",
        "address": "大牟田市古町1-3",
        "lat": 33.033469,
        "lng": 130.445752
    },
    {
        "code": "A140320200072",
        "type": 16011,
        "name": "たから幼稚園",
        "address": "大牟田市宝坂町1-63",
        "lat": 33.025154,
        "lng": 130.445165
    },
    {
        "code": "A140320200081",
        "type": 16011,
        "name": "銀水幼稚園",
        "address": "大牟田市田隈507",
        "lat": 33.054379,
        "lng": 130.471482
    },
    {
        "code": "A140320200090",
        "type": 16011,
        "name": "白川幼稚園",
        "address": "大牟田市中白川町2-1-21",
        "lat": 33.04348,
        "lng": 130.461764
    },
    {
        "code": "A140320200107",
        "type": 16011,
        "name": "明治幼稚園",
        "address": "大牟田市中町2-3-3",
        "lat": 33.041474,
        "lng": 130.44494
    },
    {
        "code": "A140320200116",
        "type": 16011,
        "name": "大牟田たちばな幼稚園",
        "address": "大牟田市大字橘569-3",
        "lat": 33.064911,
        "lng": 130.478056
    },
    {
        "code": "A140320200125",
        "type": 16011,
        "name": "高取聖マリア幼稚園",
        "address": "大牟田市大字歴木735-1",
        "lat": 33.034679,
        "lng": 130.482452
    },
    {
        "code": "A240320200017",
        "type": 16013,
        "name": "若草幼稚園",
        "address": "大牟田市上官町3-101",
        "lat": 33.021607,
        "lng": 130.455212
    },
    {
        "code": "B140220200018",
        "type": 16001,
        "name": "玉川小学校",
        "address": "大牟田市大字櫟野2710-1",
        "lat": 33.007821,
        "lng": 130.492452
    },
    {
        "code": "B140220200027",
        "type": 16001,
        "name": "大正小学校",
        "address": "大牟田市大正町5-5-9",
        "lat": 33.030153,
        "lng": 130.439763
    },
    {
        "code": "B140220200036",
        "type": 16001,
        "name": "中友小学校",
        "address": "大牟田市中友町1-20",
        "lat": 33.035069,
        "lng": 130.441568
    },
    {
        "code": "B140220200045",
        "type": 16001,
        "name": "明治小学校",
        "address": "大牟田市明治町2-21-1",
        "lat": 33.041235,
        "lng": 130.44579
    },
    {
        "code": "B140220200054",
        "type": 16001,
        "name": "白川小学校",
        "address": "大牟田市中白川町1-183",
        "lat": 33.044124,
        "lng": 130.459733
    },
    {
        "code": "B140220200063",
        "type": 16001,
        "name": "平原小学校",
        "address": "大牟田市平原町333",
        "lat": 33.039292,
        "lng": 130.464594
    },
    {
        "code": "B140220200072",
        "type": 16001,
        "name": "高取小学校",
        "address": "大牟田市大字歴木1807-58",
        "lat": 33.031237,
        "lng": 130.483316
    },
    {
        "code": "B140220200081",
        "type": 16001,
        "name": "三池小学校",
        "address": "大牟田市大字新町289-1",
        "lat": 33.046018,
        "lng": 130.48292
    },
    {
        "code": "B140220200090",
        "type": 16001,
        "name": "銀水小学校",
        "address": "大牟田市大字田隈239",
        "lat": 33.054818,
        "lng": 130.474676
    },
    {
        "code": "B140220200107",
        "type": 16001,
        "name": "上内小学校",
        "address": "大牟田市上内1575-1",
        "lat": 33.07401,
        "lng": 130.504312
    },
    {
        "code": "B140220200116",
        "type": 16001,
        "name": "吉野小学校",
        "address": "大牟田市大字白銀967-17",
        "lat": 33.073538,
        "lng": 130.484341
    },
    {
        "code": "B140220200125",
        "type": 16001,
        "name": "倉永小学校",
        "address": "大牟田市大字倉永1307",
        "lat": 33.080204,
        "lng": 130.460926
    },
    {
        "code": "B140220200134",
        "type": 16001,
        "name": "手鎌小学校",
        "address": "大牟田市大字唐船395",
        "lat": 33.059011,
        "lng": 130.447539
    },
    {
        "code": "B140220200143",
        "type": 16001,
        "name": "羽山台小学校",
        "address": "大牟田市草木587-3",
        "lat": 33.049902,
        "lng": 130.469732
    },
    {
        "code": "B140220200152",
        "type": 16001,
        "name": "みなと小学校",
        "address": "大牟田市上屋敷町2-3-1",
        "lat": 33.010349,
        "lng": 130.430875
    },
    {
        "code": "B140220200161",
        "type": 16001,
        "name": "天領小学校",
        "address": "大牟田市天領町1-145-1",
        "lat": 33.016782,
        "lng": 130.434377
    },
    {
        "code": "B140220200170",
        "type": 16001,
        "name": "天の原小学校",
        "address": "大牟田市笹原町3-116",
        "lat": 33.009142,
        "lng": 130.467445
    },
    {
        "code": "B140220200189",
        "type": 16001,
        "name": "大牟田中央小学校",
        "address": "大牟田市笹林町1-1-3",
        "lat": 33.028681,
        "lng": 130.447818
    },
    {
        "code": "B140220200198",
        "type": 16001,
        "name": "駛馬小学校",
        "address": "大牟田市馬場町17",
        "lat": 33.014822,
        "lng": 130.449818
    },
    {
        "code": "C140220200016",
        "type": 16002,
        "name": "松原中学校",
        "address": "大牟田市大正町5-4-16",
        "lat": 33.028764,
        "lng": 130.438818
    },
    {
        "code": "C140220200025",
        "type": 16002,
        "name": "白光中学校",
        "address": "大牟田市椿黒町32",
        "lat": 33.043263,
        "lng": 130.4519
    },
    {
        "code": "C140220200034",
        "type": 16002,
        "name": "歴木中学校",
        "address": "大牟田市大字歴木1150",
        "lat": 33.040264,
        "lng": 130.469316
    },
    {
        "code": "C140220200043",
        "type": 16002,
        "name": "田隈中学校",
        "address": "大牟田市大字田隈338",
        "lat": 33.051846,
        "lng": 130.474815
    },
    {
        "code": "C140220200052",
        "type": 16002,
        "name": "橘中学校",
        "address": "大牟田市大字橘664-1",
        "lat": 33.064196,
        "lng": 130.474726
    },
    {
        "code": "C140220200061",
        "type": 16002,
        "name": "甘木中学校",
        "address": "大牟田市大字甘木613-1",
        "lat": 33.065107,
        "lng": 130.464571
    },
    {
        "code": "C140220200070",
        "type": 16002,
        "name": "宮原中学校",
        "address": "大牟田市米生町2-26",
        "lat": 33.013758,
        "lng": 130.461737
    },
    {
        "code": "C140220200089",
        "type": 16002,
        "name": "宅峰中学校",
        "address": "大牟田市右京町1",
        "lat": 33.018377,
        "lng": 130.44118
    },
    {
        "code": "C140320200014",
        "type": 16002,
        "name": "明光学園中学校",
        "address": "大牟田市倉永170",
        "lat": 33.074032,
        "lng": 130.465432
    },
    {
        "code": "C140320200023",
        "type": 16002,
        "name": "大牟田中学校",
        "address": "大牟田市大字田隈436-1",
        "lat": 33.05329,
        "lng": 130.469149
    },
    {
        "code": "D140220200014",
        "type": 16004,
        "name": "三池高等学校",
        "address": "大牟田市大字草木245",
        "lat": 33.052735,
        "lng": 130.462094
    },
    {
        "code": "D140220200023",
        "type": 16004,
        "name": "三池工業高等学校",
        "address": "大牟田市上官町4-77",
        "lat": 33.019349,
        "lng": 130.454262
    },
    {
        "code": "D140220200032",
        "type": 16004,
        "name": "大牟田北高等学校",
        "address": "大牟田市吉野555",
        "lat": 33.066233,
        "lng": 130.45601
    },
    {
        "code": "D140220200041",
        "type": 16004,
        "name": "ありあけ新世高等学校",
        "address": "大牟田市大字吉野1389-1",
        "lat": 33.073427,
        "lng": 130.46787
    },
    {
        "code": "D140320200012",
        "type": 16004,
        "name": "大牟田高等学校",
        "address": "大牟田市大字草木字羽山852",
        "lat": 33.053157,
        "lng": 130.467621
    },
    {
        "code": "D140320200021",
        "type": 16004,
        "name": "誠修高等学校",
        "address": "大牟田市大字田隈956",
        "lat": 33.05979,
        "lng": 130.467343
    },
    {
        "code": "D140320200030",
        "type": 16004,
        "name": "明光学園高等学校",
        "address": "大牟田市倉永170",
        "lat": 33.073955,
        "lng": 130.465426
    },
    {
        "code": "E140220200011",
        "type": 16012,
        "name": "大牟田特別支援学校",
        "address": "大牟田市天道町24",
        "lat": 33.01494,
        "lng": 130.464081
    },
    {
        "code": "G140110111116",
        "type": 16005,
        "name": "有明工業高等専門学校",
        "address": "大牟田市東萩尾町150",
        "lat": 33.004295,
        "lng": 130.473984
    },
    {
        "code": "H140320200013",
        "type": 16016,
        "name": "大牟田医師会看護専門学校",
        "address": "大牟田市不知火町3-104",
        "lat": 33.025193,
        "lng": 130.44156
    },
    {
        "code": "H140320200022",
        "type": 16016,
        "name": "紫苑学院",
        "address": "大牟田市本町3-5-20",
        "lat": 33.031681,
        "lng": 130.442693
    }
]