[
    {
        "code": "A140320400016",
        "type": 16011,
        "name": "下境幼稚園",
        "address": "直方市大字下境2134-5",
        "lat": 33.732787,
        "lng": 130.739934
    },
    {
        "code": "A140320400025",
        "type": 16011,
        "name": "大和幼稚園",
        "address": "直方市頓野3808-1",
        "lat": 33.74978,
        "lng": 130.735893
    },
    {
        "code": "A140320400034",
        "type": 16011,
        "name": "清光寺幼稚園",
        "address": "直方市大字中泉91",
        "lat": 33.718387,
        "lng": 130.745807
    },
    {
        "code": "A140320400043",
        "type": 16011,
        "name": "西徳寺幼稚園",
        "address": "直方市山部553-1",
        "lat": 33.746694,
        "lng": 130.721847
    },
    {
        "code": "A140320400052",
        "type": 16011,
        "name": "直方セントポール幼稚園",
        "address": "直方市感田3500-2",
        "lat": 33.755079,
        "lng": 130.7334
    },
    {
        "code": "A140320400061",
        "type": 16011,
        "name": "新入幼稚園",
        "address": "直方市大字下新入1571-2",
        "lat": 33.755843,
        "lng": 130.705689
    },
    {
        "code": "A140320400070",
        "type": 16011,
        "name": "浄福寺学園浄福寺幼稚園",
        "address": "直方市感田879",
        "lat": 33.76597,
        "lng": 130.7459
    },
    {
        "code": "A140320400089",
        "type": 16011,
        "name": "頓野幼稚園",
        "address": "直方市頓野2104-5",
        "lat": 33.747813,
        "lng": 130.749786
    },
    {
        "code": "A240320400015",
        "type": 16013,
        "name": "新入ひまわりこども園",
        "address": "直方市上新入2047-1",
        "lat": 33.754776,
        "lng": 130.710589
    },
    {
        "code": "B140220400016",
        "type": 16001,
        "name": "直方南小学校",
        "address": "直方市新町3-3-55",
        "lat": 33.736087,
        "lng": 130.725475
    },
    {
        "code": "B140220400025",
        "type": 16001,
        "name": "直方北小学校",
        "address": "直方市日吉町7-1",
        "lat": 33.752252,
        "lng": 130.728112
    },
    {
        "code": "B140220400034",
        "type": 16001,
        "name": "直方西小学校",
        "address": "直方市大字山部666",
        "lat": 33.741281,
        "lng": 130.721169
    },
    {
        "code": "B140220400043",
        "type": 16001,
        "name": "新入小学校",
        "address": "直方市上新入2081",
        "lat": 33.753529,
        "lng": 130.709697
    },
    {
        "code": "B140220400052",
        "type": 16001,
        "name": "感田小学校",
        "address": "直方市大字感田1160",
        "lat": 33.760445,
        "lng": 130.735139
    },
    {
        "code": "B140220400061",
        "type": 16001,
        "name": "上頓野小学校",
        "address": "直方市大字上頓野2510",
        "lat": 33.76039,
        "lng": 130.763026
    },
    {
        "code": "B140220400070",
        "type": 16001,
        "name": "下境小学校",
        "address": "直方市大字下境1820",
        "lat": 33.728421,
        "lng": 130.739779
    },
    {
        "code": "B140220400089",
        "type": 16001,
        "name": "福地小学校",
        "address": "直方市永満寺2427",
        "lat": 33.729116,
        "lng": 130.761471
    },
    {
        "code": "B140220400098",
        "type": 16001,
        "name": "中泉小学校",
        "address": "直方市中泉848-3",
        "lat": 33.718608,
        "lng": 130.740142
    },
    {
        "code": "B140220400105",
        "type": 16001,
        "name": "植木小学校",
        "address": "直方市植木3207",
        "lat": 33.775999,
        "lng": 130.714363
    },
    {
        "code": "B140220400114",
        "type": 16001,
        "name": "直方東小学校",
        "address": "直方市大字頓野2095-1",
        "lat": 33.748419,
        "lng": 130.747194
    },
    {
        "code": "C140220400014",
        "type": 16002,
        "name": "直方第一中学校",
        "address": "直方市下境1892-1",
        "lat": 33.730032,
        "lng": 130.739835
    },
    {
        "code": "C140220400023",
        "type": 16002,
        "name": "直方第二中学校",
        "address": "直方市大字頓野4082",
        "lat": 33.753057,
        "lng": 130.737778
    },
    {
        "code": "C140220400032",
        "type": 16002,
        "name": "直方第三中学校",
        "address": "直方市大字知古960",
        "lat": 33.763306,
        "lng": 130.721307
    },
    {
        "code": "C140220400041",
        "type": 16002,
        "name": "植木中学校",
        "address": "直方市大字植木261-2",
        "lat": 33.767416,
        "lng": 130.707669
    },
    {
        "code": "D140220400012",
        "type": 16004,
        "name": "鞍手高等学校",
        "address": "直方市大字山部810-7",
        "lat": 33.746641,
        "lng": 130.717391
    },
    {
        "code": "D140220400021",
        "type": 16004,
        "name": "直方高等学校",
        "address": "直方市大字頓野3459-2",
        "lat": 33.74578,
        "lng": 130.741584
    },
    {
        "code": "D140220400030",
        "type": 16004,
        "name": "筑豊高等学校",
        "address": "直方市大字頓野4019-2",
        "lat": 33.754105,
        "lng": 130.7451
    },
    {
        "code": "D140320400010",
        "type": 16004,
        "name": "大和青藍高等学校",
        "address": "直方市日吉町10-12",
        "lat": 33.751724,
        "lng": 130.728279
    },
    {
        "code": "E140220400019",
        "type": 16012,
        "name": "直方特別支援学校",
        "address": "直方市大字下境410-2",
        "lat": 33.731753,
        "lng": 130.753916
    },
    {
        "code": "H140320400011",
        "type": 16016,
        "name": "筑豊看護専門学校",
        "address": "直方市山部765-1",
        "lat": 33.741744,
        "lng": 130.719373
    },
    {
        "code": "H140320400020",
        "type": 16016,
        "name": "直方看護専修学校",
        "address": "直方市山部808-13",
        "lat": 33.743804,
        "lng": 130.717521
    }
]