[
    {
        "code": "A140320700013",
        "type": 16011,
        "name": "ポッポ幼稚園",
        "address": "柳川市大字新町5-10",
        "lat": 33.162858,
        "lng": 130.413266
    },
    {
        "code": "A140320700031",
        "type": 16011,
        "name": "崇樹学園豊原幼稚園",
        "address": "柳川市大和町豊原16-6",
        "lat": 33.143133,
        "lng": 130.429615
    },
    {
        "code": "A140320700040",
        "type": 16011,
        "name": "柳川みのり幼稚園",
        "address": "柳川市七ｯ家447-1",
        "lat": 33.165254,
        "lng": 130.371089
    },
    {
        "code": "A140320700059",
        "type": 16011,
        "name": "三橋大谷幼稚園",
        "address": "柳川市三橋町垂見60",
        "lat": 33.163451,
        "lng": 130.434356
    },
    {
        "code": "A240320700012",
        "type": 16013,
        "name": "柳川幼稚園",
        "address": "柳川市片原町15-1",
        "lat": 33.167058,
        "lng": 130.40543
    },
    {
        "code": "A240320700021",
        "type": 16013,
        "name": "ふたば幼稚園",
        "address": "柳川市西蒲池776",
        "lat": 33.184978,
        "lng": 130.403505
    },
    {
        "code": "A240320700030",
        "type": 16013,
        "name": "柳川幼稚園分園ゆめわかば",
        "address": "柳川市本町114-1",
        "lat": 33.163975,
        "lng": 130.405937
    },
    {
        "code": "B140220700013",
        "type": 16001,
        "name": "柳河小学校",
        "address": "柳川市恵美須町28",
        "lat": 33.168749,
        "lng": 130.409038
    },
    {
        "code": "B140220700022",
        "type": 16001,
        "name": "城内小学校",
        "address": "柳川市本町84",
        "lat": 33.161278,
        "lng": 130.405955
    },
    {
        "code": "B140220700031",
        "type": 16001,
        "name": "矢留小学校",
        "address": "柳川市矢留本町21",
        "lat": 33.156722,
        "lng": 130.393818
    },
    {
        "code": "B140220700040",
        "type": 16001,
        "name": "東宮永小学校",
        "address": "柳川市下宮永町374",
        "lat": 33.143557,
        "lng": 130.405595
    },
    {
        "code": "B140220700059",
        "type": 16001,
        "name": "両開小学校",
        "address": "柳川市有明町1750",
        "lat": 33.129808,
        "lng": 130.392929
    },
    {
        "code": "B140220700068",
        "type": 16001,
        "name": "昭代第一小学校",
        "address": "柳川市田脇810",
        "lat": 33.171526,
        "lng": 130.379152
    },
    {
        "code": "B140220700077",
        "type": 16001,
        "name": "昭代第二小学校",
        "address": "柳川市西浜武1490",
        "lat": 33.166582,
        "lng": 130.383569
    },
    {
        "code": "B140220700086",
        "type": 16001,
        "name": "蒲池小学校",
        "address": "柳川市金納455",
        "lat": 33.187359,
        "lng": 130.416871
    },
    {
        "code": "B140220700095",
        "type": 16001,
        "name": "皿垣小学校",
        "address": "柳川市大和町栄1542",
        "lat": 33.123911,
        "lng": 130.422482
    },
    {
        "code": "B140220700102",
        "type": 16001,
        "name": "有明小学校",
        "address": "柳川市大和町皿垣開600",
        "lat": 33.116924,
        "lng": 130.419455
    },
    {
        "code": "B140220700111",
        "type": 16001,
        "name": "中島小学校",
        "address": "柳川市大和町中島68",
        "lat": 33.122783,
        "lng": 130.433174
    },
    {
        "code": "B140220700120",
        "type": 16001,
        "name": "六合小学校",
        "address": "柳川市大和町六合1661-1",
        "lat": 33.135672,
        "lng": 130.443818
    },
    {
        "code": "B140220700139",
        "type": 16001,
        "name": "大和小学校",
        "address": "柳川市大和町栄563",
        "lat": 33.133198,
        "lng": 130.419992
    },
    {
        "code": "B140220700148",
        "type": 16001,
        "name": "豊原小学校",
        "address": "柳川市大和町豊原125",
        "lat": 33.146608,
        "lng": 130.427999
    },
    {
        "code": "B140220700157",
        "type": 16001,
        "name": "藤吉小学校",
        "address": "柳川市三橋町藤吉502",
        "lat": 33.164444,
        "lng": 130.415206
    },
    {
        "code": "B140220700166",
        "type": 16001,
        "name": "矢ヶ部小学校",
        "address": "柳川市三橋町柳河460-1",
        "lat": 33.173645,
        "lng": 130.411007
    },
    {
        "code": "B140220700175",
        "type": 16001,
        "name": "二ッ河小学校",
        "address": "柳川市三橋町百町735-1",
        "lat": 33.175859,
        "lng": 130.441864
    },
    {
        "code": "B140220700184",
        "type": 16001,
        "name": "垂見小学校",
        "address": "柳川市三橋町垂見1610",
        "lat": 33.154985,
        "lng": 130.442792
    },
    {
        "code": "B140220700193",
        "type": 16001,
        "name": "中山小学校",
        "address": "柳川市三橋町中山352",
        "lat": 33.169003,
        "lng": 130.47028
    },
    {
        "code": "C140220700011",
        "type": 16002,
        "name": "柳城中学校",
        "address": "柳川市本城町82-2",
        "lat": 33.161389,
        "lng": 130.400456
    },
    {
        "code": "C140220700020",
        "type": 16002,
        "name": "昭代中学校",
        "address": "柳川市西浜武1494",
        "lat": 33.165971,
        "lng": 130.383291
    },
    {
        "code": "C140220700039",
        "type": 16002,
        "name": "蒲池中学校",
        "address": "柳川市金納455",
        "lat": 33.187859,
        "lng": 130.417732
    },
    {
        "code": "C140220700048",
        "type": 16002,
        "name": "柳南中学校",
        "address": "柳川市上宮永町645-2",
        "lat": 33.142788,
        "lng": 130.395433
    },
    {
        "code": "C140220700057",
        "type": 16002,
        "name": "大和中学校",
        "address": "柳川市大和町鷹ﾉ尾1",
        "lat": 33.135672,
        "lng": 130.431758
    },
    {
        "code": "C140220700066",
        "type": 16002,
        "name": "三橋中学校",
        "address": "柳川市三橋町垂見580-1",
        "lat": 33.161104,
        "lng": 130.440156
    },
    {
        "code": "D140220700019",
        "type": 16004,
        "name": "伝習館高等学校",
        "address": "柳川市本町142",
        "lat": 33.165138,
        "lng": 130.406122
    },
    {
        "code": "D140320700017",
        "type": 16004,
        "name": "柳川高等学校",
        "address": "柳川市本城町125",
        "lat": 33.16075,
        "lng": 130.402622
    },
    {
        "code": "D140320700026",
        "type": 16004,
        "name": "杉森高等学校",
        "address": "柳川市奥州町3",
        "lat": 33.157639,
        "lng": 130.407289
    },
    {
        "code": "E140220700016",
        "type": 16012,
        "name": "柳河特別支援学校",
        "address": "柳川市三橋町今古賀170",
        "lat": 33.162806,
        "lng": 130.415538
    },
    {
        "code": "H140320700018",
        "type": 16016,
        "name": "柳川山門医師会看護高等専修学校",
        "address": "柳川市三橋町蒲船津351",
        "lat": 33.165351,
        "lng": 130.422189
    },
    {
        "code": "H140320700027",
        "type": 16016,
        "name": "柳川リハビリテーション学院",
        "address": "柳川市上宮永町116-1",
        "lat": 33.154503,
        "lng": 130.404575
    },
    {
        "code": "H140320700036",
        "type": 16016,
        "name": "ハリウッドワールド美容専門学校",
        "address": "柳川市三橋町柳河55-1",
        "lat": 33.172407,
        "lng": 130.41341
    }
]