[
    {
        "code": "A140321000018",
        "type": 16011,
        "name": "さいしょうじ幼稚園",
        "address": "八女市大字本町80",
        "lat": 33.210609,
        "lng": 130.55896
    },
    {
        "code": "A140321000027",
        "type": 16011,
        "name": "福島幼稚園",
        "address": "八女市本町323",
        "lat": 33.211553,
        "lng": 130.553114
    },
    {
        "code": "A140321000036",
        "type": 16011,
        "name": "白百合幼稚園",
        "address": "八女市大字祈祷院407",
        "lat": 33.213412,
        "lng": 130.587428
    },
    {
        "code": "A140321000045",
        "type": 16011,
        "name": "つくし幼稚園",
        "address": "八女市上陽町812",
        "lat": 33.239619,
        "lng": 130.649303
    },
    {
        "code": "A140321000054",
        "type": 16011,
        "name": "ふじなみ幼稚園",
        "address": "八女市黒木町桑原978-1",
        "lat": 33.212607,
        "lng": 130.659923
    },
    {
        "code": "B140221000018",
        "type": 16001,
        "name": "福島小学校",
        "address": "八女市本町657",
        "lat": 33.211914,
        "lng": 130.559138
    },
    {
        "code": "B140221000027",
        "type": 16001,
        "name": "長峰小学校",
        "address": "八女市吉田654-1",
        "lat": 33.225996,
        "lng": 130.560915
    },
    {
        "code": "B140221000036",
        "type": 16001,
        "name": "上妻小学校",
        "address": "八女市津江73",
        "lat": 33.215701,
        "lng": 130.579207
    },
    {
        "code": "B140221000045",
        "type": 16001,
        "name": "三河小学校",
        "address": "八女市酒井田486-1",
        "lat": 33.195222,
        "lng": 130.557277
    },
    {
        "code": "B140221000054",
        "type": 16001,
        "name": "八幡小学校",
        "address": "八女市新庄385",
        "lat": 33.195027,
        "lng": 130.539724
    },
    {
        "code": "B140221000063",
        "type": 16001,
        "name": "忠見小学校",
        "address": "八女市忠見980",
        "lat": 33.224469,
        "lng": 130.593302
    },
    {
        "code": "B140221000072",
        "type": 16001,
        "name": "川崎小学校",
        "address": "八女市山内769",
        "lat": 33.220998,
        "lng": 130.614051
    },
    {
        "code": "B140221000081",
        "type": 16001,
        "name": "岡山小学校",
        "address": "八女市鵜池302",
        "lat": 33.210386,
        "lng": 130.528641
    },
    {
        "code": "B140221000090",
        "type": 16001,
        "name": "立花小学校",
        "address": "八女市立花町谷川1058",
        "lat": 33.204166,
        "lng": 130.59038
    },
    {
        "code": "B140221000107",
        "type": 16001,
        "name": "黒木小学校",
        "address": "八女市黒木町桑原26",
        "lat": 33.213064,
        "lng": 130.664511
    },
    {
        "code": "B140221000116",
        "type": 16001,
        "name": "黒木西小学校",
        "address": "八女市黒木町本分38-1",
        "lat": 33.205836,
        "lng": 130.649582
    },
    {
        "code": "B140221000125",
        "type": 16001,
        "name": "筑南小学校",
        "address": "八女市立花町北山2840-1",
        "lat": 33.180942,
        "lng": 130.56299
    },
    {
        "code": "B140221000134",
        "type": 16001,
        "name": "星野小学校",
        "address": "八女市星野村12059-1",
        "lat": 33.249487,
        "lng": 130.764621
    },
    {
        "code": "C140221000016",
        "type": 16002,
        "name": "福島中学校",
        "address": "八女市本村430",
        "lat": 33.216358,
        "lng": 130.559082
    },
    {
        "code": "C140221000025",
        "type": 16002,
        "name": "南中学校",
        "address": "八女市馬場540",
        "lat": 33.20647,
        "lng": 130.564999
    },
    {
        "code": "C140221000034",
        "type": 16002,
        "name": "見崎中学校",
        "address": "八女市忠見1155",
        "lat": 33.224719,
        "lng": 130.599496
    },
    {
        "code": "C140221000043",
        "type": 16002,
        "name": "西中学校",
        "address": "八女市前古賀132",
        "lat": 33.207137,
        "lng": 130.534279
    },
    {
        "code": "C140221000052",
        "type": 16002,
        "name": "立花中学校",
        "address": "八女市立花町谷川859-2",
        "lat": 33.20528,
        "lng": 130.594492
    },
    {
        "code": "C140221000061",
        "type": 16002,
        "name": "筑南中学校",
        "address": "八女市立花町白木6680",
        "lat": 33.168153,
        "lng": 130.560499
    },
    {
        "code": "C140221000070",
        "type": 16002,
        "name": "黒木中学校",
        "address": "八女市黒木町北木屋60",
        "lat": 33.214947,
        "lng": 130.676751
    },
    {
        "code": "C140221000089",
        "type": 16002,
        "name": "星野中学校",
        "address": "八女市星野村9500-3",
        "lat": 33.252369,
        "lng": 130.752884
    },
    {
        "code": "C140321000014",
        "type": 16002,
        "name": "八女学院中学校",
        "address": "八女市大字本村425",
        "lat": 33.213799,
        "lng": 130.555628
    },
    {
        "code": "C240221000015",
        "type": 16014,
        "name": "上陽北ぜい学園",
        "address": "八女市上陽町北川内910",
        "lat": 33.238369,
        "lng": 130.645953
    },
    {
        "code": "C240221000024",
        "type": 16014,
        "name": "矢部清流学園",
        "address": "八女市矢部村北矢部11047-2",
        "lat": 33.153915,
        "lng": 130.816113
    },
    {
        "code": "D140221000014",
        "type": 16004,
        "name": "福島高等学校",
        "address": "八女市吉田1581-2",
        "lat": 33.231496,
        "lng": 130.558693
    },
    {
        "code": "D140221000023",
        "type": 16004,
        "name": "八女農業高等学校",
        "address": "八女市大字本町2-160",
        "lat": 33.206165,
        "lng": 130.558583
    },
    {
        "code": "D140321000012",
        "type": 16004,
        "name": "八女学院高等学校",
        "address": "八女市本村425",
        "lat": 33.213719,
        "lng": 130.555749
    },
    {
        "code": "D140321000021",
        "type": 16004,
        "name": "西日本短期大学附属高等学校",
        "address": "八女市大字亀甲61",
        "lat": 33.217913,
        "lng": 130.53464
    },
    {
        "code": "D240221000013",
        "type": 16003,
        "name": "輝翔館中等教育学校",
        "address": "八女市黒木町桑原10-2",
        "lat": 33.21427,
        "lng": 130.665773
    },
    {
        "code": "H140321000013",
        "type": 16016,
        "name": "八女筑後看護専門学校",
        "address": "八女市本村656-1",
        "lat": 33.218552,
        "lng": 130.558099
    },
    {
        "code": "H140321000022",
        "type": 16016,
        "name": "樋口文化専門学校",
        "address": "八女市大字本町2-58-3",
        "lat": 33.208991,
        "lng": 130.562315
    }
]