[
    {
        "code": "A140221600014",
        "type": 16011,
        "name": "小郡幼稚園",
        "address": "小郡市小郡1600-2",
        "lat": 33.39485,
        "lng": 130.542815
    },
    {
        "code": "A140221600023",
        "type": 16011,
        "name": "三国幼稚園",
        "address": "小郡市三国が丘6-72",
        "lat": 33.434111,
        "lng": 130.565119
    },
    {
        "code": "A140321600012",
        "type": 16011,
        "name": "小郡カトリック幼稚園",
        "address": "小郡市小郡636-1",
        "lat": 33.403361,
        "lng": 130.554872
    },
    {
        "code": "A140321600021",
        "type": 16011,
        "name": "三井幼稚園",
        "address": "小郡市吹上字向野993-1",
        "lat": 33.41452,
        "lng": 130.586899
    },
    {
        "code": "A140321600030",
        "type": 16011,
        "name": "麻生学園アスター幼稚園",
        "address": "小郡市希みが丘5-6-11",
        "lat": 33.439247,
        "lng": 130.54539
    },
    {
        "code": "B140221600012",
        "type": 16001,
        "name": "味坂小学校",
        "address": "小郡市八坂456-1",
        "lat": 33.366705,
        "lng": 130.559802
    },
    {
        "code": "B140221600021",
        "type": 16001,
        "name": "小郡小学校",
        "address": "小郡市小板井288",
        "lat": 33.393285,
        "lng": 130.551497
    },
    {
        "code": "B140221600030",
        "type": 16001,
        "name": "御原小学校",
        "address": "小郡市ﾆ夕316",
        "lat": 33.378453,
        "lng": 130.5693
    },
    {
        "code": "B140221600049",
        "type": 16001,
        "name": "立石小学校",
        "address": "小郡市吹上968-2",
        "lat": 33.412783,
        "lng": 130.585937
    },
    {
        "code": "B140221600058",
        "type": 16001,
        "name": "三国小学校",
        "address": "小郡市力武1012",
        "lat": 33.423838,
        "lng": 130.564827
    },
    {
        "code": "B140221600067",
        "type": 16001,
        "name": "大原小学校",
        "address": "小郡市大保1394",
        "lat": 33.407867,
        "lng": 130.559134
    },
    {
        "code": "B140221600076",
        "type": 16001,
        "name": "東野小学校",
        "address": "小郡市小郡2409-4",
        "lat": 33.409645,
        "lng": 130.549802
    },
    {
        "code": "B140221600085",
        "type": 16001,
        "name": "のぞみが丘小学校",
        "address": "小郡市希みが丘5-2-17",
        "lat": 33.437249,
        "lng": 130.545611
    },
    {
        "code": "B140321600010",
        "type": 16001,
        "name": "麻生学園小学校",
        "address": "小郡市希みが丘3-1-2",
        "lat": 33.436859,
        "lng": 130.536725
    },
    {
        "code": "C140221600010",
        "type": 16002,
        "name": "宝城中学校",
        "address": "小郡市八坂26-1",
        "lat": 33.372204,
        "lng": 130.559413
    },
    {
        "code": "C140221600029",
        "type": 16002,
        "name": "大原中学校",
        "address": "小郡市小郡772",
        "lat": 33.399813,
        "lng": 130.549164
    },
    {
        "code": "C140221600038",
        "type": 16002,
        "name": "立石中学校",
        "address": "小郡市吹上1045",
        "lat": 33.412894,
        "lng": 130.588131
    },
    {
        "code": "C140221600047",
        "type": 16002,
        "name": "小郡中学校",
        "address": "小郡市寺福童668",
        "lat": 33.385148,
        "lng": 130.545081
    },
    {
        "code": "C140221600056",
        "type": 16002,
        "name": "三国中学校",
        "address": "小郡市美鈴が丘5-15-1",
        "lat": 33.434836,
        "lng": 130.551717
    },
    {
        "code": "D140221600018",
        "type": 16004,
        "name": "三井高等学校",
        "address": "小郡市松崎650",
        "lat": 33.395924,
        "lng": 130.580771
    },
    {
        "code": "D140221600027",
        "type": 16004,
        "name": "小郡高等学校",
        "address": "小郡市三沢5128-1",
        "lat": 33.43442,
        "lng": 130.560772
    },
    {
        "code": "E140221600015",
        "type": 16012,
        "name": "小郡特別支援学校",
        "address": "小郡市下岩田2341-3",
        "lat": 33.391035,
        "lng": 130.582715
    },
    {
        "code": "H140321600017",
        "type": 16016,
        "name": "平岡調理・製菓専門学校",
        "address": "小郡市大保1451",
        "lat": 33.409411,
        "lng": 130.556754
    },
    {
        "code": "H140321600026",
        "type": 16016,
        "name": "平岡栄養士専門学校",
        "address": "小郡市大保1452",
        "lat": 33.4092,
        "lng": 130.557268
    },
    {
        "code": "H140321600035",
        "type": 16016,
        "name": "高尾看護専門学校",
        "address": "小郡市小郡字堂の前1421-4",
        "lat": 33.392003,
        "lng": 130.544053
    },
    {
        "code": "H140321600044",
        "type": 16016,
        "name": "平岡介護福祉専門学校",
        "address": "小郡市大保1433",
        "lat": 33.409503,
        "lng": 130.557326
    }
]