[
    {
        "code": "A140321100017",
        "type": 16011,
        "name": "九州大谷幼稚園",
        "address": "筑後市蔵数字大谷496-28",
        "lat": 33.24191,
        "lng": 130.505492
    },
    {
        "code": "A240321100016",
        "type": 16013,
        "name": "和泉幼稚園",
        "address": "筑後市大字山ﾉ井480-1",
        "lat": 33.202525,
        "lng": 130.502359
    },
    {
        "code": "A240321100025",
        "type": 16013,
        "name": "筑後中央幼稚園",
        "address": "筑後市久富799-1",
        "lat": 33.21726,
        "lng": 130.494782
    },
    {
        "code": "B140221100017",
        "type": 16001,
        "name": "羽犬塚小学校",
        "address": "筑後市羽犬塚232",
        "lat": 33.216579,
        "lng": 130.499893
    },
    {
        "code": "B140221100026",
        "type": 16001,
        "name": "松原小学校",
        "address": "筑後市熊野766",
        "lat": 33.227411,
        "lng": 130.487643
    },
    {
        "code": "B140221100035",
        "type": 16001,
        "name": "古川小学校",
        "address": "筑後市大字久恵1007",
        "lat": 33.187416,
        "lng": 130.516698
    },
    {
        "code": "B140221100044",
        "type": 16001,
        "name": "水洗小学校",
        "address": "筑後市志13",
        "lat": 33.185472,
        "lng": 130.500532
    },
    {
        "code": "B140221100053",
        "type": 16001,
        "name": "水田小学校",
        "address": "筑後市下北島172",
        "lat": 33.199053,
        "lng": 130.48931
    },
    {
        "code": "B140221100062",
        "type": 16001,
        "name": "下妻小学校",
        "address": "筑後市下妻1317",
        "lat": 33.181861,
        "lng": 130.474839
    },
    {
        "code": "B140221100071",
        "type": 16001,
        "name": "古島小学校",
        "address": "筑後市古島233",
        "lat": 33.196442,
        "lng": 130.469867
    },
    {
        "code": "B140221100080",
        "type": 16001,
        "name": "二川小学校",
        "address": "筑後市若菜433",
        "lat": 33.213163,
        "lng": 130.475116
    },
    {
        "code": "B140221100099",
        "type": 16001,
        "name": "西牟田小学校",
        "address": "筑後市大字西牟田1802",
        "lat": 33.239521,
        "lng": 130.480338
    },
    {
        "code": "B140221100106",
        "type": 16001,
        "name": "筑後小学校",
        "address": "筑後市大字長浜1285",
        "lat": 33.206692,
        "lng": 130.508337
    },
    {
        "code": "B140221100115",
        "type": 16001,
        "name": "筑後北小学校",
        "address": "筑後市西牟田6044",
        "lat": 33.242688,
        "lng": 130.506641
    },
    {
        "code": "B140221100124",
        "type": 16001,
        "name": "水田小学校いずみ分校",
        "address": "筑後市下北島210",
        "lat": 33.201248,
        "lng": 130.487588
    },
    {
        "code": "C140221100015",
        "type": 16002,
        "name": "羽犬塚中学校",
        "address": "筑後市大字羽犬塚80",
        "lat": 33.218301,
        "lng": 130.50317
    },
    {
        "code": "C140221100024",
        "type": 16002,
        "name": "筑後北中学校",
        "address": "筑後市蔵数724",
        "lat": 33.233189,
        "lng": 130.494282
    },
    {
        "code": "C140221100033",
        "type": 16002,
        "name": "筑後中学校",
        "address": "筑後市水田1046-1",
        "lat": 33.192027,
        "lng": 130.491116
    },
    {
        "code": "D140221100013",
        "type": 16004,
        "name": "八女高等学校",
        "address": "筑後市和泉251",
        "lat": 33.205525,
        "lng": 130.500921
    },
    {
        "code": "D140221100022",
        "type": 16004,
        "name": "八女工業高等学校",
        "address": "筑後市羽犬塚301-4",
        "lat": 33.215052,
        "lng": 130.496615
    },
    {
        "code": "E140221100010",
        "type": 16012,
        "name": "筑後特別支援学校",
        "address": "筑後市下北島318",
        "lat": 33.202248,
        "lng": 130.488977
    },
    {
        "code": "F240310111079",
        "type": 16006,
        "name": "九州大谷短期大学",
        "address": "筑後市蔵数字大谷495-1",
        "lat": 33.241021,
        "lng": 130.505253
    }
]