[
    {
        "code": "A140321900019",
        "type": 16011,
        "name": "橘学園大野南幼稚園",
        "address": "大野城市上大利1-8-1",
        "lat": 33.519567,
        "lng": 130.480415
    },
    {
        "code": "A140321900028",
        "type": 16011,
        "name": "日和香幼稚園",
        "address": "大野城市下大利1-5-21",
        "lat": 33.522379,
        "lng": 130.486534
    },
    {
        "code": "A140321900037",
        "type": 16011,
        "name": "みかさ幼稚園",
        "address": "大野城市仲畑4-23-20",
        "lat": 33.549616,
        "lng": 130.472736
    },
    {
        "code": "A140321900046",
        "type": 16011,
        "name": "南ケ丘幼稚園",
        "address": "大野城市南ヶ丘5-19-1",
        "lat": 33.501335,
        "lng": 130.478021
    },
    {
        "code": "A140321900055",
        "type": 16011,
        "name": "南ケ丘第二幼稚園",
        "address": "大野城市旭ヶ丘2-4-10",
        "lat": 33.509793,
        "lng": 130.481884
    },
    {
        "code": "A140321900064",
        "type": 16011,
        "name": "月の浦幼稚園",
        "address": "大野城市月の浦3-23-1",
        "lat": 33.499796,
        "lng": 130.460325
    },
    {
        "code": "A240321900018",
        "type": 16013,
        "name": "大野幼稚園",
        "address": "大野城市曙町1-2-27",
        "lat": 33.534627,
        "lng": 130.477435
    },
    {
        "code": "A240321900027",
        "type": 16013,
        "name": "大野東幼稚園",
        "address": "大野城市乙金1-10-37",
        "lat": 33.545856,
        "lng": 130.491734
    },
    {
        "code": "A240321900036",
        "type": 16013,
        "name": "筑紫幼稚園",
        "address": "大野城市横峰2-2-18",
        "lat": 33.506507,
        "lng": 130.473454
    },
    {
        "code": "B140221900019",
        "type": 16001,
        "name": "大野小学校",
        "address": "大野城市瓦田3-2-1",
        "lat": 33.533382,
        "lng": 130.481554
    },
    {
        "code": "B140221900028",
        "type": 16001,
        "name": "大野北小学校",
        "address": "大野城市山田4-17-1",
        "lat": 33.545158,
        "lng": 130.475666
    },
    {
        "code": "B140221900037",
        "type": 16001,
        "name": "大野南小学校",
        "address": "大野城市南ヶ丘4-18-1",
        "lat": 33.501468,
        "lng": 130.479165
    },
    {
        "code": "B140221900046",
        "type": 16001,
        "name": "大野東小学校",
        "address": "大野城市乙金1-18-1",
        "lat": 33.544631,
        "lng": 130.489664
    },
    {
        "code": "B140221900055",
        "type": 16001,
        "name": "大利小学校",
        "address": "大野城市上大利1-7-1",
        "lat": 33.520772,
        "lng": 130.481137
    },
    {
        "code": "B140221900064",
        "type": 16001,
        "name": "平野小学校",
        "address": "大野城市横峰2-4-1",
        "lat": 33.505218,
        "lng": 130.474082
    },
    {
        "code": "B140221900073",
        "type": 16001,
        "name": "大城小学校",
        "address": "大野城市大城3-29-1",
        "lat": 33.536604,
        "lng": 130.497553
    },
    {
        "code": "B140221900082",
        "type": 16001,
        "name": "下大利小学校",
        "address": "大野城市東大利4-8-1",
        "lat": 33.528799,
        "lng": 130.491581
    },
    {
        "code": "B140221900091",
        "type": 16001,
        "name": "御笠の森小学校",
        "address": "大野城市御笠川1-7-1",
        "lat": 33.550991,
        "lng": 130.477194
    },
    {
        "code": "B140221900108",
        "type": 16001,
        "name": "月の浦小学校",
        "address": "大野城市月の浦3-22-1",
        "lat": 33.498657,
        "lng": 130.459874
    },
    {
        "code": "C140221900017",
        "type": 16002,
        "name": "大野中学校",
        "address": "大野城市白木原3-11-1",
        "lat": 33.529633,
        "lng": 130.483609
    },
    {
        "code": "C140221900026",
        "type": 16002,
        "name": "大野東中学校",
        "address": "大野城市乙金台2-5-1",
        "lat": 33.54327,
        "lng": 130.490137
    },
    {
        "code": "C140221900035",
        "type": 16002,
        "name": "大利中学校",
        "address": "大野城市上大利1-6-1",
        "lat": 33.522578,
        "lng": 130.480054
    },
    {
        "code": "C140221900044",
        "type": 16002,
        "name": "平野中学校",
        "address": "大野城市つつじヶ丘4-1-1",
        "lat": 33.494407,
        "lng": 130.477973
    },
    {
        "code": "C140221900053",
        "type": 16002,
        "name": "御陵中学校",
        "address": "大野城市中1-20-1",
        "lat": 33.554324,
        "lng": 130.482971
    },
    {
        "code": "D140221900015",
        "type": 16004,
        "name": "筑紫中央高等学校",
        "address": "大野城市中央2-12-1",
        "lat": 33.523716,
        "lng": 130.485553
    },
    {
        "code": "H140321900014",
        "type": 16016,
        "name": "西鉄自動車整備専門学校",
        "address": "大野城市山田3-12-1",
        "lat": 33.546997,
        "lng": 130.477697
    },
    {
        "code": "H240321900013",
        "type": 16015,
        "name": "西鉄自動車学校",
        "address": "大野城市山田3-12-1",
        "lat": 33.546859,
        "lng": 130.477093
    }
]