[
    {
        "code": "A140322700019",
        "type": 16011,
        "name": "長円寺日の丸幼稚園",
        "address": "嘉麻市上山田404-24",
        "lat": 33.560923,
        "lng": 130.7642
    },
    {
        "code": "A140322700028",
        "type": 16011,
        "name": "西照寺みのり幼稚園",
        "address": "嘉麻市上山田427",
        "lat": 33.562212,
        "lng": 130.765316
    },
    {
        "code": "A140322700037",
        "type": 16011,
        "name": "大隈ふたば幼稚園",
        "address": "嘉麻市大隈町1957-1",
        "lat": 33.544215,
        "lng": 130.742799
    },
    {
        "code": "A140322700046",
        "type": 16011,
        "name": "稲築幼稚園",
        "address": "嘉麻市口春650-10",
        "lat": 33.601578,
        "lng": 130.714102
    },
    {
        "code": "A140322700055",
        "type": 16011,
        "name": "深見学園稲築中央幼稚園",
        "address": "嘉麻市平1354-3",
        "lat": 33.598321,
        "lng": 130.732242
    },
    {
        "code": "A140322700064",
        "type": 16011,
        "name": "碓井ひかり幼稚園",
        "address": "嘉麻市飯田308-1",
        "lat": 33.570064,
        "lng": 130.701768
    },
    {
        "code": "B140222700019",
        "type": 16001,
        "name": "熊ヶ畑小学校",
        "address": "嘉麻市熊ヶ畑宮ﾉ脇2128",
        "lat": 33.540803,
        "lng": 130.783389
    },
    {
        "code": "B140222700028",
        "type": 16001,
        "name": "下山田小学校",
        "address": "嘉麻市下山田341",
        "lat": 33.575299,
        "lng": 130.753253
    },
    {
        "code": "B140222700037",
        "type": 16001,
        "name": "上山田小学校",
        "address": "嘉麻市上山田502-36",
        "lat": 33.560551,
        "lng": 130.769669
    },
    {
        "code": "B140222700046",
        "type": 16001,
        "name": "碓井小学校",
        "address": "嘉麻市上臼井868",
        "lat": 33.557799,
        "lng": 130.707007
    },
    {
        "code": "B140222700055",
        "type": 16001,
        "name": "牛隈小学校",
        "address": "嘉麻市牛隈2470",
        "lat": 33.572048,
        "lng": 130.724949
    },
    {
        "code": "B140222700064",
        "type": 16001,
        "name": "稲築西小学校",
        "address": "嘉麻市口春615",
        "lat": 33.603406,
        "lng": 130.716588
    },
    {
        "code": "B140222700073",
        "type": 16001,
        "name": "稲築東小学校",
        "address": "嘉麻市平1429-1",
        "lat": 33.600768,
        "lng": 130.73928
    },
    {
        "code": "B140222700082",
        "type": 16001,
        "name": "嘉穂小学校",
        "address": "嘉麻市大隈町1215",
        "lat": 33.542596,
        "lng": 130.74128
    },
    {
        "code": "C140222700017",
        "type": 16002,
        "name": "山田中学校",
        "address": "嘉麻市下山田2",
        "lat": 33.565216,
        "lng": 130.760086
    },
    {
        "code": "C140222700026",
        "type": 16002,
        "name": "碓井中学校",
        "address": "嘉麻市平山440",
        "lat": 33.559743,
        "lng": 130.700758
    },
    {
        "code": "C140222700035",
        "type": 16002,
        "name": "嘉穂中学校",
        "address": "嘉麻市上西郷376",
        "lat": 33.54369,
        "lng": 130.735672
    },
    {
        "code": "C140222700044",
        "type": 16002,
        "name": "稲築中学校",
        "address": "嘉麻市口春629",
        "lat": 33.601989,
        "lng": 130.71656
    },
    {
        "code": "C140222700053",
        "type": 16002,
        "name": "稲築東中学校",
        "address": "嘉麻市平1536",
        "lat": 33.599295,
        "lng": 130.730892
    },
    {
        "code": "D140222700015",
        "type": 16004,
        "name": "稲築志耕館高等学校",
        "address": "嘉麻市岩崎1318-1",
        "lat": 33.597783,
        "lng": 130.712976
    },
    {
        "code": "D140222700024",
        "type": 16004,
        "name": "嘉穂総合高等学校嘉麻市立大隈城山校",
        "address": "嘉麻市大隈町725",
        "lat": 33.550273,
        "lng": 130.743727
    },
    {
        "code": "E140222700012",
        "type": 16012,
        "name": "嘉穂特別支援学校",
        "address": "嘉麻市大字鴨生328-1",
        "lat": 33.603512,
        "lng": 130.72877
    }
]