[
    {
        "code": "A140334300018",
        "type": 16011,
        "name": "洞清寺あかつき幼稚園",
        "address": "糟屋郡志免町吉原529-1",
        "lat": 33.576582,
        "lng": 130.484467
    },
    {
        "code": "A140334300027",
        "type": 16011,
        "name": "志免幼稚園",
        "address": "糟屋郡志免町志免1-22-1",
        "lat": 33.587931,
        "lng": 130.486975
    },
    {
        "code": "A140334300036",
        "type": 16011,
        "name": "博多第一幼稚園",
        "address": "糟屋郡志免町桜丘1-28",
        "lat": 33.571491,
        "lng": 130.481582
    },
    {
        "code": "A140334300045",
        "type": 16011,
        "name": "志免中央幼稚園",
        "address": "糟屋郡志免町片峰1-8-1",
        "lat": 33.59066,
        "lng": 130.475936
    },
    {
        "code": "A240334300017",
        "type": 16013,
        "name": "志免さくらこども園",
        "address": "糟屋郡志免町南里2-926",
        "lat": 33.594764,
        "lng": 130.475388
    },
    {
        "code": "B140234300018",
        "type": 16001,
        "name": "志免中央小学校",
        "address": "糟屋郡志免町志免中央1-8-1",
        "lat": 33.590575,
        "lng": 130.481112
    },
    {
        "code": "B140234300027",
        "type": 16001,
        "name": "志免西小学校",
        "address": "糟屋郡志免町別府2-4-1",
        "lat": 33.601576,
        "lng": 130.462242
    },
    {
        "code": "B140234300036",
        "type": 16001,
        "name": "志免東小学校",
        "address": "糟屋郡志免町志免東1-1-1",
        "lat": 33.583133,
        "lng": 130.486166
    },
    {
        "code": "B140234300045",
        "type": 16001,
        "name": "志免南小学校",
        "address": "糟屋郡志免町吉原556",
        "lat": 33.573044,
        "lng": 130.485331
    },
    {
        "code": "C140234300016",
        "type": 16002,
        "name": "志免中学校",
        "address": "糟屋郡志免町片峰4-3-1",
        "lat": 33.588665,
        "lng": 130.473398
    },
    {
        "code": "C140234300025",
        "type": 16002,
        "name": "志免東中学校",
        "address": "糟屋郡志免町志免東4-4-1",
        "lat": 33.582348,
        "lng": 130.49408
    }
]