[
    {
        "code": "A140234400019",
        "type": 16011,
        "name": "れいんぼー幼稚園",
        "address": "糟屋郡須恵町大字旅石523",
        "lat": 33.594419,
        "lng": 130.495441
    },
    {
        "code": "A140234400028",
        "type": 16011,
        "name": "須恵南幼稚園",
        "address": "糟屋郡須恵町上須恵964-3",
        "lat": 33.586112,
        "lng": 130.514695
    },
    {
        "code": "A240234400018",
        "type": 16013,
        "name": "アザレア幼児園",
        "address": "糟屋郡須惠町旅石72-521",
        "lat": 33.584109,
        "lng": 130.498622
    },
    {
        "code": "B140234400017",
        "type": 16001,
        "name": "須恵第一小学校",
        "address": "糟屋郡須恵町大字上須恵962-2",
        "lat": 33.585584,
        "lng": 130.516314
    },
    {
        "code": "B140234400026",
        "type": 16001,
        "name": "須恵第二小学校",
        "address": "糟屋郡須恵町植木260-5",
        "lat": 33.599152,
        "lng": 130.498135
    },
    {
        "code": "B140234400035",
        "type": 16001,
        "name": "須恵第三小学校",
        "address": "糟屋郡須恵町大字旅石84-10",
        "lat": 33.583348,
        "lng": 130.497997
    },
    {
        "code": "C140234400015",
        "type": 16002,
        "name": "須恵中学校",
        "address": "糟屋郡須恵町大字上須恵1167-1",
        "lat": 33.585975,
        "lng": 130.510943
    },
    {
        "code": "C140234400024",
        "type": 16002,
        "name": "須恵東中学校",
        "address": "糟屋郡須恵町大字植木1-20",
        "lat": 33.602041,
        "lng": 130.511161
    },
    {
        "code": "D140234400013",
        "type": 16004,
        "name": "須恵高等学校",
        "address": "糟屋郡須恵町大字旅石72-3",
        "lat": 33.582182,
        "lng": 130.500607
    }
]