[
    {
        "code": "A140338300019",
        "type": 16011,
        "name": "岡垣第一幼稚園",
        "address": "遠賀郡岡垣町東松原1-15-2",
        "lat": 33.842192,
        "lng": 130.625456
    },
    {
        "code": "A140338300028",
        "type": 16011,
        "name": "岡垣中央幼稚園",
        "address": "遠賀郡岡垣町吉木西1-1-15",
        "lat": 33.858051,
        "lng": 130.60486
    },
    {
        "code": "A240338300018",
        "type": 16013,
        "name": "えびつ幼稚園",
        "address": "遠賀郡岡垣町中央台5-7-18",
        "lat": 33.844106,
        "lng": 130.617015
    },
    {
        "code": "B140238300019",
        "type": 16001,
        "name": "山田小学校",
        "address": "遠賀郡岡垣町東山田1-16-1",
        "lat": 33.848232,
        "lng": 130.628555
    },
    {
        "code": "B140238300028",
        "type": 16001,
        "name": "吉木小学校",
        "address": "遠賀郡岡垣町吉木西1-17-5",
        "lat": 33.856515,
        "lng": 130.60351
    },
    {
        "code": "B140238300037",
        "type": 16001,
        "name": "戸切小学校",
        "address": "遠賀郡岡垣町戸切1181-9",
        "lat": 33.839851,
        "lng": 130.635036
    },
    {
        "code": "B140238300046",
        "type": 16001,
        "name": "内浦小学校",
        "address": "遠賀郡岡垣町大字原865",
        "lat": 33.876345,
        "lng": 130.573817
    },
    {
        "code": "B140238300055",
        "type": 16001,
        "name": "海老津小学校",
        "address": "遠賀郡岡垣町大字海老津1-21-1",
        "lat": 33.841753,
        "lng": 130.616165
    },
    {
        "code": "C140238300017",
        "type": 16002,
        "name": "岡垣中学校",
        "address": "遠賀郡岡垣町野間3-1-1",
        "lat": 33.854828,
        "lng": 130.612394
    },
    {
        "code": "C140238300026",
        "type": 16002,
        "name": "岡垣東中学校",
        "address": "遠賀郡岡垣町山田峠2-5-1",
        "lat": 33.852832,
        "lng": 130.636464
    }
]