[
    {
        "code": "A240240100018",
        "type": 16013,
        "name": "小竹こども園",
        "address": "鞍手郡小竹町大字勝野2746-1",
        "lat": 33.687918,
        "lng": 130.700987
    },
    {
        "code": "B140240100017",
        "type": 16001,
        "name": "小竹南小学校",
        "address": "鞍手郡小竹町勝野3540",
        "lat": 33.690036,
        "lng": 130.710338
    },
    {
        "code": "B140240100026",
        "type": 16001,
        "name": "小竹北小学校",
        "address": "鞍手郡小竹町御徳1375",
        "lat": 33.716144,
        "lng": 130.712615
    },
    {
        "code": "B140240100035",
        "type": 16001,
        "name": "小竹西小学校",
        "address": "鞍手郡小竹町大字新多466-1",
        "lat": 33.693174,
        "lng": 130.688145
    },
    {
        "code": "C140240100015",
        "type": 16002,
        "name": "小竹中学校",
        "address": "鞍手郡小竹町大字御徳656",
        "lat": 33.704618,
        "lng": 130.711421
    }
]