[
    {
        "code": "A140260500013",
        "type": 16011,
        "name": "川崎幼稚園",
        "address": "田川郡川崎町大字川崎1719-1",
        "lat": 33.596742,
        "lng": 130.814806
    },
    {
        "code": "B140260500011",
        "type": 16001,
        "name": "川崎小学校",
        "address": "田川郡川崎町大字田原714",
        "lat": 33.600936,
        "lng": 130.813609
    },
    {
        "code": "B140260500020",
        "type": 16001,
        "name": "川崎東小学校",
        "address": "田川郡川崎町大字川崎248",
        "lat": 33.598159,
        "lng": 130.827358
    },
    {
        "code": "B140260500039",
        "type": 16001,
        "name": "真崎小学校",
        "address": "田川郡川崎町大字安真木4917",
        "lat": 33.56973,
        "lng": 130.816381
    },
    {
        "code": "B140260500048",
        "type": 16001,
        "name": "池尻小学校",
        "address": "田川郡川崎町池尻923",
        "lat": 33.616268,
        "lng": 130.804304
    },
    {
        "code": "C140260500019",
        "type": 16002,
        "name": "川崎中学校",
        "address": "田川郡川崎町川崎3670",
        "lat": 33.589576,
        "lng": 130.805304
    },
    {
        "code": "D140360500015",
        "type": 16004,
        "name": "川崎特区明蓬館高等学校",
        "address": "田川郡川崎町大字安眞木1373",
        "lat": 33.548855,
        "lng": 130.822856
    },
    {
        "code": "E140260500014",
        "type": 16012,
        "name": "川崎特別支援学校",
        "address": "田川郡川崎町大字川崎2343",
        "lat": 33.576444,
        "lng": 130.816243
    }
]