[
    {
        "code": "A241320400014",
        "type": 16013,
        "name": "佐賀女子短大附属ひしのみこども園",
        "address": "多久市南多久町大字長尾字大原4064-10",
        "lat": 33.283823,
        "lng": 130.111693
    },
    {
        "code": "A241320400023",
        "type": 16013,
        "name": "認定こども園さくらんぼ",
        "address": "多久市西多久町大字板屋6519-1",
        "lat": 33.260848,
        "lng": 130.063404
    },
    {
        "code": "A241320400032",
        "type": 16013,
        "name": "なごみこども園",
        "address": "多久市東多久町別府2304",
        "lat": 33.282246,
        "lng": 130.161589
    },
    {
        "code": "A241320400041",
        "type": 16013,
        "name": "あおいとりこども園",
        "address": "多久市北多久町大字小侍837-1",
        "lat": 33.287718,
        "lng": 130.0972
    },
    {
        "code": "C241220400012",
        "type": 16014,
        "name": "東原庠舎中央校",
        "address": "多久市南多久町下多久2286-13",
        "lat": 33.281924,
        "lng": 130.11746
    },
    {
        "code": "C241220400021",
        "type": 16014,
        "name": "東原庠舎東部校",
        "address": "多久市東多久町別府3182",
        "lat": 33.283752,
        "lng": 130.151429
    },
    {
        "code": "C241220400030",
        "type": 16014,
        "name": "東原庠舎西渓校",
        "address": "多久市多久町1784-1",
        "lat": 33.260734,
        "lng": 130.09111
    },
    {
        "code": "D141290000205",
        "type": 16004,
        "name": "多久高等学校",
        "address": "多久市北多久町小侍23",
        "lat": 33.290926,
        "lng": 130.109785
    }
]