[
    {
        "code": "A141320600022",
        "type": 16011,
        "name": "たちばな幼稚園",
        "address": "武雄市橘町南片白10536",
        "lat": 33.184725,
        "lng": 130.049918
    },
    {
        "code": "A141320600031",
        "type": 16011,
        "name": "三間坂幼稚園",
        "address": "武雄市山内町大字三間坂甲14831-2",
        "lat": 33.190839,
        "lng": 129.953186
    },
    {
        "code": "A241320600012",
        "type": 16013,
        "name": "遊学舎芳華こども園",
        "address": "武雄市山内町大字大野6999",
        "lat": 33.205332,
        "lng": 129.934474
    },
    {
        "code": "A241320600021",
        "type": 16013,
        "name": "のぞみ幼稚園",
        "address": "武雄市武雄町武雄5680",
        "lat": 33.19197,
        "lng": 130.013628
    },
    {
        "code": "A241320600030",
        "type": 16013,
        "name": "遊学舎武雄こども園",
        "address": "武雄市武雄町富岡12415-1",
        "lat": 33.200634,
        "lng": 130.032563
    },
    {
        "code": "A241320600049",
        "type": 16013,
        "name": "大崎こども園",
        "address": "武雄市北方町大字大崎1665-3",
        "lat": 33.222385,
        "lng": 130.052339
    },
    {
        "code": "A241320600058",
        "type": 16013,
        "name": "志久慈音こども園",
        "address": "武雄市北方町大字志久5831-2",
        "lat": 33.216483,
        "lng": 130.092288
    },
    {
        "code": "A241320600067",
        "type": 16013,
        "name": "あさひこども園",
        "address": "武雄市朝日町大字甘久1763-1",
        "lat": 33.213712,
        "lng": 130.039097
    },
    {
        "code": "A241320600076",
        "type": 16013,
        "name": "武雄くらら園",
        "address": "武雄市山内町大字鳥海9681-1",
        "lat": 33.19473,
        "lng": 129.963255
    },
    {
        "code": "A241320600085",
        "type": 16013,
        "name": "大楠の里こども園",
        "address": "武雄市若木町川古8876",
        "lat": 33.257294,
        "lng": 130.001206
    },
    {
        "code": "B141220600013",
        "type": 16001,
        "name": "武雄小学校",
        "address": "武雄市武雄町富岡9159",
        "lat": 33.198989,
        "lng": 130.0186
    },
    {
        "code": "B141220600022",
        "type": 16001,
        "name": "朝日小学校",
        "address": "武雄市朝日町大字甘久4354-1",
        "lat": 33.214043,
        "lng": 130.03882
    },
    {
        "code": "B141220600031",
        "type": 16001,
        "name": "若木小学校",
        "address": "武雄市若木町大字川古8038",
        "lat": 33.253733,
        "lng": 129.995185
    },
    {
        "code": "B141220600040",
        "type": 16001,
        "name": "武内小学校",
        "address": "武雄市武内町梅野乙15041-2",
        "lat": 33.225791,
        "lng": 129.962187
    },
    {
        "code": "B141220600059",
        "type": 16001,
        "name": "西川登小学校",
        "address": "武雄市西川登町神六20584",
        "lat": 33.137133,
        "lng": 129.97055
    },
    {
        "code": "B141220600068",
        "type": 16001,
        "name": "東川登小学校",
        "address": "武雄市東川登町大字永野5893",
        "lat": 33.160992,
        "lng": 129.998713
    },
    {
        "code": "B141220600077",
        "type": 16001,
        "name": "橘小学校",
        "address": "武雄市橘町大字片白8718-1",
        "lat": 33.181603,
        "lng": 130.054875
    },
    {
        "code": "B141220600086",
        "type": 16001,
        "name": "山内東小学校",
        "address": "武雄市山内町鳥海9602-1",
        "lat": 33.19373,
        "lng": 129.96422
    },
    {
        "code": "B141220600095",
        "type": 16001,
        "name": "山内東小学校犬走分校",
        "address": "武雄市山内町犬走3790-1",
        "lat": 33.174504,
        "lng": 129.96959
    },
    {
        "code": "B141220600102",
        "type": 16001,
        "name": "山内東小学校舟原分校",
        "address": "武雄市山内町鳥海17522-1",
        "lat": 33.182576,
        "lng": 129.953918
    },
    {
        "code": "B141220600111",
        "type": 16001,
        "name": "山内西小学校",
        "address": "武雄市山内町大野6900",
        "lat": 33.20727,
        "lng": 129.933753
    },
    {
        "code": "B141220600120",
        "type": 16001,
        "name": "山内西小学校立野川内分校",
        "address": "武雄市山内町宮野25402-4",
        "lat": 33.193035,
        "lng": 129.933802
    },
    {
        "code": "B141220600139",
        "type": 16001,
        "name": "北方小学校",
        "address": "武雄市北方町大字志久1389",
        "lat": 33.217167,
        "lng": 130.069289
    },
    {
        "code": "B141220600148",
        "type": 16001,
        "name": "御船が丘小学校",
        "address": "武雄市武雄町大字武雄4595",
        "lat": 33.186093,
        "lng": 130.026422
    },
    {
        "code": "C141220600011",
        "type": 16002,
        "name": "武雄中学校",
        "address": "武雄市武雄町大字富岡11606",
        "lat": 33.200711,
        "lng": 130.026794
    },
    {
        "code": "C141220600020",
        "type": 16002,
        "name": "川登中学校",
        "address": "武雄市東川登町袴野16082",
        "lat": 33.141272,
        "lng": 129.990992
    },
    {
        "code": "C141220600039",
        "type": 16002,
        "name": "武雄北中学校",
        "address": "武雄市武内町真手野25956-3",
        "lat": 33.241929,
        "lng": 129.976575
    },
    {
        "code": "C141220600048",
        "type": 16002,
        "name": "山内中学校",
        "address": "武雄市山内町三間坂甲14209",
        "lat": 33.194902,
        "lng": 129.941565
    },
    {
        "code": "C141220600057",
        "type": 16002,
        "name": "北方中学校",
        "address": "武雄市北方町大字志久2384-2",
        "lat": 33.22359,
        "lng": 130.062258
    },
    {
        "code": "C141290000038",
        "type": 16002,
        "name": "武雄青陵中学校",
        "address": "武雄市武雄町大字永島13233-2",
        "lat": 33.193702,
        "lng": 130.03305
    },
    {
        "code": "D141290000376",
        "type": 16004,
        "name": "武雄高等学校",
        "address": "武雄市武雄町大字武雄5540-2",
        "lat": 33.189608,
        "lng": 130.018317
    },
    {
        "code": "H141320600018",
        "type": 16016,
        "name": "武雄看護学校",
        "address": "武雄市武雄町大字昭和297",
        "lat": 33.194187,
        "lng": 130.029105
    },
    {
        "code": "H141320600027",
        "type": 16016,
        "name": "武雄看護リハビリテーション学校",
        "address": "武雄市武雄町大字富岡12623",
        "lat": 33.196853,
        "lng": 130.034221
    }
]