[
    {
        "code": "A141320900010",
        "type": 16011,
        "name": "和光幼稚園",
        "address": "嬉野市嬉野町大字下野丙2319-2",
        "lat": 33.125785,
        "lng": 130.000101
    },
    {
        "code": "A141320900029",
        "type": 16011,
        "name": "塩田幼稚園",
        "address": "嬉野市塩田町大字馬場下甲512",
        "lat": 33.133616,
        "lng": 130.059708
    },
    {
        "code": "A241320900019",
        "type": 16013,
        "name": "ルンビニこども園",
        "address": "嬉野市塩田町谷所甲2250-1",
        "lat": 33.09929,
        "lng": 130.068528
    },
    {
        "code": "A241320900028",
        "type": 16013,
        "name": "嬉野ルンビニこども園",
        "address": "嬉野市嬉野町下宿丁1424-7",
        "lat": 33.10364,
        "lng": 129.981096
    },
    {
        "code": "A241320900037",
        "type": 16013,
        "name": "嬉野幼稚園",
        "address": "嬉野市嬉野町大字下野甲115-19",
        "lat": 33.096237,
        "lng": 129.992648
    },
    {
        "code": "B141220900010",
        "type": 16001,
        "name": "嬉野小学校",
        "address": "嬉野市嬉野町下宿乙1647",
        "lat": 33.102421,
        "lng": 129.981946
    },
    {
        "code": "B141220900029",
        "type": 16001,
        "name": "大野原小学校",
        "address": "嬉野市嬉野町岩屋川内丙720",
        "lat": 33.03765,
        "lng": 130.00037
    },
    {
        "code": "B141220900038",
        "type": 16001,
        "name": "吉田小学校",
        "address": "嬉野市嬉野町大字吉田丙2997",
        "lat": 33.080462,
        "lng": 130.019394
    },
    {
        "code": "B141220900047",
        "type": 16001,
        "name": "五町田小学校",
        "address": "嬉野市塩田町大字五町田甲3717",
        "lat": 33.116266,
        "lng": 130.06304
    },
    {
        "code": "B141220900056",
        "type": 16001,
        "name": "五町田小学校谷所分校",
        "address": "嬉野市塩田町大字谷所乙684-1",
        "lat": 33.100122,
        "lng": 130.057182
    },
    {
        "code": "B141220900065",
        "type": 16001,
        "name": "久間小学校",
        "address": "嬉野市塩田町久間乙1885",
        "lat": 33.14786,
        "lng": 130.059964
    },
    {
        "code": "B141220900074",
        "type": 16001,
        "name": "塩田小学校",
        "address": "嬉野市塩田町大字馬場下甲3817",
        "lat": 33.126768,
        "lng": 130.044976
    },
    {
        "code": "B141220900083",
        "type": 16001,
        "name": "大草野小学校",
        "address": "嬉野市嬉野町大字下野丙80",
        "lat": 33.126357,
        "lng": 130.002214
    },
    {
        "code": "B141220900092",
        "type": 16001,
        "name": "轟小学校",
        "address": "嬉野市嬉野町岩屋川内乙2597",
        "lat": 33.085495,
        "lng": 129.978333
    },
    {
        "code": "C141220900018",
        "type": 16002,
        "name": "塩田中学校",
        "address": "嬉野市塩田町馬場下甲1801",
        "lat": 33.128765,
        "lng": 130.061282
    },
    {
        "code": "C141220900027",
        "type": 16002,
        "name": "嬉野中学校",
        "address": "嬉野市嬉野町下宿甲2786",
        "lat": 33.10906,
        "lng": 129.986194
    },
    {
        "code": "C141220900036",
        "type": 16002,
        "name": "大野原中学校",
        "address": "嬉野市嬉野町岩屋川内丙720",
        "lat": 33.037584,
        "lng": 130.000403
    },
    {
        "code": "C141220900045",
        "type": 16002,
        "name": "吉田中学校",
        "address": "嬉野市嬉野町大字吉田丙3016",
        "lat": 33.080245,
        "lng": 130.017343
    },
    {
        "code": "D141290000312",
        "type": 16004,
        "name": "嬉野高等学校塩田校舎",
        "address": "嬉野市塩田町大字馬場下甲1418",
        "lat": 33.129416,
        "lng": 130.055619
    },
    {
        "code": "D141290000321",
        "type": 16004,
        "name": "嬉野高等学校嬉野校舎",
        "address": "嬉野市嬉野町大字下宿甲700",
        "lat": 33.108276,
        "lng": 129.996549
    },
    {
        "code": "E141290000088",
        "type": 16012,
        "name": "うれしの特別支援学校",
        "address": "嬉野市塩田町大字五町田甲2877-1",
        "lat": 33.119279,
        "lng": 130.061622
    },
    {
        "code": "H141320900015",
        "type": 16016,
        "name": "嬉野医療センター附属看護学校",
        "address": "嬉野市嬉野町大字下宿甲4561-2",
        "lat": 33.105135,
        "lng": 129.998419
    }
]