[
    {
        "code": "A104392090014",
        "type": 16011,
        "name": "東北学院幼稚園",
        "address": "多賀城市高崎3-7-7",
        "lat": 38.296102,
        "lng": 141.001008
    },
    {
        "code": "A104392090023",
        "type": 16011,
        "name": "桜木花園幼稚園",
        "address": "多賀城市桜木3-5-7",
        "lat": 38.288971,
        "lng": 141.015863
    },
    {
        "code": "A104392090032",
        "type": 16011,
        "name": "柏幼稚園",
        "address": "多賀城市大代5-17-50",
        "lat": 38.294799,
        "lng": 141.037986
    },
    {
        "code": "A104392090041",
        "type": 16011,
        "name": "睦幼稚園",
        "address": "多賀城市鶴ヶ谷2-29-3",
        "lat": 38.298139,
        "lng": 141.01824
    },
    {
        "code": "A104392090050",
        "type": 16011,
        "name": "多賀城高崎幼稚園",
        "address": "多賀城市城南2-21-1",
        "lat": 38.294144,
        "lng": 140.991294
    },
    {
        "code": "A104392090069",
        "type": 16011,
        "name": "八幡花園幼稚園",
        "address": "多賀城市八幡字庚田54",
        "lat": 38.288001,
        "lng": 140.996745
    },
    {
        "code": "A104392090078",
        "type": 16011,
        "name": "せいがん幼稚園",
        "address": "多賀城市新田字下216",
        "lat": 38.288852,
        "lng": 140.972908
    },
    {
        "code": "A204392090013",
        "type": 16013,
        "name": "多賀城東幼稚園・あずま保育園",
        "address": "多賀城市浮島1-13-5",
        "lat": 38.302671,
        "lng": 140.995817
    },
    {
        "code": "A204392090022",
        "type": 16013,
        "name": "多賀城バンビの丘こども園",
        "address": "多賀城市新田字北1-3",
        "lat": 38.297414,
        "lng": 140.96165
    },
    {
        "code": "B104222090011",
        "type": 16001,
        "name": "多賀城小学校",
        "address": "多賀城市伝上山1-1-1",
        "lat": 38.29575,
        "lng": 141.00961
    },
    {
        "code": "B104222090020",
        "type": 16001,
        "name": "多賀城東小学校",
        "address": "多賀城市笠神5-8-1",
        "lat": 38.300195,
        "lng": 141.034052
    },
    {
        "code": "B104222090039",
        "type": 16001,
        "name": "山王小学校",
        "address": "多賀城市新田字北320",
        "lat": 38.295193,
        "lng": 140.970447
    },
    {
        "code": "B104222090048",
        "type": 16001,
        "name": "天真小学校",
        "address": "多賀城市鶴ヶ谷2-21-1",
        "lat": 38.296861,
        "lng": 141.017109
    },
    {
        "code": "B104222090057",
        "type": 16001,
        "name": "城南小学校",
        "address": "多賀城市城南1-17-1",
        "lat": 38.299915,
        "lng": 140.991834
    },
    {
        "code": "B104222090066",
        "type": 16001,
        "name": "多賀城八幡小学校",
        "address": "多賀城市八幡字六貫田172",
        "lat": 38.287695,
        "lng": 140.993779
    },
    {
        "code": "C104222030030",
        "type": 16002,
        "name": "第三中学校",
        "address": "多賀城市笠神2-1-1",
        "lat": 38.305471,
        "lng": 141.022941
    },
    {
        "code": "C104222090019",
        "type": 16002,
        "name": "多賀城中学校",
        "address": "多賀城市鶴ヶ谷1-9-1",
        "lat": 38.296028,
        "lng": 141.01461
    },
    {
        "code": "C104222090028",
        "type": 16002,
        "name": "第二中学校",
        "address": "多賀城市南宮字八幡170",
        "lat": 38.301859,
        "lng": 140.978779
    },
    {
        "code": "C104222090037",
        "type": 16002,
        "name": "東豊中学校",
        "address": "多賀城市笠神5-4-1",
        "lat": 38.300195,
        "lng": 141.033218
    },
    {
        "code": "C104222090046",
        "type": 16002,
        "name": "高崎中学校",
        "address": "多賀城市高崎2-25-1",
        "lat": 38.297694,
        "lng": 140.995445
    },
    {
        "code": "D104212090018",
        "type": 16004,
        "name": "多賀城高等学校",
        "address": "多賀城市笠神2-17-1",
        "lat": 38.302416,
        "lng": 141.025997
    },
    {
        "code": "D104212090027",
        "type": 16004,
        "name": "貞山高等学校",
        "address": "多賀城市鶴ヶ谷1-10-2",
        "lat": 38.297972,
        "lng": 141.01461
    }
]