[
    {
        "code": "A104392110010",
        "type": 16011,
        "name": "岩沼こばと幼稚園",
        "address": "岩沼市桜3-8-15",
        "lat": 38.109014,
        "lng": 140.869862
    },
    {
        "code": "A104392110029",
        "type": 16011,
        "name": "岩沼さくら幼稚園",
        "address": "岩沼市里の杜3-4-20",
        "lat": 38.108431,
        "lng": 140.878742
    },
    {
        "code": "A104392110038",
        "type": 16011,
        "name": "岩沼南こばと幼稚園",
        "address": "岩沼市桑原4-10-6",
        "lat": 38.099078,
        "lng": 140.861594
    },
    {
        "code": "A204392110019",
        "type": 16013,
        "name": "チアフルこども園",
        "address": "岩沼市三色吉字中ﾉ原75-6",
        "lat": 38.12334,
        "lng": 140.842417
    },
    {
        "code": "A204392110028",
        "type": 16013,
        "name": "岩沼はるかぜこども園",
        "address": "岩沼市押分字水先5-6",
        "lat": 38.102648,
        "lng": 140.88172
    },
    {
        "code": "A204392110037",
        "type": 16013,
        "name": "岩沼西こばと幼稚園・ぶどうの木保育園",
        "address": "岩沼市松ヶ丘1-10-2",
        "lat": 38.111246,
        "lng": 140.850419
    },
    {
        "code": "B104222110017",
        "type": 16001,
        "name": "岩沼小学校",
        "address": "岩沼市中央2-1-1",
        "lat": 38.109653,
        "lng": 140.865743
    },
    {
        "code": "B104222110026",
        "type": 16001,
        "name": "玉浦小学校",
        "address": "岩沼市早股字小林396-1",
        "lat": 38.104655,
        "lng": 140.910185
    },
    {
        "code": "B104222110035",
        "type": 16001,
        "name": "岩沼西小学校",
        "address": "岩沼市松ヶ丘1-17",
        "lat": 38.110485,
        "lng": 140.851578
    },
    {
        "code": "B104222110044",
        "type": 16001,
        "name": "岩沼南小学校",
        "address": "岩沼市桑原4-4-1",
        "lat": 38.099653,
        "lng": 140.866021
    },
    {
        "code": "C104222110015",
        "type": 16002,
        "name": "岩沼中学校",
        "address": "岩沼市桑原4-8-1",
        "lat": 38.100209,
        "lng": 140.861577
    },
    {
        "code": "C104222110024",
        "type": 16002,
        "name": "岩沼北中学校",
        "address": "岩沼市相の原2-3-1",
        "lat": 38.116597,
        "lng": 140.873242
    },
    {
        "code": "C104222110033",
        "type": 16002,
        "name": "玉浦中学校",
        "address": "岩沼市恵み野2-4-1",
        "lat": 38.107088,
        "lng": 140.905696
    },
    {
        "code": "C104222110042",
        "type": 16002,
        "name": "岩沼西中学校",
        "address": "岩沼市三色吉字竹11",
        "lat": 38.118262,
        "lng": 140.844078
    },
    {
        "code": "D104212110014",
        "type": 16004,
        "name": "名取高等学校",
        "address": "岩沼市字朝日50",
        "lat": 38.115207,
        "lng": 140.855466
    },
    {
        "code": "E104212110011",
        "type": 16012,
        "name": "支援学校岩沼高等学園",
        "address": "岩沼市北長谷字豊田1-1",
        "lat": 38.108331,
        "lng": 140.843185
    },
    {
        "code": "H104392110015",
        "type": 16016,
        "name": "東日本航空専門学校",
        "address": "岩沼市下野郷字菱沼84",
        "lat": 38.125334,
        "lng": 140.917886
    },
    {
        "code": "H204392110014",
        "type": 16015,
        "name": "スズキ病院附属助産学校",
        "address": "岩沼市里の杜3-5-21",
        "lat": 38.108975,
        "lng": 140.879409
    }
]