[
    {
        "code": "A104222120017",
        "type": 16011,
        "name": "南方幼稚園",
        "address": "登米市南方町山成95-6",
        "lat": 38.658973,
        "lng": 141.165569
    },
    {
        "code": "A104222120044",
        "type": 16011,
        "name": "東郷幼稚園",
        "address": "登米市南方町堂地218-1",
        "lat": 38.660925,
        "lng": 141.195743
    },
    {
        "code": "A104222120053",
        "type": 16011,
        "name": "北方幼稚園",
        "address": "登米市迫町北方字富永109-2",
        "lat": 38.702251,
        "lng": 141.161058
    },
    {
        "code": "A104222120062",
        "type": 16011,
        "name": "米山西幼稚園",
        "address": "登米市米山町中津山字清水24-1",
        "lat": 38.621639,
        "lng": 141.16534
    },
    {
        "code": "A104222120071",
        "type": 16011,
        "name": "米山東幼稚園",
        "address": "登米市米山町字桜岡鈴根11-1",
        "lat": 38.620969,
        "lng": 141.217046
    },
    {
        "code": "A104222120080",
        "type": 16011,
        "name": "中田幼稚園",
        "address": "登米市中田町宝江新井田字要害3-1",
        "lat": 38.679485,
        "lng": 141.247004
    },
    {
        "code": "A104222120099",
        "type": 16011,
        "name": "新田幼稚園",
        "address": "登米市迫町新田字山崎259-4",
        "lat": 38.706509,
        "lng": 141.119578
    },
    {
        "code": "A104392120018",
        "type": 16011,
        "name": "登米幼稚園",
        "address": "登米市登米町寺池桜小路64-2",
        "lat": 38.652618,
        "lng": 141.280706
    },
    {
        "code": "A104392120027",
        "type": 16011,
        "name": "石森幼稚園",
        "address": "登米市中田町石森字町131",
        "lat": 38.719523,
        "lng": 141.213558
    },
    {
        "code": "A204222120016",
        "type": 16013,
        "name": "豊里こども園",
        "address": "登米市豊里町小口前73-1",
        "lat": 38.58699,
        "lng": 141.252139
    },
    {
        "code": "A204392120017",
        "type": 16013,
        "name": "佐沼明星こども園",
        "address": "登米市迫町佐沼字上舟丁12",
        "lat": 38.689886,
        "lng": 141.19586
    },
    {
        "code": "A204392120026",
        "type": 16013,
        "name": "登米北上こども園",
        "address": "登米市登米町寺池目子待井393",
        "lat": 38.656732,
        "lng": 141.277806
    },
    {
        "code": "A204392120035",
        "type": 16013,
        "name": "米谷こども園",
        "address": "登米市東和町米谷字石橋26-1",
        "lat": 38.706791,
        "lng": 141.295472
    },
    {
        "code": "A204392120044",
        "type": 16013,
        "name": "白鳥ゆめっ子園",
        "address": "登米市迫町北方字三方島西22-2",
        "lat": 38.720726,
        "lng": 141.161958
    },
    {
        "code": "A204392120053",
        "type": 16013,
        "name": "白鳥水の里こども園",
        "address": "登米市迫町佐沼字新駒木袋348-1",
        "lat": 38.682801,
        "lng": 141.208679
    },
    {
        "code": "A204392120062",
        "type": 16013,
        "name": "つやま杉の子こども園",
        "address": "登米市津山町柳津字形沼9-2",
        "lat": 38.610112,
        "lng": 141.302372
    },
    {
        "code": "A204392120071",
        "type": 16013,
        "name": "石越にじいろこども園",
        "address": "登米市石越町南郷新石沢前47",
        "lat": 38.753356,
        "lng": 141.175994
    },
    {
        "code": "A204392120080",
        "type": 16013,
        "name": "幼保連携型認定こども園森のくまさん",
        "address": "登米市中田町石森字西田南128",
        "lat": 38.71218,
        "lng": 141.206966
    },
    {
        "code": "B104222120015",
        "type": 16001,
        "name": "佐沼小学校",
        "address": "登米市迫町佐沼字錦108",
        "lat": 38.688088,
        "lng": 141.201933
    },
    {
        "code": "B104222120024",
        "type": 16001,
        "name": "北方小学校",
        "address": "登米市迫町北方字富永110-5",
        "lat": 38.701019,
        "lng": 141.160042
    },
    {
        "code": "B104222120033",
        "type": 16001,
        "name": "登米小学校",
        "address": "登米市登米町寺池桜小路6",
        "lat": 38.656019,
        "lng": 141.280396
    },
    {
        "code": "B104222120042",
        "type": 16001,
        "name": "米谷小学校",
        "address": "登米市東和町米谷字越路75",
        "lat": 38.707142,
        "lng": 141.296261
    },
    {
        "code": "B104222120051",
        "type": 16001,
        "name": "錦織小学校",
        "address": "登米市東和町錦織字山居沢15",
        "lat": 38.729449,
        "lng": 141.273899
    },
    {
        "code": "B104222120060",
        "type": 16001,
        "name": "米川小学校",
        "address": "登米市東和町米川字東綱木31",
        "lat": 38.773238,
        "lng": 141.331118
    },
    {
        "code": "B104222120079",
        "type": 16001,
        "name": "石森小学校",
        "address": "登米市中田町石森字前田29",
        "lat": 38.723111,
        "lng": 141.21116
    },
    {
        "code": "B104222120088",
        "type": 16001,
        "name": "加賀野小学校",
        "address": "登米市中田町石森字加賀野1-17-1",
        "lat": 38.703191,
        "lng": 141.216287
    },
    {
        "code": "B104222120097",
        "type": 16001,
        "name": "浅水小学校",
        "address": "登米市中田町浅水字下川面188",
        "lat": 38.708053,
        "lng": 141.26643
    },
    {
        "code": "B104222120104",
        "type": 16001,
        "name": "豊里小学校",
        "address": "登米市豊里町上町裏100",
        "lat": 38.582599,
        "lng": 141.251477
    },
    {
        "code": "B104222120113",
        "type": 16001,
        "name": "中津山小学校",
        "address": "登米市米山町中津山字城内前4",
        "lat": 38.623683,
        "lng": 141.165563
    },
    {
        "code": "B104222120122",
        "type": 16001,
        "name": "米岡小学校",
        "address": "登米市米山町西野字古舘廻27-2",
        "lat": 38.632928,
        "lng": 141.197347
    },
    {
        "code": "B104222120131",
        "type": 16001,
        "name": "米山東小学校",
        "address": "登米市米山町字桜岡鈴根1",
        "lat": 38.620083,
        "lng": 141.217756
    },
    {
        "code": "B104222120140",
        "type": 16001,
        "name": "石越小学校",
        "address": "登米市石越町北郷字長根134",
        "lat": 38.757698,
        "lng": 141.182353
    },
    {
        "code": "B104222120159",
        "type": 16001,
        "name": "南方小学校",
        "address": "登米市南方町山成95-6",
        "lat": 38.659183,
        "lng": 141.166391
    },
    {
        "code": "B104222120168",
        "type": 16001,
        "name": "西郷小学校",
        "address": "登米市南方町尼池10-1",
        "lat": 38.65788,
        "lng": 141.119374
    },
    {
        "code": "B104222120177",
        "type": 16001,
        "name": "東郷小学校",
        "address": "登米市南方町堂地193-2",
        "lat": 38.660833,
        "lng": 141.194025
    },
    {
        "code": "B104222120186",
        "type": 16001,
        "name": "柳津小学校",
        "address": "登米市津山町柳津字本町57",
        "lat": 38.616137,
        "lng": 141.29978
    },
    {
        "code": "B104222120195",
        "type": 16001,
        "name": "横山小学校",
        "address": "登米市津山町横山字本町91",
        "lat": 38.632239,
        "lng": 141.353095
    },
    {
        "code": "B104222120202",
        "type": 16001,
        "name": "宝江小学校",
        "address": "登米市中田町宝江新井田字後田22",
        "lat": 38.693861,
        "lng": 141.243434
    },
    {
        "code": "B104222120211",
        "type": 16001,
        "name": "上沼小学校",
        "address": "登米市中田町上沼字弥勒寺大下91-2",
        "lat": 38.730273,
        "lng": 141.258275
    },
    {
        "code": "B104222120220",
        "type": 16001,
        "name": "新田小学校",
        "address": "登米市迫町新田字山居37-1",
        "lat": 38.699674,
        "lng": 141.108994
    },
    {
        "code": "C104222120013",
        "type": 16002,
        "name": "佐沼中学校",
        "address": "登米市迫町佐沼字沼向4",
        "lat": 38.695118,
        "lng": 141.190264
    },
    {
        "code": "C104222120022",
        "type": 16002,
        "name": "新田中学校",
        "address": "登米市迫町新田字山居37-1",
        "lat": 38.700062,
        "lng": 141.109559
    },
    {
        "code": "C104222120031",
        "type": 16002,
        "name": "登米中学校",
        "address": "登米市登米町大字日根牛小川向10",
        "lat": 38.656323,
        "lng": 141.289574
    },
    {
        "code": "C104222120040",
        "type": 16002,
        "name": "豊里中学校",
        "address": "登米市豊里町上町裏100",
        "lat": 38.582936,
        "lng": 141.252227
    },
    {
        "code": "C104222120059",
        "type": 16002,
        "name": "米山中学校",
        "address": "登米市米山町西野字西小路2",
        "lat": 38.632059,
        "lng": 141.191879
    },
    {
        "code": "C104222120068",
        "type": 16002,
        "name": "石越中学校",
        "address": "登米市石越町南郷字矢作48",
        "lat": 38.754613,
        "lng": 141.182491
    },
    {
        "code": "C104222120077",
        "type": 16002,
        "name": "南方中学校",
        "address": "登米市南方町西山成前21-1",
        "lat": 38.659964,
        "lng": 141.1598
    },
    {
        "code": "C104222120086",
        "type": 16002,
        "name": "中田中学校",
        "address": "登米市中田町宝江黒沼字新西野70",
        "lat": 38.704624,
        "lng": 141.237233
    },
    {
        "code": "C104222120095",
        "type": 16002,
        "name": "津山中学校",
        "address": "登米市津山町柳津字舘石6",
        "lat": 38.614618,
        "lng": 141.322776
    },
    {
        "code": "C104222120102",
        "type": 16002,
        "name": "東和中学校",
        "address": "登米市東和町米谷字細野35",
        "lat": 38.735699,
        "lng": 141.312859
    },
    {
        "code": "D104212120012",
        "type": 16004,
        "name": "佐沼高等学校",
        "address": "登米市迫町佐沼字末広1",
        "lat": 38.690822,
        "lng": 141.204619
    },
    {
        "code": "D104212120021",
        "type": 16004,
        "name": "登米高等学校",
        "address": "登米市登米町寺池桜小路3",
        "lat": 38.657277,
        "lng": 141.279565
    },
    {
        "code": "D104212120030",
        "type": 16004,
        "name": "登米総合産業高等学校",
        "address": "登米市中田町上沼字北桜場223-1",
        "lat": 38.71914,
        "lng": 141.248948
    },
    {
        "code": "D104392120012",
        "type": 16004,
        "name": "飛鳥未来きずな高等学校",
        "address": "登米市米山町中津山字筒場埣215",
        "lat": 38.611943,
        "lng": 141.17845
    },
    {
        "code": "E104212120019",
        "type": 16012,
        "name": "迫支援学校",
        "address": "登米市迫町北方字大洞59-10",
        "lat": 38.695707,
        "lng": 141.17596
    },
    {
        "code": "H104392120013",
        "type": 16016,
        "name": "佐沼ファッション専門学校",
        "address": "登米市迫町佐沼字小金丁22-3",
        "lat": 38.687164,
        "lng": 141.195056
    },
    {
        "code": "H204392120012",
        "type": 16015,
        "name": "佐沼経理学校",
        "address": "登米市迫町佐沼字錦150",
        "lat": 38.689706,
        "lng": 141.201394
    }
]