[
    {
        "code": "A104222140013",
        "type": 16011,
        "name": "矢本中央幼稚園",
        "address": "東松島市矢本字大溜81",
        "lat": 38.427492,
        "lng": 141.214916
    },
    {
        "code": "A104392140014",
        "type": 16011,
        "name": "鳴瀬幼稚園",
        "address": "東松島市小野字町120",
        "lat": 38.407094,
        "lng": 141.151929
    },
    {
        "code": "A104392140023",
        "type": 16011,
        "name": "のびる幼稚園",
        "address": "東松島市矢本字西新町10-19",
        "lat": 38.42408,
        "lng": 141.202881
    },
    {
        "code": "A104392140032",
        "type": 16011,
        "name": "矢本はなぶさ幼稚園",
        "address": "東松島市赤井字川前弐215-1",
        "lat": 38.430159,
        "lng": 141.23658
    },
    {
        "code": "B104222140011",
        "type": 16001,
        "name": "矢本東小学校",
        "address": "東松島市矢本字大溜126-1",
        "lat": 38.426017,
        "lng": 141.213191
    },
    {
        "code": "B104222140020",
        "type": 16001,
        "name": "大曲小学校",
        "address": "東松島市大曲字寺前5-2",
        "lat": 38.425462,
        "lng": 141.234855
    },
    {
        "code": "B104222140039",
        "type": 16001,
        "name": "赤井小学校",
        "address": "東松島市赤井字中2号11-1",
        "lat": 38.446571,
        "lng": 141.2268
    },
    {
        "code": "B104222140048",
        "type": 16001,
        "name": "赤井南小学校",
        "address": "東松島市赤井字川前一107",
        "lat": 38.433604,
        "lng": 141.242468
    },
    {
        "code": "B104222140057",
        "type": 16001,
        "name": "大塩小学校",
        "address": "東松島市大塩字中沢下5",
        "lat": 38.441848,
        "lng": 141.177083
    },
    {
        "code": "B104222140066",
        "type": 16001,
        "name": "矢本西小学校",
        "address": "東松島市矢本字四反走63",
        "lat": 38.422406,
        "lng": 141.203192
    },
    {
        "code": "B104222140075",
        "type": 16001,
        "name": "鳴瀬桜華小学校",
        "address": "東松島市小野字裏丁39",
        "lat": 38.407666,
        "lng": 141.153443
    },
    {
        "code": "B104222140084",
        "type": 16001,
        "name": "宮野森小学校",
        "address": "東松島市野蒜ヶ丘2-1-1",
        "lat": 38.377962,
        "lng": 141.150364
    },
    {
        "code": "C104222140019",
        "type": 16002,
        "name": "矢本第一中学校",
        "address": "東松島市小松字上浮足194",
        "lat": 38.42685,
        "lng": 141.207914
    },
    {
        "code": "C104222140028",
        "type": 16002,
        "name": "矢本第二中学校",
        "address": "東松島市赤井字川前一16-1",
        "lat": 38.432128,
        "lng": 141.239299
    },
    {
        "code": "C104222140037",
        "type": 16002,
        "name": "鳴瀬未来中学校",
        "address": "東松島市野蒜字上野蒜232",
        "lat": 38.387091,
        "lng": 141.147725
    },
    {
        "code": "D104212140018",
        "type": 16004,
        "name": "石巻西高等学校",
        "address": "東松島市赤井字七反谷地27",
        "lat": 38.438794,
        "lng": 141.253187
    },
    {
        "code": "D104212140027",
        "type": 16004,
        "name": "東松島高等学校",
        "address": "東松島市矢本字上河戸16",
        "lat": 38.423795,
        "lng": 141.211525
    },
    {
        "code": "D104392140018",
        "type": 16004,
        "name": "日本ウェルネス宮城高等学校",
        "address": "東松島市小野字裏丁1",
        "lat": 38.408958,
        "lng": 141.151103
    }
]