[
    {
        "code": "A242310000198",
        "type": 16013,
        "name": "じこう保育園・慈光幼稚園",
        "address": "松浦市御厨町中野免13-第1",
        "lat": 33.36052,
        "lng": 129.669479
    },
    {
        "code": "A242310000205",
        "type": 16013,
        "name": "松浦幼稚園",
        "address": "松浦市志佐町浦免1567-1",
        "lat": 33.33563,
        "lng": 129.709322
    },
    {
        "code": "A242310000759",
        "type": 16013,
        "name": "たのしか保育園",
        "address": "松浦市志佐町栢木免1725",
        "lat": 33.325814,
        "lng": 129.708981
    },
    {
        "code": "A242310000900",
        "type": 16013,
        "name": "みくりや双葉園",
        "address": "松浦市御厨町前田免541-1",
        "lat": 33.361986,
        "lng": 129.662657
    },
    {
        "code": "B142210001134",
        "type": 16001,
        "name": "御厨小学校",
        "address": "松浦市御厨町前田免10",
        "lat": 33.362631,
        "lng": 129.662404
    },
    {
        "code": "B142210001143",
        "type": 16001,
        "name": "星鹿小学校",
        "address": "松浦市星鹿町下田免700",
        "lat": 33.384573,
        "lng": 129.67132
    },
    {
        "code": "B142210001152",
        "type": 16001,
        "name": "青島小学校",
        "address": "松浦市星鹿町青島免701",
        "lat": 33.413732,
        "lng": 129.68592
    },
    {
        "code": "B142210001161",
        "type": 16001,
        "name": "志佐小学校",
        "address": "松浦市志佐町浦免1590",
        "lat": 33.336734,
        "lng": 129.706997
    },
    {
        "code": "B142210001170",
        "type": 16001,
        "name": "上志佐小学校",
        "address": "松浦市志佐町笛吹免901",
        "lat": 33.306666,
        "lng": 129.728344
    },
    {
        "code": "B142210001189",
        "type": 16001,
        "name": "調川小学校",
        "address": "松浦市調川町下免986",
        "lat": 33.35255,
        "lng": 129.733675
    },
    {
        "code": "B142210001198",
        "type": 16001,
        "name": "今福小学校",
        "address": "松浦市今福町東免16",
        "lat": 33.349967,
        "lng": 129.768228
    },
    {
        "code": "B142210002080",
        "type": 16001,
        "name": "鷹島小学校",
        "address": "松浦市鷹島町中通免1974",
        "lat": 33.436236,
        "lng": 129.754172
    },
    {
        "code": "B142210003141",
        "type": 16001,
        "name": "福島養源小学校",
        "address": "松浦市福島町塩浜免2950",
        "lat": 33.366485,
        "lng": 129.822858
    },
    {
        "code": "C142210000650",
        "type": 16002,
        "name": "御厨中学校",
        "address": "松浦市御厨町里免577",
        "lat": 33.362797,
        "lng": 129.665904
    },
    {
        "code": "C142210000669",
        "type": 16002,
        "name": "青島中学校",
        "address": "松浦市星鹿町青島免701",
        "lat": 33.413654,
        "lng": 129.685873
    },
    {
        "code": "C142210000678",
        "type": 16002,
        "name": "志佐中学校",
        "address": "松浦市志佐町浦免808",
        "lat": 33.339968,
        "lng": 129.711316
    },
    {
        "code": "C142210000687",
        "type": 16002,
        "name": "調川中学校",
        "address": "松浦市調川町下免1009",
        "lat": 33.352161,
        "lng": 129.732064
    },
    {
        "code": "C142210000696",
        "type": 16002,
        "name": "今福中学校",
        "address": "松浦市今福町浦免431-5",
        "lat": 33.353383,
        "lng": 129.766339
    },
    {
        "code": "C142210001132",
        "type": 16002,
        "name": "福島中学校",
        "address": "松浦市塩浜免2953-1",
        "lat": 33.366937,
        "lng": 129.821933
    },
    {
        "code": "C142210001141",
        "type": 16002,
        "name": "鷹島中学校",
        "address": "松浦市鷹島町中通免1974",
        "lat": 33.435694,
        "lng": 129.757956
    },
    {
        "code": "D142210000140",
        "type": 16004,
        "name": "松浦高等学校",
        "address": "松浦市志佐町浦免738-1",
        "lat": 33.34193,
        "lng": 129.71077
    }
]