[
    {
        "code": "A242310000223",
        "type": 16013,
        "name": "小さき花の幼稚園",
        "address": "雲仙市愛野町乙771",
        "lat": 32.816182,
        "lng": 130.155474
    },
    {
        "code": "A242310000232",
        "type": 16013,
        "name": "小浜こども園小浜幼稚園小浜保育園",
        "address": "雲仙市小浜町北本町207",
        "lat": 32.733239,
        "lng": 130.20885
    },
    {
        "code": "A242310000241",
        "type": 16013,
        "name": "くにみ幼稚園",
        "address": "雲仙市国見町多比良丁180",
        "lat": 32.86092,
        "lng": 130.303948
    },
    {
        "code": "A242310000250",
        "type": 16013,
        "name": "うせん辻幼稚園",
        "address": "雲仙市吾妻町馬場名416",
        "lat": 32.828956,
        "lng": 130.189804
    },
    {
        "code": "A242310000394",
        "type": 16013,
        "name": "くにみ子ども園",
        "address": "雲仙市国見町多比良丙189-2",
        "lat": 32.862028,
        "lng": 130.303037
    },
    {
        "code": "B142210001704",
        "type": 16001,
        "name": "多比良小学校",
        "address": "雲仙市国見町多比良丙724",
        "lat": 32.861301,
        "lng": 130.302434
    },
    {
        "code": "B142210001713",
        "type": 16001,
        "name": "土黒小学校",
        "address": "雲仙市国見町土黒乙100",
        "lat": 32.8669,
        "lng": 130.294866
    },
    {
        "code": "B142210001722",
        "type": 16001,
        "name": "八斗木小学校",
        "address": "雲仙市国見町土黒庚337",
        "lat": 32.836391,
        "lng": 130.290619
    },
    {
        "code": "B142210001731",
        "type": 16001,
        "name": "神代小学校",
        "address": "雲仙市国見町神代丙250",
        "lat": 32.86972,
        "lng": 130.271284
    },
    {
        "code": "B142210001740",
        "type": 16001,
        "name": "西郷小学校",
        "address": "雲仙市瑞穂町西郷甲1165-1",
        "lat": 32.864165,
        "lng": 130.250143
    },
    {
        "code": "B142210001759",
        "type": 16001,
        "name": "岩戸小学校",
        "address": "雲仙市瑞穂町西郷丁487-1",
        "lat": 32.831384,
        "lng": 130.256838
    },
    {
        "code": "B142210001768",
        "type": 16001,
        "name": "大正小学校",
        "address": "雲仙市瑞穂町古部甲81",
        "lat": 32.858046,
        "lng": 130.226611
    },
    {
        "code": "B142210001777",
        "type": 16001,
        "name": "川床小学校",
        "address": "雲仙市吾妻町川床名129",
        "lat": 32.819682,
        "lng": 130.20288
    },
    {
        "code": "B142210001786",
        "type": 16001,
        "name": "大塚小学校",
        "address": "雲仙市吾妻町永中名54",
        "lat": 32.835262,
        "lng": 130.180078
    },
    {
        "code": "B142210001795",
        "type": 16001,
        "name": "鶴田小学校",
        "address": "雲仙市吾妻町古城名159-1",
        "lat": 32.84507,
        "lng": 130.197558
    },
    {
        "code": "B142210001802",
        "type": 16001,
        "name": "愛野小学校",
        "address": "雲仙市愛野町乙566",
        "lat": 32.81621,
        "lng": 130.153665
    },
    {
        "code": "B142210001811",
        "type": 16001,
        "name": "千々石第一小学校",
        "address": "雲仙市千々石町戊294",
        "lat": 32.784477,
        "lng": 130.199984
    },
    {
        "code": "B142210001820",
        "type": 16001,
        "name": "千々石第二小学校",
        "address": "雲仙市千々石町庚1450",
        "lat": 32.762784,
        "lng": 130.215345
    },
    {
        "code": "B142210001839",
        "type": 16001,
        "name": "小浜小学校",
        "address": "雲仙市小浜町北本町550",
        "lat": 32.732059,
        "lng": 130.211527
    },
    {
        "code": "B142210001848",
        "type": 16001,
        "name": "北串小学校",
        "address": "雲仙市小浜町山畑334-5",
        "lat": 32.696991,
        "lng": 130.188582
    },
    {
        "code": "B142210001857",
        "type": 16001,
        "name": "南串第一小学校",
        "address": "雲仙市南串山町甲2480",
        "lat": 32.68376,
        "lng": 130.164547
    },
    {
        "code": "B142210001866",
        "type": 16001,
        "name": "南串第二小学校",
        "address": "雲仙市南串山町丙1622",
        "lat": 32.675733,
        "lng": 130.141382
    },
    {
        "code": "C142210000936",
        "type": 16002,
        "name": "国見中学校",
        "address": "雲仙市国見町土黒乙370",
        "lat": 32.866205,
        "lng": 130.288812
    },
    {
        "code": "C142210000945",
        "type": 16002,
        "name": "瑞穂中学校",
        "address": "雲仙市瑞穂町西郷辛1135-1",
        "lat": 32.864251,
        "lng": 130.239158
    },
    {
        "code": "C142210000954",
        "type": 16002,
        "name": "吾妻中学校",
        "address": "雲仙市吾妻町大木場名190-1",
        "lat": 32.836824,
        "lng": 130.193896
    },
    {
        "code": "C142210000963",
        "type": 16002,
        "name": "愛野中学校",
        "address": "雲仙市愛野町乙1674",
        "lat": 32.812651,
        "lng": 130.15303
    },
    {
        "code": "C142210000972",
        "type": 16002,
        "name": "千々石中学校",
        "address": "雲仙市千々石町己305",
        "lat": 32.78735,
        "lng": 130.205274
    },
    {
        "code": "C142210000981",
        "type": 16002,
        "name": "小浜中学校",
        "address": "雲仙市小浜町南本町290",
        "lat": 32.724682,
        "lng": 130.210063
    },
    {
        "code": "C142210000990",
        "type": 16002,
        "name": "南串中学校",
        "address": "雲仙市南串山町丙9705",
        "lat": 32.680151,
        "lng": 130.148887
    },
    {
        "code": "D142210000186",
        "type": 16004,
        "name": "国見高等学校",
        "address": "雲仙市国見町多比良甲1020",
        "lat": 32.866292,
        "lng": 130.305852
    },
    {
        "code": "D142210000195",
        "type": 16004,
        "name": "小浜高等学校",
        "address": "雲仙市小浜町北野623",
        "lat": 32.747596,
        "lng": 130.2126
    }
]