[
    {
        "code": "A142310000019",
        "type": 16011,
        "name": "福江幼稚園",
        "address": "五島市木場町500-2",
        "lat": 32.694276,
        "lng": 128.83749
    },
    {
        "code": "A142310000420",
        "type": 16011,
        "name": "双葉幼稚園",
        "address": "五島市末広町2-6",
        "lat": 32.694845,
        "lng": 128.842315
    },
    {
        "code": "A142310000625",
        "type": 16011,
        "name": "第二双葉幼稚園",
        "address": "五島市籠渕町1918-1",
        "lat": 32.699493,
        "lng": 128.804386
    },
    {
        "code": "A242310000544",
        "type": 16013,
        "name": "とみえ認定こども園",
        "address": "五島市富江町狩立363-1",
        "lat": 32.611704,
        "lng": 128.761459
    },
    {
        "code": "A242310000937",
        "type": 16013,
        "name": "恵プラザこども園",
        "address": "五島市木場町653-2",
        "lat": 32.694394,
        "lng": 128.832712
    },
    {
        "code": "B142210000965",
        "type": 16001,
        "name": "福江小学校",
        "address": "五島市錦町1-1",
        "lat": 32.692901,
        "lng": 128.842429
    },
    {
        "code": "B142210000974",
        "type": 16001,
        "name": "緑丘小学校",
        "address": "五島市木場町765",
        "lat": 32.695012,
        "lng": 128.831457
    },
    {
        "code": "B142210000983",
        "type": 16001,
        "name": "奥浦小学校",
        "address": "五島市奥浦町1316",
        "lat": 32.737005,
        "lng": 128.82769
    },
    {
        "code": "B142210000992",
        "type": 16001,
        "name": "崎山小学校",
        "address": "五島市下崎山町1233",
        "lat": 32.66046,
        "lng": 128.877873
    },
    {
        "code": "B142210001009",
        "type": 16001,
        "name": "本山小学校",
        "address": "五島市堤町1341",
        "lat": 32.668486,
        "lng": 128.820792
    },
    {
        "code": "B142210001018",
        "type": 16001,
        "name": "大浜小学校",
        "address": "五島市小泊町326-1",
        "lat": 32.651553,
        "lng": 128.814697
    },
    {
        "code": "B142210001027",
        "type": 16001,
        "name": "福江小学校椛島分校",
        "address": "五島市伊福貴町931-2",
        "lat": 32.757259,
        "lng": 128.989246
    },
    {
        "code": "B142210001036",
        "type": 16001,
        "name": "久賀小学校",
        "address": "五島市久賀町245-8",
        "lat": 32.792063,
        "lng": 128.869431
    },
    {
        "code": "B142210002204",
        "type": 16001,
        "name": "富江小学校",
        "address": "五島市富江町富江111",
        "lat": 32.61368,
        "lng": 128.765596
    },
    {
        "code": "B142210002213",
        "type": 16001,
        "name": "盈進小学校",
        "address": "五島市富江町黒瀬1240",
        "lat": 32.599402,
        "lng": 128.745284
    },
    {
        "code": "B142210002222",
        "type": 16001,
        "name": "三井楽小学校",
        "address": "五島市三井楽町濱ﾉ畔1148",
        "lat": 32.744965,
        "lng": 128.689963
    },
    {
        "code": "B142210002231",
        "type": 16001,
        "name": "嵯峨島小学校",
        "address": "五島市三井楽町嵯峨島129-1",
        "lat": 32.726272,
        "lng": 128.598161
    },
    {
        "code": "B142210002240",
        "type": 16001,
        "name": "奈留小学校",
        "address": "五島市奈留町浦1225-1",
        "lat": 32.831565,
        "lng": 128.930803
    },
    {
        "code": "B142210003187",
        "type": 16001,
        "name": "岐宿小学校",
        "address": "五島市岐宿町楠原544-1",
        "lat": 32.753602,
        "lng": 128.760564
    },
    {
        "code": "B142210003203",
        "type": 16001,
        "name": "玉之浦小学校",
        "address": "五島市玉之浦町小川1130-1",
        "lat": 32.633382,
        "lng": 128.619851
    },
    {
        "code": "C142210000534",
        "type": 16002,
        "name": "福江中学校",
        "address": "五島市松山町75-4",
        "lat": 32.701151,
        "lng": 128.840151
    },
    {
        "code": "C142210000543",
        "type": 16002,
        "name": "奥浦中学校",
        "address": "五島市奥浦町1415-1",
        "lat": 32.738732,
        "lng": 128.826207
    },
    {
        "code": "C142210000552",
        "type": 16002,
        "name": "崎山中学校",
        "address": "五島市下崎山町396-3",
        "lat": 32.660199,
        "lng": 128.87998
    },
    {
        "code": "C142210000561",
        "type": 16002,
        "name": "翁頭中学校",
        "address": "五島市堤町1765",
        "lat": 32.672152,
        "lng": 128.816708
    },
    {
        "code": "C142210000570",
        "type": 16002,
        "name": "福江中学校椛島分校",
        "address": "五島市伊福貴町931-2",
        "lat": 32.757289,
        "lng": 128.989362
    },
    {
        "code": "C142210000589",
        "type": 16002,
        "name": "久賀中学校",
        "address": "五島市久賀町245-8",
        "lat": 32.791978,
        "lng": 128.869208
    },
    {
        "code": "C142210001212",
        "type": 16002,
        "name": "富江中学校",
        "address": "五島市富江町狩立464",
        "lat": 32.614071,
        "lng": 128.763057
    },
    {
        "code": "C142210001221",
        "type": 16002,
        "name": "三井楽中学校",
        "address": "五島市三井楽町濱ﾉ畔1502-1",
        "lat": 32.743642,
        "lng": 128.688032
    },
    {
        "code": "C142210001230",
        "type": 16002,
        "name": "嵯峨島中学校",
        "address": "五島市三井楽町嵯峨島129-1",
        "lat": 32.726482,
        "lng": 128.598352
    },
    {
        "code": "C142210001249",
        "type": 16002,
        "name": "岐宿中学校",
        "address": "五島市岐宿町楠原544-1",
        "lat": 32.730491,
        "lng": 128.74453
    },
    {
        "code": "C142210001258",
        "type": 16002,
        "name": "奈留中学校",
        "address": "五島市奈留町浦1225-1",
        "lat": 32.831114,
        "lng": 128.930866
    },
    {
        "code": "C142210001604",
        "type": 16002,
        "name": "玉之浦中学校",
        "address": "五島市玉之浦町小川1130-1",
        "lat": 32.629952,
        "lng": 128.669158
    },
    {
        "code": "D142210000104",
        "type": 16004,
        "name": "五島高等学校",
        "address": "五島市池田町1-1",
        "lat": 32.693102,
        "lng": 128.846841
    },
    {
        "code": "D142210000113",
        "type": 16004,
        "name": "奈留高等学校",
        "address": "五島市奈留町浦1246-2",
        "lat": 32.829639,
        "lng": 128.9315
    },
    {
        "code": "D142210000248",
        "type": 16004,
        "name": "五島南高等学校",
        "address": "五島市岐宿町川原3487",
        "lat": 32.736241,
        "lng": 128.731855
    },
    {
        "code": "D142210000523",
        "type": 16004,
        "name": "五島海陽高等学校",
        "address": "五島市坂の上1-6-1",
        "lat": 32.688849,
        "lng": 128.839078
    },
    {
        "code": "E142210000156",
        "type": 16012,
        "name": "鶴南特別支援学校五島分校",
        "address": "五島市坂の上町1-6-1",
        "lat": 32.692366,
        "lng": 128.842382
    },
    {
        "code": "H242310000077",
        "type": 16015,
        "name": "五島日本語学校",
        "address": "五島市坂の上1-151-3",
        "lat": 32.689156,
        "lng": 128.837313
    }
]