[
    {
        "code": "A142210000084",
        "type": 16011,
        "name": "有川幼稚園",
        "address": "南松浦郡新上五島町有川郷1745-2",
        "lat": 32.978252,
        "lng": 129.12086
    },
    {
        "code": "A142210000208",
        "type": 16011,
        "name": "青方幼稚園",
        "address": "南松浦郡新上五島町青方郷1458-2",
        "lat": 32.986258,
        "lng": 129.072657
    },
    {
        "code": "A142210000217",
        "type": 16011,
        "name": "魚目幼稚園",
        "address": "南松浦郡新上五島町榎津郷401",
        "lat": 32.998859,
        "lng": 129.089193
    },
    {
        "code": "B142210002268",
        "type": 16001,
        "name": "今里小学校",
        "address": "南松浦郡新上五島町今里郷245-9",
        "lat": 32.95923,
        "lng": 129.048675
    },
    {
        "code": "B142210002277",
        "type": 16001,
        "name": "青方小学校",
        "address": "南松浦郡新上五島町青方郷1460-1",
        "lat": 32.986499,
        "lng": 129.073294
    },
    {
        "code": "B142210002286",
        "type": 16001,
        "name": "上郷小学校",
        "address": "南松浦郡新上五島町奈摩郷10-1",
        "lat": 33.019428,
        "lng": 129.06854
    },
    {
        "code": "B142210002295",
        "type": 16001,
        "name": "魚目小学校",
        "address": "南松浦郡新上五島町榎津郷401",
        "lat": 32.999158,
        "lng": 129.089931
    },
    {
        "code": "B142210002302",
        "type": 16001,
        "name": "北魚目小学校",
        "address": "南松浦郡新上五島町小串郷1636",
        "lat": 33.057318,
        "lng": 129.099538
    },
    {
        "code": "B142210002311",
        "type": 16001,
        "name": "有川小学校",
        "address": "南松浦郡新上五島町有川郷1719-2",
        "lat": 32.97816,
        "lng": 129.11954
    },
    {
        "code": "B142210002320",
        "type": 16001,
        "name": "東浦小学校",
        "address": "南松浦郡新上五島町阿瀬津郷422-1",
        "lat": 32.965799,
        "lng": 129.10107
    },
    {
        "code": "B142210002972",
        "type": 16001,
        "name": "若松中央小学校",
        "address": "南松浦郡新上五島町間伏郷74",
        "lat": 32.882223,
        "lng": 129.005163
    },
    {
        "code": "B142210003007",
        "type": 16001,
        "name": "若松東小学校",
        "address": "南松浦郡新上五島町宿ﾉ浦郷646-1",
        "lat": 32.895035,
        "lng": 129.061876
    },
    {
        "code": "B142210003114",
        "type": 16001,
        "name": "奈良尾小学校",
        "address": "南松浦郡新上五島町奈良尾郷955-1",
        "lat": 32.844005,
        "lng": 129.058883
    },
    {
        "code": "C142210001267",
        "type": 16002,
        "name": "若松中学校",
        "address": "南松浦郡新上五島町若松郷462-13",
        "lat": 32.886612,
        "lng": 129.027439
    },
    {
        "code": "C142210001276",
        "type": 16002,
        "name": "魚目中学校",
        "address": "南松浦郡新上五島町丸尾郷417",
        "lat": 33.004046,
        "lng": 129.089042
    },
    {
        "code": "C142210001285",
        "type": 16002,
        "name": "有川中学校",
        "address": "南松浦郡新上五島町有川郷809",
        "lat": 32.983743,
        "lng": 129.118651
    },
    {
        "code": "C142210001294",
        "type": 16002,
        "name": "奈良尾中学校",
        "address": "南松浦郡新上五島町奈良尾郷909-14",
        "lat": 32.864031,
        "lng": 129.065604
    },
    {
        "code": "C142210001472",
        "type": 16002,
        "name": "上五島中学校",
        "address": "南松浦郡新上五島町青方郷538-2",
        "lat": 32.992602,
        "lng": 129.06621
    },
    {
        "code": "D142210000257",
        "type": 16004,
        "name": "上五島高等学校",
        "address": "南松浦郡新上五島町浦桑郷306",
        "lat": 32.986964,
        "lng": 129.081487
    },
    {
        "code": "D142210000266",
        "type": 16004,
        "name": "中五島高等学校",
        "address": "南松浦郡新上五島町宿ﾉ浦郷162-1",
        "lat": 32.884251,
        "lng": 129.05952
    }
]