[
    {
        "code": "A143210000127",
        "type": 16011,
        "name": "山鹿幼稚園",
        "address": "山鹿市山鹿922",
        "lat": 33.018019,
        "lng": 130.693464
    },
    {
        "code": "A143310000330",
        "type": 16011,
        "name": "霊泉幼稚園",
        "address": "山鹿市山鹿225",
        "lat": 33.012985,
        "lng": 130.692591
    },
    {
        "code": "A243210000019",
        "type": 16013,
        "name": "鹿本こども園",
        "address": "山鹿市鹿本町御宇田202-5",
        "lat": 33.004785,
        "lng": 130.736588
    },
    {
        "code": "B143210000937",
        "type": 16001,
        "name": "八幡小学校",
        "address": "山鹿市熊入町300",
        "lat": 33.027018,
        "lng": 130.684551
    },
    {
        "code": "B143210000946",
        "type": 16001,
        "name": "平小城小学校",
        "address": "山鹿市平山5364",
        "lat": 33.049377,
        "lng": 130.661302
    },
    {
        "code": "B143210000955",
        "type": 16001,
        "name": "三岳小学校",
        "address": "山鹿市津留2795",
        "lat": 33.062988,
        "lng": 130.693077
    },
    {
        "code": "B143210000964",
        "type": 16001,
        "name": "三玉小学校",
        "address": "山鹿市久原2935",
        "lat": 33.029935,
        "lng": 130.72027
    },
    {
        "code": "B143210000973",
        "type": 16001,
        "name": "大道小学校",
        "address": "山鹿市方保田1874",
        "lat": 32.998133,
        "lng": 130.712438
    },
    {
        "code": "B143210003195",
        "type": 16001,
        "name": "山鹿小学校",
        "address": "山鹿市山鹿351",
        "lat": 33.013464,
        "lng": 130.693078
    },
    {
        "code": "B143210003202",
        "type": 16001,
        "name": "鹿北小学校",
        "address": "山鹿市鹿北町四丁1469-1",
        "lat": 33.108165,
        "lng": 130.695478
    },
    {
        "code": "B143210003337",
        "type": 16001,
        "name": "菊鹿小学校",
        "address": "山鹿市菊鹿町下永野841",
        "lat": 33.030419,
        "lng": 130.772871
    },
    {
        "code": "B143210003355",
        "type": 16001,
        "name": "めのだけ小学校",
        "address": "山鹿市南島1125",
        "lat": 33.004279,
        "lng": 130.683479
    },
    {
        "code": "B143210003382",
        "type": 16001,
        "name": "鹿本小学校",
        "address": "山鹿市鹿本町御宇田258",
        "lat": 33.003658,
        "lng": 130.736671
    },
    {
        "code": "C143210000383",
        "type": 16002,
        "name": "山鹿中学校",
        "address": "山鹿市山鹿446",
        "lat": 33.013575,
        "lng": 130.696633
    },
    {
        "code": "C143210000668",
        "type": 16002,
        "name": "米野岳中学校",
        "address": "山鹿市鹿央町岩原1350",
        "lat": 32.992994,
        "lng": 130.681968
    },
    {
        "code": "C143210001097",
        "type": 16002,
        "name": "菊鹿中学校",
        "address": "山鹿市菊鹿町下内田485",
        "lat": 33.026703,
        "lng": 130.760351
    },
    {
        "code": "C143210001104",
        "type": 16002,
        "name": "鹿本中学校",
        "address": "山鹿市鹿本町来民1267-1",
        "lat": 32.998407,
        "lng": 130.743361
    },
    {
        "code": "C143210001131",
        "type": 16002,
        "name": "鹿北中学校",
        "address": "山鹿市鹿北町四丁1464",
        "lat": 33.107945,
        "lng": 130.696242
    },
    {
        "code": "D143210000229",
        "type": 16004,
        "name": "鹿本高等学校",
        "address": "山鹿市鹿校通3-5-1",
        "lat": 33.011298,
        "lng": 130.709577
    },
    {
        "code": "D143210000256",
        "type": 16004,
        "name": "鹿本農業高等学校",
        "address": "山鹿市鹿本町来民2055",
        "lat": 32.99806,
        "lng": 130.725833
    },
    {
        "code": "D143210000363",
        "type": 16004,
        "name": "鹿本商工高等学校",
        "address": "山鹿市鹿本町御宇田312",
        "lat": 33.001358,
        "lng": 130.730666
    },
    {
        "code": "D143310000218",
        "type": 16004,
        "name": "城北高等学校",
        "address": "山鹿市志々岐798",
        "lat": 33.000056,
        "lng": 130.678571
    },
    {
        "code": "E143210000235",
        "type": 16012,
        "name": "かもと稲田支援学校",
        "address": "山鹿市鹿本町高橋638",
        "lat": 33.005894,
        "lng": 130.755452
    },
    {
        "code": "H143310000166",
        "type": 16016,
        "name": "鹿本医師会看護学校",
        "address": "山鹿市山鹿332-1",
        "lat": 33.014361,
        "lng": 130.692086
    },
    {
        "code": "H243310000049",
        "type": 16015,
        "name": "松浦服装学院",
        "address": "山鹿市山鹿344-4",
        "lat": 33.015181,
        "lng": 130.692372
    }
]