[
    {
        "code": "A143310000205",
        "type": 16011,
        "name": "人吉幼稚園",
        "address": "人吉市寺町7",
        "lat": 32.207426,
        "lng": 130.761041
    },
    {
        "code": "A143310000214",
        "type": 16011,
        "name": "青井幼稚園",
        "address": "人吉市上青井町117-2",
        "lat": 32.213017,
        "lng": 130.752658
    },
    {
        "code": "A143310000223",
        "type": 16011,
        "name": "人吉中央幼稚園",
        "address": "人吉市南泉田町99",
        "lat": 32.216617,
        "lng": 130.763587
    },
    {
        "code": "A243310000259",
        "type": 16013,
        "name": "あいだこども園",
        "address": "人吉市東間上町2789",
        "lat": 32.201452,
        "lng": 130.765329
    },
    {
        "code": "A243310000268",
        "type": 16013,
        "name": "さざなみ保育園",
        "address": "人吉市下戸越町1632-1",
        "lat": 32.205165,
        "lng": 130.735882
    },
    {
        "code": "A243310000277",
        "type": 16013,
        "name": "せん月保育園",
        "address": "人吉市矢黒町1602-1",
        "lat": 32.203732,
        "lng": 130.73559
    },
    {
        "code": "A243310000286",
        "type": 16013,
        "name": "人吉こども園",
        "address": "人吉市願成寺町956",
        "lat": 32.218043,
        "lng": 130.771908
    },
    {
        "code": "A243310000357",
        "type": 16013,
        "name": "中原こども園",
        "address": "人吉市下原田町原の前1168",
        "lat": 32.229987,
        "lng": 130.723938
    },
    {
        "code": "A243310000730",
        "type": 16013,
        "name": "泉田こども園",
        "address": "人吉市北泉田町223-1",
        "lat": 32.219286,
        "lng": 130.763037
    },
    {
        "code": "A243310001114",
        "type": 16013,
        "name": "人吉乳児保育園",
        "address": "人吉市田町34-1",
        "lat": 32.206874,
        "lng": 130.764762
    },
    {
        "code": "B143210000606",
        "type": 16001,
        "name": "人吉東小学校",
        "address": "人吉市七日町100-1",
        "lat": 32.216206,
        "lng": 130.766903
    },
    {
        "code": "B143210000615",
        "type": 16001,
        "name": "人吉西小学校",
        "address": "人吉市城本町873",
        "lat": 32.219094,
        "lng": 130.755071
    },
    {
        "code": "B143210000624",
        "type": 16001,
        "name": "東間小学校",
        "address": "人吉市東間下町2683",
        "lat": 32.203458,
        "lng": 130.766681
    },
    {
        "code": "B143210000633",
        "type": 16001,
        "name": "大畑小学校",
        "address": "人吉市大畑町4097",
        "lat": 32.162852,
        "lng": 130.802401
    },
    {
        "code": "B143210000642",
        "type": 16001,
        "name": "西瀬小学校",
        "address": "人吉市下戸越町1654-1",
        "lat": 32.206179,
        "lng": 130.736545
    },
    {
        "code": "B143210000651",
        "type": 16001,
        "name": "中原小学校",
        "address": "人吉市中神町548",
        "lat": 32.224787,
        "lng": 130.719879
    },
    {
        "code": "C143210000294",
        "type": 16002,
        "name": "第一中学校",
        "address": "人吉市土手町36-3",
        "lat": 32.208207,
        "lng": 130.75921
    },
    {
        "code": "C143210000301",
        "type": 16002,
        "name": "第二中学校",
        "address": "人吉市上林町622",
        "lat": 32.221261,
        "lng": 130.74435
    },
    {
        "code": "C143210000310",
        "type": 16002,
        "name": "第三中学校",
        "address": "人吉市上田代2008",
        "lat": 32.167379,
        "lng": 130.804012
    },
    {
        "code": "D143210000130",
        "type": 16004,
        "name": "人吉高等学校",
        "address": "人吉市北泉田町350",
        "lat": 32.220345,
        "lng": 130.768014
    },
    {
        "code": "D143210000149",
        "type": 16004,
        "name": "球磨工業高等学校",
        "address": "人吉市城本町800",
        "lat": 32.2194,
        "lng": 130.752543
    },
    {
        "code": "H143310000139",
        "type": 16016,
        "name": "九州技術教育専門学校",
        "address": "人吉市駒井田町216-12",
        "lat": 32.216295,
        "lng": 130.758451
    },
    {
        "code": "H243310000030",
        "type": 16015,
        "name": "人吉球磨准看護学院",
        "address": "人吉市南泉田町72-2",
        "lat": 32.216592,
        "lng": 130.764042
    }
]