[
    {
        "code": "A143210000056",
        "type": 16011,
        "name": "太田郷幼稚園",
        "address": "八代市日置町2161",
        "lat": 32.510101,
        "lng": 130.623877
    },
    {
        "code": "A143210000065",
        "type": 16011,
        "name": "代陽幼稚園",
        "address": "八代市西松江城町2-41",
        "lat": 32.507434,
        "lng": 130.597727
    },
    {
        "code": "A143210000074",
        "type": 16011,
        "name": "松高幼稚園",
        "address": "八代市永碇町741",
        "lat": 32.51963,
        "lng": 130.591602
    },
    {
        "code": "A143210000083",
        "type": 16011,
        "name": "植柳幼稚園",
        "address": "八代市植柳上町340",
        "lat": 32.491208,
        "lng": 130.605091
    },
    {
        "code": "A143210000092",
        "type": 16011,
        "name": "麦島幼稚園",
        "address": "八代市迎町1-16-1-2",
        "lat": 32.499448,
        "lng": 130.601871
    },
    {
        "code": "A143210000243",
        "type": 16011,
        "name": "千丁幼稚園",
        "address": "八代市千丁町新牟田1340",
        "lat": 32.53672,
        "lng": 130.635923
    },
    {
        "code": "A143310000189",
        "type": 16011,
        "name": "八代白百合学園幼稚園",
        "address": "八代市井上町727-1",
        "lat": 32.517965,
        "lng": 130.631303
    },
    {
        "code": "A143310000198",
        "type": 16011,
        "name": "聖愛幼稚園",
        "address": "八代市袋町5-1",
        "lat": 32.50642,
        "lng": 130.605854
    },
    {
        "code": "A143310000615",
        "type": 16011,
        "name": "松寿幼稚園",
        "address": "八代市郡築八番町45-4",
        "lat": 32.538473,
        "lng": 130.57677
    },
    {
        "code": "B143210000456",
        "type": 16001,
        "name": "代陽小学校",
        "address": "八代市北の丸町1-7",
        "lat": 32.509617,
        "lng": 130.601876
    },
    {
        "code": "B143210000465",
        "type": 16001,
        "name": "太田郷小学校",
        "address": "八代市日置町445",
        "lat": 32.510146,
        "lng": 130.622569
    },
    {
        "code": "B143210000474",
        "type": 16001,
        "name": "植柳小学校",
        "address": "八代市植柳上町449",
        "lat": 32.492118,
        "lng": 130.603182
    },
    {
        "code": "B143210000483",
        "type": 16001,
        "name": "松高小学校",
        "address": "八代市永碇町828-1",
        "lat": 32.518644,
        "lng": 130.594682
    },
    {
        "code": "B143210000492",
        "type": 16001,
        "name": "金剛小学校",
        "address": "八代市高植本町1207",
        "lat": 32.476508,
        "lng": 130.584129
    },
    {
        "code": "B143210000508",
        "type": 16001,
        "name": "金剛小学校弥次分校",
        "address": "八代市三江湖町1472-1",
        "lat": 32.487118,
        "lng": 130.574518
    },
    {
        "code": "B143210000517",
        "type": 16001,
        "name": "高田小学校",
        "address": "八代市豊原中町317",
        "lat": 32.489397,
        "lng": 130.616848
    },
    {
        "code": "B143210000526",
        "type": 16001,
        "name": "八千把小学校",
        "address": "八代市上野町1131",
        "lat": 32.517311,
        "lng": 130.614042
    },
    {
        "code": "B143210000535",
        "type": 16001,
        "name": "郡築小学校",
        "address": "八代市郡築6-49-1",
        "lat": 32.534226,
        "lng": 130.574267
    },
    {
        "code": "B143210000544",
        "type": 16001,
        "name": "八代小学校",
        "address": "八代市新地町4-1",
        "lat": 32.50945,
        "lng": 130.59171
    },
    {
        "code": "B143210000553",
        "type": 16001,
        "name": "宮地小学校",
        "address": "八代市宮地町1826",
        "lat": 32.501064,
        "lng": 130.640485
    },
    {
        "code": "B143210000562",
        "type": 16001,
        "name": "日奈久小学校",
        "address": "八代市日奈久竹之内町4277-1",
        "lat": 32.438873,
        "lng": 130.581437
    },
    {
        "code": "B143210000571",
        "type": 16001,
        "name": "昭和小学校",
        "address": "八代市昭和明徴町731-2",
        "lat": 32.560835,
        "lng": 130.603347
    },
    {
        "code": "B143210000580",
        "type": 16001,
        "name": "二見小学校",
        "address": "八代市二見下大野町2258-1",
        "lat": 32.407403,
        "lng": 130.559746
    },
    {
        "code": "B143210000599",
        "type": 16001,
        "name": "龍峯小学校",
        "address": "八代市岡町谷川1043",
        "lat": 32.529952,
        "lng": 130.663567
    },
    {
        "code": "B143210002123",
        "type": 16001,
        "name": "鏡小学校",
        "address": "八代市鏡町鏡村609-1",
        "lat": 32.567456,
        "lng": 130.662276
    },
    {
        "code": "B143210002132",
        "type": 16001,
        "name": "有佐小学校",
        "address": "八代市鏡町中島1360-1",
        "lat": 32.553178,
        "lng": 130.6655
    },
    {
        "code": "B143210002141",
        "type": 16001,
        "name": "文政小学校",
        "address": "八代市鏡町両出1371-1",
        "lat": 32.561075,
        "lng": 130.632835
    },
    {
        "code": "B143210002169",
        "type": 16001,
        "name": "千丁小学校",
        "address": "八代市千丁町新牟田1345",
        "lat": 32.535773,
        "lng": 130.634642
    },
    {
        "code": "B143210002196",
        "type": 16001,
        "name": "泉第八小学校",
        "address": "八代市泉町樅木137-4",
        "lat": 32.501628,
        "lng": 130.965867
    },
    {
        "code": "B143210002837",
        "type": 16001,
        "name": "麦島小学校",
        "address": "八代市迎町1-16-1-1",
        "lat": 32.498665,
        "lng": 130.601784
    },
    {
        "code": "B143210003042",
        "type": 16001,
        "name": "八竜小学校",
        "address": "八代市坂本町荒瀬6544",
        "lat": 32.435045,
        "lng": 130.653345
    },
    {
        "code": "B143210003239",
        "type": 16001,
        "name": "東陽小学校",
        "address": "八代市東陽町南3405-2",
        "lat": 32.548232,
        "lng": 130.716814
    },
    {
        "code": "B143210003266",
        "type": 16001,
        "name": "泉小学校",
        "address": "八代市泉町柿迫1111",
        "lat": 32.548687,
        "lng": 130.811625
    },
    {
        "code": "C143210000196",
        "type": 16002,
        "name": "第一中学校",
        "address": "八代市北の丸町1-29",
        "lat": 32.510145,
        "lng": 130.59946
    },
    {
        "code": "C143210000203",
        "type": 16002,
        "name": "第二中学校",
        "address": "八代市上日置町2248-1",
        "lat": 32.510427,
        "lng": 130.624194
    },
    {
        "code": "C143210000212",
        "type": 16002,
        "name": "第三中学校",
        "address": "八代市中北町3378-5",
        "lat": 32.496673,
        "lng": 130.584183
    },
    {
        "code": "C143210000221",
        "type": 16002,
        "name": "第四中学校",
        "address": "八代市古閑上町182-2",
        "lat": 32.519172,
        "lng": 130.61232
    },
    {
        "code": "C143210000230",
        "type": 16002,
        "name": "第五中学校",
        "address": "八代市豊原下町3807",
        "lat": 32.483647,
        "lng": 130.615292
    },
    {
        "code": "C143210000249",
        "type": 16002,
        "name": "第六中学校",
        "address": "八代市水島町2065-4",
        "lat": 32.480563,
        "lng": 130.579879
    },
    {
        "code": "C143210000258",
        "type": 16002,
        "name": "第七中学校",
        "address": "八代市郡築七番町41-2",
        "lat": 32.537614,
        "lng": 130.575989
    },
    {
        "code": "C143210000267",
        "type": 16002,
        "name": "第八中学校",
        "address": "八代市宮地町611-1",
        "lat": 32.498284,
        "lng": 130.63449
    },
    {
        "code": "C143210000276",
        "type": 16002,
        "name": "日奈久中学校",
        "address": "八代市日奈久竹之内町4332-1",
        "lat": 32.439165,
        "lng": 130.581086
    },
    {
        "code": "C143210000285",
        "type": 16002,
        "name": "二見中学校",
        "address": "八代市二見本町852",
        "lat": 32.403459,
        "lng": 130.558024
    },
    {
        "code": "C143210000855",
        "type": 16002,
        "name": "千丁中学校",
        "address": "八代市千丁町古閑出新2493-1",
        "lat": 32.536908,
        "lng": 130.630792
    },
    {
        "code": "C143210000873",
        "type": 16002,
        "name": "泉中学校",
        "address": "八代市泉町柿迫1111",
        "lat": 32.548277,
        "lng": 130.811192
    },
    {
        "code": "C143210001060",
        "type": 16002,
        "name": "東陽中学校",
        "address": "八代市東陽町南1869",
        "lat": 32.536688,
        "lng": 130.717791
    },
    {
        "code": "C143210001113",
        "type": 16002,
        "name": "鏡中学校",
        "address": "八代市鏡町内田1038-1",
        "lat": 32.560859,
        "lng": 130.646213
    },
    {
        "code": "C143210001186",
        "type": 16002,
        "name": "坂本中学校",
        "address": "八代市坂本町荒瀬6000",
        "lat": 32.433525,
        "lng": 130.652808
    },
    {
        "code": "C143210001462",
        "type": 16002,
        "name": "八代中学校",
        "address": "八代市永碇町856",
        "lat": 32.519289,
        "lng": 130.596895
    },
    {
        "code": "D143210000103",
        "type": 16004,
        "name": "八代高等学校",
        "address": "八代市永碇町856",
        "lat": 32.51956,
        "lng": 130.597126
    },
    {
        "code": "D143210000112",
        "type": 16004,
        "name": "八代東高等学校",
        "address": "八代市鷹辻町4-2",
        "lat": 32.510773,
        "lng": 130.60359
    },
    {
        "code": "D143210000121",
        "type": 16004,
        "name": "八代工業高等学校",
        "address": "八代市大福寺町473",
        "lat": 32.48748,
        "lng": 130.605876
    },
    {
        "code": "D143210000336",
        "type": 16004,
        "name": "八代農業高等学校",
        "address": "八代市鏡町鏡村129",
        "lat": 32.564765,
        "lng": 130.661739
    },
    {
        "code": "D143210000345",
        "type": 16004,
        "name": "八代農業高等学校泉分校",
        "address": "八代市泉町柿迫3636",
        "lat": 32.541333,
        "lng": 130.82086
    },
    {
        "code": "D143210000461",
        "type": 16004,
        "name": "八代清流高等学校",
        "address": "八代市渡町松上1576",
        "lat": 32.491416,
        "lng": 130.625028
    },
    {
        "code": "D143310000156",
        "type": 16004,
        "name": "八代白百合学園高等学校",
        "address": "八代市井上町727-1",
        "lat": 32.518518,
        "lng": 130.631391
    },
    {
        "code": "D143310000165",
        "type": 16004,
        "name": "秀岳館高等学校",
        "address": "八代市興国町1-5",
        "lat": 32.516866,
        "lng": 130.604404
    },
    {
        "code": "E143210000075",
        "type": 16012,
        "name": "八代支援学校",
        "address": "八代市高島町1-6",
        "lat": 32.521865,
        "lng": 130.578934
    },
    {
        "code": "E143210000226",
        "type": 16012,
        "name": "鏡わかあゆ高等支援学校",
        "address": "八代市鏡町鏡村937",
        "lat": 32.571345,
        "lng": 130.656713
    },
    {
        "code": "F243310111398",
        "type": 16006,
        "name": "中九州短期大学",
        "address": "八代市平山新町4438",
        "lat": 32.477148,
        "lng": 130.608404
    },
    {
        "code": "G143110111408",
        "type": 16005,
        "name": "熊本高等専門学校",
        "address": "八代市平山新町2627",
        "lat": 32.476065,
        "lng": 130.607071
    },
    {
        "code": "H143310000111",
        "type": 16016,
        "name": "八代実業専門学校",
        "address": "八代市迎町1-16-33",
        "lat": 32.497971,
        "lng": 130.60111
    },
    {
        "code": "H143310000120",
        "type": 16016,
        "name": "熊本労災看護専門学校",
        "address": "八代市竹原町1517-2",
        "lat": 32.518309,
        "lng": 130.626963
    },
    {
        "code": "H143310000228",
        "type": 16016,
        "name": "八代看護学校",
        "address": "八代市平山新町4453-2",
        "lat": 32.478245,
        "lng": 130.608735
    },
    {
        "code": "H143310000317",
        "type": 16016,
        "name": "国際文化教養大学校",
        "address": "八代市日置町651-1",
        "lat": 32.509796,
        "lng": 130.621483
    }
]