[
    {
        "code": "A143310000376",
        "type": 16011,
        "name": "リズム幼稚園",
        "address": "合志市須屋2070-13",
        "lat": 32.866697,
        "lng": 130.733479
    },
    {
        "code": "A143310000599",
        "type": 16011,
        "name": "杉並台幼稚園",
        "address": "合志市幾久富1656-485",
        "lat": 32.87325,
        "lng": 130.786138
    },
    {
        "code": "A243310000348",
        "type": 16013,
        "name": "合志こども園",
        "address": "合志市幾久富1647-96",
        "lat": 32.871517,
        "lng": 130.783335
    },
    {
        "code": "A243310000856",
        "type": 16013,
        "name": "六華こども園",
        "address": "合志市野々島5099-2",
        "lat": 32.903886,
        "lng": 130.73543
    },
    {
        "code": "B143210001829",
        "type": 16001,
        "name": "合志小学校",
        "address": "合志市上庄55",
        "lat": 32.894073,
        "lng": 130.791596
    },
    {
        "code": "B143210001838",
        "type": 16001,
        "name": "西合志第一小学校",
        "address": "合志市合生2197",
        "lat": 32.914474,
        "lng": 130.757297
    },
    {
        "code": "B143210001847",
        "type": 16001,
        "name": "西合志南小学校",
        "address": "合志市須屋1873",
        "lat": 32.862089,
        "lng": 130.735384
    },
    {
        "code": "B143210001856",
        "type": 16001,
        "name": "西合志中央小学校",
        "address": "合志市野々島4832",
        "lat": 32.908138,
        "lng": 130.743265
    },
    {
        "code": "B143210002748",
        "type": 16001,
        "name": "合志南小学校",
        "address": "合志市豊岡2224-29",
        "lat": 32.871867,
        "lng": 130.770964
    },
    {
        "code": "B143210002828",
        "type": 16001,
        "name": "西合志東小学校",
        "address": "合志市須屋2948",
        "lat": 32.865895,
        "lng": 130.740133
    },
    {
        "code": "B143210002864",
        "type": 16001,
        "name": "南ヶ丘小学校",
        "address": "合志市幾久富1909-101",
        "lat": 32.862756,
        "lng": 130.772103
    },
    {
        "code": "B143210003417",
        "type": 16001,
        "name": "合志楓の森小学校",
        "address": "合志市栄3793-5",
        "lat": 32.878996,
        "lng": 130.756773
    },
    {
        "code": "C143210000711",
        "type": 16002,
        "name": "合志中学校",
        "address": "合志市豊岡955",
        "lat": 32.88917,
        "lng": 130.788934
    },
    {
        "code": "C143210000720",
        "type": 16002,
        "name": "西合志中学校",
        "address": "合志市野々島4393-1",
        "lat": 32.898025,
        "lng": 130.743753
    },
    {
        "code": "C143210001202",
        "type": 16002,
        "name": "西合志南中学校",
        "address": "合志市須屋2956",
        "lat": 32.8657,
        "lng": 130.742105
    },
    {
        "code": "C143210001630",
        "type": 16002,
        "name": "合志楓の森中学校",
        "address": "合志市栄3793-5",
        "lat": 32.878642,
        "lng": 130.756327
    },
    {
        "code": "E143210000048",
        "type": 16012,
        "name": "菊池支援学校",
        "address": "合志市合生4300",
        "lat": 32.897892,
        "lng": 130.760353
    },
    {
        "code": "E143210000057",
        "type": 16012,
        "name": "黒石原支援学校",
        "address": "合志市須屋2659",
        "lat": 32.879421,
        "lng": 130.748826
    },
    {
        "code": "E143210000173",
        "type": 16012,
        "name": "ひのくに高等支援学校",
        "address": "合志市合生4360-7",
        "lat": 32.896419,
        "lng": 130.759936
    },
    {
        "code": "H143210000042",
        "type": 16016,
        "name": "熊本県立農業大学校",
        "address": "合志市栄3805",
        "lat": 32.8924,
        "lng": 130.762766
    }
]