[
    {
        "code": "A143310000385",
        "type": 16011,
        "name": "あそひかり幼稚園",
        "address": "阿蘇市一の宮町中通302-5",
        "lat": 32.962705,
        "lng": 131.113008
    },
    {
        "code": "A143310000526",
        "type": 16011,
        "name": "阿蘇中央幼稚園",
        "address": "阿蘇市黒川758",
        "lat": 32.963355,
        "lng": 131.052813
    },
    {
        "code": "A243310000794",
        "type": 16013,
        "name": "古城保育園",
        "address": "阿蘇市一の宮町手野1030",
        "lat": 32.970893,
        "lng": 131.130463
    },
    {
        "code": "B143210001865",
        "type": 16001,
        "name": "内牧小学校",
        "address": "阿蘇市内牧1376",
        "lat": 32.975916,
        "lng": 131.047161
    },
    {
        "code": "B143210002702",
        "type": 16001,
        "name": "阿蘇西小学校",
        "address": "阿蘇市的石1494",
        "lat": 32.927559,
        "lng": 131.00236
    },
    {
        "code": "B143210003006",
        "type": 16001,
        "name": "波野小学校",
        "address": "阿蘇市波野大字波野3742-1",
        "lat": 32.939522,
        "lng": 131.201822
    },
    {
        "code": "B143210003220",
        "type": 16001,
        "name": "阿蘇小学校",
        "address": "阿蘇市黒川1234-1",
        "lat": 32.934281,
        "lng": 131.082051
    },
    {
        "code": "B143210003328",
        "type": 16001,
        "name": "一の宮小学校",
        "address": "阿蘇市一の宮町宮地1680",
        "lat": 32.94969,
        "lng": 131.122478
    },
    {
        "code": "C143210000748",
        "type": 16002,
        "name": "一の宮中学校",
        "address": "阿蘇市一の宮町宮地1669-2",
        "lat": 32.950457,
        "lng": 131.122823
    },
    {
        "code": "C143210000775",
        "type": 16002,
        "name": "波野中学校",
        "address": "阿蘇市波野大字波野3748",
        "lat": 32.939652,
        "lng": 131.200309
    },
    {
        "code": "C143210001569",
        "type": 16002,
        "name": "阿蘇中学校",
        "address": "阿蘇市内牧609",
        "lat": 32.968048,
        "lng": 131.037387
    },
    {
        "code": "D143210000434",
        "type": 16004,
        "name": "阿蘇中央高等学校",
        "address": "阿蘇市一の宮町宮地2460",
        "lat": 32.941915,
        "lng": 131.113958
    }
]