[
    {
        "code": "A143310000438",
        "type": 16011,
        "name": "松橋幼稚園",
        "address": "宇城市松橋町西下郷912-1",
        "lat": 32.63555,
        "lng": 130.690457
    },
    {
        "code": "A243310000320",
        "type": 16013,
        "name": "白梅幼稚園",
        "address": "宇城市不知火町長崎2209-1",
        "lat": 32.649646,
        "lng": 130.648545
    },
    {
        "code": "A243310000339",
        "type": 16013,
        "name": "肥後菊幼稚園",
        "address": "宇城市松橋町萩尾2056",
        "lat": 32.66434,
        "lng": 130.718817
    },
    {
        "code": "A243310000393",
        "type": 16013,
        "name": "まこと幼稚園",
        "address": "宇城市松橋町豊福1017-3",
        "lat": 32.633629,
        "lng": 130.707306
    },
    {
        "code": "B143210001295",
        "type": 16001,
        "name": "三角小学校",
        "address": "宇城市三角町三角浦574-1",
        "lat": 32.610199,
        "lng": 130.467955
    },
    {
        "code": "B143210001357",
        "type": 16001,
        "name": "松橋小学校",
        "address": "宇城市松橋町松橋1666",
        "lat": 32.65677,
        "lng": 130.685463
    },
    {
        "code": "B143210001366",
        "type": 16001,
        "name": "当尾小学校",
        "address": "宇城市松橋町曲野1856",
        "lat": 32.658029,
        "lng": 130.701526
    },
    {
        "code": "B143210001375",
        "type": 16001,
        "name": "豊川小学校",
        "address": "宇城市松橋町南豊崎582",
        "lat": 32.624524,
        "lng": 130.679117
    },
    {
        "code": "B143210001384",
        "type": 16001,
        "name": "豊福小学校",
        "address": "宇城市松橋町豊福1604",
        "lat": 32.634463,
        "lng": 130.700551
    },
    {
        "code": "B143210001393",
        "type": 16001,
        "name": "小野部田小学校",
        "address": "宇城市小川町南小野1402",
        "lat": 32.606993,
        "lng": 130.719106
    },
    {
        "code": "B143210001400",
        "type": 16001,
        "name": "河江小学校",
        "address": "宇城市小川町新田1675-1",
        "lat": 32.599484,
        "lng": 130.689323
    },
    {
        "code": "B143210001419",
        "type": 16001,
        "name": "小川小学校",
        "address": "宇城市小川町西北小川1",
        "lat": 32.581561,
        "lng": 130.711051
    },
    {
        "code": "B143210001428",
        "type": 16001,
        "name": "海東小学校",
        "address": "宇城市小川町南海東2050",
        "lat": 32.583645,
        "lng": 130.744544
    },
    {
        "code": "B143210001446",
        "type": 16001,
        "name": "豊野小学校",
        "address": "宇城市豊野町糸石3016",
        "lat": 32.635202,
        "lng": 130.751671
    },
    {
        "code": "B143210003015",
        "type": 16001,
        "name": "青海小学校",
        "address": "宇城市三角町郡浦88",
        "lat": 32.623264,
        "lng": 130.529422
    },
    {
        "code": "B143210003408",
        "type": 16001,
        "name": "不知火小学校",
        "address": "宇城市不知火町高良1952",
        "lat": 32.64483,
        "lng": 130.66197
    },
    {
        "code": "C143210000533",
        "type": 16002,
        "name": "三角中学校",
        "address": "宇城市三角町波多2946",
        "lat": 32.620876,
        "lng": 130.492952
    },
    {
        "code": "C143210000542",
        "type": 16002,
        "name": "不知火中学校",
        "address": "宇城市不知火町長崎45",
        "lat": 32.646007,
        "lng": 130.656754
    },
    {
        "code": "C143210000560",
        "type": 16002,
        "name": "小川中学校",
        "address": "宇城市小川町南部田287-2",
        "lat": 32.58972,
        "lng": 130.714322
    },
    {
        "code": "C143210000588",
        "type": 16002,
        "name": "豊野中学校",
        "address": "宇城市豊野町糸石3536",
        "lat": 32.637242,
        "lng": 130.74962
    },
    {
        "code": "C143210001079",
        "type": 16002,
        "name": "松橋中学校",
        "address": "宇城市松橋町松橋522-1",
        "lat": 32.650868,
        "lng": 130.682436
    },
    {
        "code": "D143210000238",
        "type": 16004,
        "name": "松橋高等学校",
        "address": "宇城市松橋町久具300",
        "lat": 32.646485,
        "lng": 130.686635
    },
    {
        "code": "D143210000381",
        "type": 16004,
        "name": "小川工業高等学校",
        "address": "宇城市小川町北新田770",
        "lat": 32.604865,
        "lng": 130.697672
    },
    {
        "code": "E143210000039",
        "type": 16012,
        "name": "松橋支援学校",
        "address": "宇城市南豊崎252",
        "lat": 32.622943,
        "lng": 130.681949
    },
    {
        "code": "E143210000066",
        "type": 16012,
        "name": "松橋東支援学校",
        "address": "宇城市松橋町豊福2910",
        "lat": 32.644386,
        "lng": 130.700558
    },
    {
        "code": "E143210000100",
        "type": 16012,
        "name": "松橋西支援学校",
        "address": "宇城市松橋町松橋308-1",
        "lat": 32.646663,
        "lng": 130.67931
    },
    {
        "code": "H143310000175",
        "type": 16016,
        "name": "三角商業専門学校",
        "address": "宇城市三角町三角浦1159-78",
        "lat": 32.607626,
        "lng": 130.468563
    },
    {
        "code": "H143310000184",
        "type": 16016,
        "name": "宇城看護高等専修学校",
        "address": "宇城市松橋町松橋351",
        "lat": 32.648683,
        "lng": 130.679071
    },
    {
        "code": "H143310000344",
        "type": 16016,
        "name": "メディカル・カレッジ青照館",
        "address": "宇城市三角町波多2864-111",
        "lat": 32.613688,
        "lng": 130.489547
    }
]