[
    {
        "code": "A104393210017",
        "type": 16011,
        "name": "大河原カトリック幼稚園",
        "address": "柴田郡大河原町字町22",
        "lat": 38.047818,
        "lng": 140.733507
    },
    {
        "code": "B104223210014",
        "type": 16001,
        "name": "大河原小学校",
        "address": "柴田郡大河原町字町100",
        "lat": 38.054375,
        "lng": 140.736034
    },
    {
        "code": "B104223210023",
        "type": 16001,
        "name": "金ケ瀬小学校",
        "address": "柴田郡大河原町金ヶ瀬字居掛21",
        "lat": 38.042708,
        "lng": 140.703537
    },
    {
        "code": "B104223210032",
        "type": 16001,
        "name": "大河原南小学校",
        "address": "柴田郡大河原町大谷字鷺沼入27-1",
        "lat": 38.034165,
        "lng": 140.737823
    },
    {
        "code": "C104223210012",
        "type": 16002,
        "name": "大河原中学校",
        "address": "柴田郡大河原町字東1",
        "lat": 38.053542,
        "lng": 140.734645
    },
    {
        "code": "C104223210021",
        "type": 16002,
        "name": "金ケ瀬中学校",
        "address": "柴田郡大河原町金ヶ瀬字原74",
        "lat": 38.046597,
        "lng": 140.70687
    },
    {
        "code": "D104213210011",
        "type": 16004,
        "name": "柴田農林高等学校",
        "address": "柴田郡大河原町字上川原7-2",
        "lat": 38.045209,
        "lng": 140.731312
    },
    {
        "code": "D104213210020",
        "type": 16004,
        "name": "大河原商業高等学校",
        "address": "柴田郡大河原町大谷字西原前154-6",
        "lat": 38.048543,
        "lng": 140.747144
    }
]