[
    {
        "code": "A104223220014",
        "type": 16011,
        "name": "沼辺幼稚園",
        "address": "柴田郡村田町大字沼辺字籠田72",
        "lat": 38.07979,
        "lng": 140.733116
    },
    {
        "code": "A104223220023",
        "type": 16011,
        "name": "村田幼稚園",
        "address": "柴田郡村田町大字村田字北塩内41",
        "lat": 38.11838,
        "lng": 140.717968
    },
    {
        "code": "B104223220012",
        "type": 16001,
        "name": "村田第二小学校",
        "address": "柴田郡村田町大字沼辺字籠田72",
        "lat": 38.079503,
        "lng": 140.733454
    },
    {
        "code": "B104223220021",
        "type": 16001,
        "name": "村田小学校",
        "address": "柴田郡村田町大字村田字迫6",
        "lat": 38.118259,
        "lng": 140.72242
    },
    {
        "code": "C104223220010",
        "type": 16002,
        "name": "村田第一中学校",
        "address": "柴田郡村田町大字村田字七小路92",
        "lat": 38.125202,
        "lng": 140.721865
    },
    {
        "code": "C104223220029",
        "type": 16002,
        "name": "村田第二中学校",
        "address": "柴田郡村田町大字沼辺字二丁町32",
        "lat": 38.081595,
        "lng": 140.729922
    },
    {
        "code": "D104213220019",
        "type": 16004,
        "name": "村田高等学校",
        "address": "柴田郡村田町大字村田字金谷1",
        "lat": 38.114092,
        "lng": 140.721865
    }
]