[
    {
        "code": "A243310000865",
        "type": 16013,
        "name": "長洲しおかぜこども園",
        "address": "玉名郡長洲町長洲607",
        "lat": 32.937172,
        "lng": 130.443153
    },
    {
        "code": "A243310001169",
        "type": 16013,
        "name": "長洲ひまわり幼稚園",
        "address": "玉名郡長洲町宮野1000-1",
        "lat": 32.931361,
        "lng": 130.477839
    },
    {
        "code": "B143210001516",
        "type": 16001,
        "name": "六栄小学校",
        "address": "玉名郡長洲町宮野957-1",
        "lat": 32.933136,
        "lng": 130.477011
    },
    {
        "code": "B143210001525",
        "type": 16001,
        "name": "腹赤小学校",
        "address": "玉名郡長洲町腹赤125",
        "lat": 32.919776,
        "lng": 130.473317
    },
    {
        "code": "B143210001534",
        "type": 16001,
        "name": "長洲小学校",
        "address": "玉名郡長洲町大字長洲1776",
        "lat": 32.932136,
        "lng": 130.446347
    },
    {
        "code": "B143210001543",
        "type": 16001,
        "name": "清里小学校",
        "address": "玉名郡長洲町高浜1250",
        "lat": 32.939857,
        "lng": 130.456318
    },
    {
        "code": "C143210000613",
        "type": 16002,
        "name": "腹栄中学校",
        "address": "玉名郡長洲町腹赤732",
        "lat": 32.926415,
        "lng": 130.4734
    },
    {
        "code": "C143210000622",
        "type": 16002,
        "name": "長洲中学校",
        "address": "玉名郡長洲町長洲805-1",
        "lat": 32.94058,
        "lng": 130.441042
    }
]