[
    {
        "code": "A204393410014",
        "type": 16013,
        "name": "丸森ひまわりこども園",
        "address": "伊具郡丸森町舘矢間舘山字玉川136-1",
        "lat": 37.924866,
        "lng": 140.766275
    },
    {
        "code": "B104223410012",
        "type": 16001,
        "name": "丸森小学校",
        "address": "伊具郡丸森町字菱川内39-1",
        "lat": 37.914948,
        "lng": 140.760484
    },
    {
        "code": "B104223410021",
        "type": 16001,
        "name": "金山小学校",
        "address": "伊具郡丸森町金山字下前川原1-1",
        "lat": 37.901339,
        "lng": 140.798258
    },
    {
        "code": "B104223410030",
        "type": 16001,
        "name": "筆甫小学校",
        "address": "伊具郡丸森町筆甫字中島3-2",
        "lat": 37.836066,
        "lng": 140.732156
    },
    {
        "code": "B104223410049",
        "type": 16001,
        "name": "大内小学校",
        "address": "伊具郡丸森町大内字横手18",
        "lat": 37.871899,
        "lng": 140.826313
    },
    {
        "code": "B104223410058",
        "type": 16001,
        "name": "小斎小学校",
        "address": "伊具郡丸森町小斎字古舘95",
        "lat": 37.918195,
        "lng": 140.823298
    },
    {
        "code": "B104223410067",
        "type": 16001,
        "name": "舘矢間小学校",
        "address": "伊具郡丸森町舘矢間舘山字玉川29-1",
        "lat": 37.924114,
        "lng": 140.772427
    },
    {
        "code": "B104223410076",
        "type": 16001,
        "name": "大張小学校",
        "address": "伊具郡丸森町大張川張字宮田25",
        "lat": 37.936461,
        "lng": 140.677021
    },
    {
        "code": "B104223410085",
        "type": 16001,
        "name": "耕野小学校",
        "address": "伊具郡丸森町耕野字入大44-1",
        "lat": 37.919388,
        "lng": 140.645493
    },
    {
        "code": "B104393410013",
        "type": 16001,
        "name": "啓明宮城小学校",
        "address": "伊具郡丸森町雁歌62",
        "lat": 37.906615,
        "lng": 140.763262
    },
    {
        "code": "C104223410010",
        "type": 16002,
        "name": "丸森中学校",
        "address": "伊具郡丸森町字田町南24-2",
        "lat": 37.917306,
        "lng": 140.764517
    },
    {
        "code": "D104213410019",
        "type": 16004,
        "name": "伊具高等学校",
        "address": "伊具郡丸森町字雁歌51",
        "lat": 37.90606,
        "lng": 140.761595
    }
]