[
    {
        "code": "A143310000410",
        "type": 16011,
        "name": "高森幼稚園",
        "address": "阿蘇郡高森町大字高森1949-1",
        "lat": 32.824465,
        "lng": 131.122558
    },
    {
        "code": "B143210003033",
        "type": 16001,
        "name": "高森中央小学校",
        "address": "阿蘇郡高森町高森1100",
        "lat": 32.813599,
        "lng": 131.126241
    },
    {
        "code": "C143210000766",
        "type": 16002,
        "name": "高森中学校",
        "address": "阿蘇郡高森町高森1955",
        "lat": 32.822793,
        "lng": 131.124658
    },
    {
        "code": "C243210000015",
        "type": 16014,
        "name": "高森東学園義務教育学校",
        "address": "阿蘇郡高森町大字野尻1912",
        "lat": 32.824271,
        "lng": 131.24477
    },
    {
        "code": "D143210000309",
        "type": 16004,
        "name": "高森高等学校",
        "address": "阿蘇郡高森町高森1557",
        "lat": 32.820793,
        "lng": 131.124713
    }
]