[
    {
        "code": "B143210002711",
        "type": 16001,
        "name": "久木野小学校",
        "address": "阿蘇郡南阿蘇村大字河陰130",
        "lat": 32.819487,
        "lng": 131.030832
    },
    {
        "code": "B143210003131",
        "type": 16001,
        "name": "南阿蘇西小学校",
        "address": "阿蘇郡南阿蘇村河陽2986",
        "lat": 32.848842,
        "lng": 131.012442
    },
    {
        "code": "B143210003426",
        "type": 16001,
        "name": "白水小学校",
        "address": "阿蘇郡南阿蘇村大字吉田2301",
        "lat": 32.82631,
        "lng": 131.080994
    },
    {
        "code": "C143210001621",
        "type": 16002,
        "name": "南阿蘇中学校",
        "address": "阿蘇郡南阿蘇村大字河陽3645",
        "lat": 32.858099,
        "lng": 131.000909
    },
    {
        "code": "D143310000245",
        "type": 16004,
        "name": "くまもと清陵高等学校",
        "address": "阿蘇郡南阿蘇村河陰字小野5-300",
        "lat": 32.808021,
        "lng": 131.061161
    },
    {
        "code": "H143310000488",
        "type": 16016,
        "name": "イデアＩＴカレッジ阿蘇",
        "address": "阿蘇郡南阿蘇村大字河陽4518",
        "lat": 32.871532,
        "lng": 131.007861
    }
]