[
    {
        "code": "A143210000181",
        "type": 16011,
        "name": "多良木幼稚園",
        "address": "球磨郡多良木町多良木268-1",
        "lat": 32.26525,
        "lng": 130.942655
    },
    {
        "code": "B143210002310",
        "type": 16001,
        "name": "多良木小学校",
        "address": "球磨郡多良木町多良木876",
        "lat": 32.262289,
        "lng": 130.94025
    },
    {
        "code": "B143210002329",
        "type": 16001,
        "name": "宮ケ野小学校",
        "address": "球磨郡多良木町大字多良木3272",
        "lat": 32.314589,
        "lng": 130.914111
    },
    {
        "code": "B143210002338",
        "type": 16001,
        "name": "久米小学校",
        "address": "球磨郡多良木町大字久米128",
        "lat": 32.24843,
        "lng": 130.959915
    },
    {
        "code": "B143210002347",
        "type": 16001,
        "name": "槻木小学校",
        "address": "球磨郡多良木町大字槻木713-1",
        "lat": 32.203186,
        "lng": 131.028938
    },
    {
        "code": "B143210002356",
        "type": 16001,
        "name": "黒肥地小学校",
        "address": "球磨郡多良木町大字黒肥地1629",
        "lat": 32.275566,
        "lng": 130.942527
    },
    {
        "code": "B143210002365",
        "type": 16001,
        "name": "黒肥地小学校柳野分校",
        "address": "球磨郡多良木町大字黒肥地10288",
        "lat": 32.316618,
        "lng": 130.939693
    },
    {
        "code": "C143210000935",
        "type": 16002,
        "name": "多良木中学校",
        "address": "球磨郡多良木町大字多良木1736",
        "lat": 32.265955,
        "lng": 130.933028
    },
    {
        "code": "E143210000155",
        "type": 16012,
        "name": "球磨支援学校",
        "address": "球磨郡多良木町多良木4217",
        "lat": 32.253678,
        "lng": 130.926029
    }
]