[
    {
        "code": "A143310000401",
        "type": 16011,
        "name": "摩耶幼稚園",
        "address": "球磨郡あさぎり町免田東1912",
        "lat": 32.23497,
        "lng": 130.901309
    },
    {
        "code": "A143310000562",
        "type": 16011,
        "name": "上村学園認定こども園あおぞらこども園",
        "address": "球磨郡あさぎり町上北2215",
        "lat": 32.223681,
        "lng": 130.90949
    },
    {
        "code": "A243310000838",
        "type": 16013,
        "name": "あさぎりこども園",
        "address": "球磨郡あさぎり町免田西2591",
        "lat": 32.224256,
        "lng": 130.872481
    },
    {
        "code": "B143210002301",
        "type": 16001,
        "name": "免田小学校",
        "address": "球磨郡あさぎり町免田東1719",
        "lat": 32.234897,
        "lng": 130.896743
    },
    {
        "code": "B143210002418",
        "type": 16001,
        "name": "上小学校",
        "address": "球磨郡あさぎり町上南2370",
        "lat": 32.210334,
        "lng": 130.905337
    },
    {
        "code": "B143210002427",
        "type": 16001,
        "name": "岡原小学校",
        "address": "球磨郡あさぎり町岡原北1313",
        "lat": 32.237762,
        "lng": 130.933361
    },
    {
        "code": "B143210002454",
        "type": 16001,
        "name": "須恵小学校",
        "address": "球磨郡あさぎり町須恵1230",
        "lat": 32.265146,
        "lng": 130.900697
    },
    {
        "code": "B143210002463",
        "type": 16001,
        "name": "深田小学校",
        "address": "球磨郡あさぎり町深田東787",
        "lat": 32.244488,
        "lng": 130.874967
    },
    {
        "code": "C143210001578",
        "type": 16002,
        "name": "あさぎり中学校",
        "address": "球磨郡あさぎり町上北2144",
        "lat": 32.221873,
        "lng": 130.907108
    },
    {
        "code": "D143210000522",
        "type": 16004,
        "name": "南稜高等学校",
        "address": "球磨郡あさぎり町上北310",
        "lat": 32.231859,
        "lng": 130.896108
    }
]