[
    {
        "code": "A104394040011",
        "type": 16011,
        "name": "和光幼稚園",
        "address": "宮城郡七ヶ浜町花渕浜字寺坂12",
        "lat": 38.301584,
        "lng": 141.086676
    },
    {
        "code": "A104394040020",
        "type": 16011,
        "name": "第二柏幼稚園",
        "address": "宮城郡七ヶ浜町東宮浜字笠岩16-15",
        "lat": 38.311194,
        "lng": 141.052083
    },
    {
        "code": "A204394040010",
        "type": 16013,
        "name": "遠山幼稚園・遠山保育園",
        "address": "宮城郡七ヶ浜町遠山1-1-29",
        "lat": 38.297814,
        "lng": 141.0421
    },
    {
        "code": "A204394040029",
        "type": 16013,
        "name": "汐見台幼稚園・汐見台保育園",
        "address": "宮城郡七ヶ浜町汐見台3-3-43",
        "lat": 38.299168,
        "lng": 141.049078
    },
    {
        "code": "B104224040018",
        "type": 16001,
        "name": "亦楽小学校",
        "address": "宮城郡七ヶ浜町代ヶ崎浜字細田54-1",
        "lat": 38.305195,
        "lng": 141.061271
    },
    {
        "code": "B104224040027",
        "type": 16001,
        "name": "松ヶ浜小学校",
        "address": "宮城郡七ヶ浜町松ヶ浜字神明裏52",
        "lat": 38.28242,
        "lng": 141.056551
    },
    {
        "code": "B104224040036",
        "type": 16001,
        "name": "汐見小学校",
        "address": "宮城郡七ヶ浜町汐見台3-1-3",
        "lat": 38.297809,
        "lng": 141.046453
    },
    {
        "code": "C104224040016",
        "type": 16002,
        "name": "七ヶ浜中学校",
        "address": "宮城郡七ヶ浜町吉田浜字小浜7",
        "lat": 38.304362,
        "lng": 141.062382
    },
    {
        "code": "C104224040025",
        "type": 16002,
        "name": "向洋中学校",
        "address": "宮城郡七ヶ浜町遠山1-9-18",
        "lat": 38.294085,
        "lng": 141.043773
    }
]