[
    {
        "code": "A144210000590",
        "type": 16011,
        "name": "野津幼稚園",
        "address": "臼杵市野津町大字山頭3100",
        "lat": 33.045575,
        "lng": 131.700186
    },
    {
        "code": "A144310000302",
        "type": 16011,
        "name": "カトリック臼杵幼稚園",
        "address": "臼杵市大字臼杵75-80",
        "lat": 33.122909,
        "lng": 131.80291
    },
    {
        "code": "A144310000561",
        "type": 16011,
        "name": "アソカ幼稚園",
        "address": "臼杵市江無田408-9",
        "lat": 33.128177,
        "lng": 131.786292
    },
    {
        "code": "A244310000953",
        "type": 16013,
        "name": "海辺こども園",
        "address": "臼杵市大字大浜526-2",
        "lat": 33.136735,
        "lng": 131.806974
    },
    {
        "code": "A244310000962",
        "type": 16013,
        "name": "すみれこども園",
        "address": "臼杵市大字大野字友田大道西12",
        "lat": 33.140762,
        "lng": 131.78897
    },
    {
        "code": "A244310000971",
        "type": 16013,
        "name": "野津こども園",
        "address": "臼杵市野津町宮原3950-1",
        "lat": 33.04995,
        "lng": 131.692817
    },
    {
        "code": "B144210000730",
        "type": 16001,
        "name": "佐志生小学校",
        "address": "臼杵市大字佐志生3015-1",
        "lat": 33.176751,
        "lng": 131.827893
    },
    {
        "code": "B144210000749",
        "type": 16001,
        "name": "下ノ江小学校",
        "address": "臼杵市大字大野1955",
        "lat": 33.152419,
        "lng": 131.806145
    },
    {
        "code": "B144210000758",
        "type": 16001,
        "name": "海辺小学校",
        "address": "臼杵市大字大浜173",
        "lat": 33.136393,
        "lng": 131.808396
    },
    {
        "code": "B144210000767",
        "type": 16001,
        "name": "下北小学校",
        "address": "臼杵市稲田862",
        "lat": 33.145142,
        "lng": 131.790008
    },
    {
        "code": "B144210000776",
        "type": 16001,
        "name": "上北小学校",
        "address": "臼杵市末広2487-2",
        "lat": 33.139817,
        "lng": 131.757155
    },
    {
        "code": "B144210000785",
        "type": 16001,
        "name": "下南小学校",
        "address": "臼杵市望月815",
        "lat": 33.103281,
        "lng": 131.77281
    },
    {
        "code": "B144210000794",
        "type": 16001,
        "name": "市浜小学校",
        "address": "臼杵市大字戸室503",
        "lat": 33.118478,
        "lng": 131.787342
    },
    {
        "code": "B144210000801",
        "type": 16001,
        "name": "福良ケ丘小学校",
        "address": "臼杵市大字福良360-1",
        "lat": 33.114729,
        "lng": 131.794481
    },
    {
        "code": "B144210000810",
        "type": 16001,
        "name": "臼杵小学校",
        "address": "臼杵市臼杵65",
        "lat": 33.124644,
        "lng": 131.800258
    },
    {
        "code": "B144210001659",
        "type": 16001,
        "name": "川登小学校",
        "address": "臼杵市野津町大字清水原1341",
        "lat": 33.005937,
        "lng": 131.717935
    },
    {
        "code": "B144210001668",
        "type": 16001,
        "name": "野津小学校",
        "address": "臼杵市野津町大字山頭3100",
        "lat": 33.045385,
        "lng": 131.69899
    },
    {
        "code": "B144210001677",
        "type": 16001,
        "name": "南野津小学校",
        "address": "臼杵市野津町大字西畑600",
        "lat": 33.013052,
        "lng": 131.667451
    },
    {
        "code": "B144210002471",
        "type": 16001,
        "name": "臼杵南小学校",
        "address": "臼杵市掻懐1483",
        "lat": 33.090777,
        "lng": 131.757368
    },
    {
        "code": "C144210000417",
        "type": 16002,
        "name": "北中学校",
        "address": "臼杵市江無田132-1",
        "lat": 33.130796,
        "lng": 131.789947
    },
    {
        "code": "C144210000426",
        "type": 16002,
        "name": "南中学校",
        "address": "臼杵市大字掻懐2227",
        "lat": 33.097197,
        "lng": 131.749517
    },
    {
        "code": "C144210000435",
        "type": 16002,
        "name": "西中学校",
        "address": "臼杵市戸室535",
        "lat": 33.119394,
        "lng": 131.786037
    },
    {
        "code": "C144210000444",
        "type": 16002,
        "name": "東中学校",
        "address": "臼杵市大字臼杵71-18",
        "lat": 33.125502,
        "lng": 131.80352
    },
    {
        "code": "C144210000818",
        "type": 16002,
        "name": "野津中学校",
        "address": "臼杵市野津町野津市666",
        "lat": 33.036748,
        "lng": 131.687126
    },
    {
        "code": "D144210000184",
        "type": 16004,
        "name": "臼杵高等学校",
        "address": "臼杵市海添2521",
        "lat": 33.118062,
        "lng": 131.805007
    },
    {
        "code": "D144210000406",
        "type": 16004,
        "name": "海洋科学高等学校",
        "address": "臼杵市大字諏訪254-1-2",
        "lat": 33.135782,
        "lng": 131.804646
    },
    {
        "code": "E144210000065",
        "type": 16012,
        "name": "臼杵支援学校",
        "address": "臼杵市井村911",
        "lat": 33.142281,
        "lng": 131.777343
    }
]