[
    {
        "code": "A144210000117",
        "type": 16011,
        "name": "南立石幼稚園",
        "address": "別府市南立石1907-1",
        "lat": 33.288712,
        "lng": 131.47364
    },
    {
        "code": "A144210000126",
        "type": 16011,
        "name": "亀川幼稚園",
        "address": "別府市大字亀川24-1",
        "lat": 33.330479,
        "lng": 131.490786
    },
    {
        "code": "A144210000135",
        "type": 16011,
        "name": "朝日幼稚園",
        "address": "別府市大字鶴見347",
        "lat": 33.309217,
        "lng": 131.47542
    },
    {
        "code": "A144210000144",
        "type": 16011,
        "name": "石垣幼稚園",
        "address": "別府市石垣西7-6-7",
        "lat": 33.299812,
        "lng": 131.493169
    },
    {
        "code": "A144210000153",
        "type": 16011,
        "name": "境川幼稚園",
        "address": "別府市石垣西1-2-43",
        "lat": 33.290246,
        "lng": 131.493561
    },
    {
        "code": "A144210000162",
        "type": 16011,
        "name": "上人幼稚園",
        "address": "別府市北石垣171",
        "lat": 33.315753,
        "lng": 131.492808
    },
    {
        "code": "A144210000732",
        "type": 16011,
        "name": "鶴見幼稚園",
        "address": "別府市鶴見4028-2",
        "lat": 33.296196,
        "lng": 131.469101
    },
    {
        "code": "A144210000812",
        "type": 16011,
        "name": "春木川幼稚園",
        "address": "別府市中須賀東町8組の4",
        "lat": 33.306762,
        "lng": 131.496312
    },
    {
        "code": "A144210000901",
        "type": 16011,
        "name": "緑丘幼稚園",
        "address": "別府市大字鶴見4310-1",
        "lat": 33.297493,
        "lng": 131.487803
    },
    {
        "code": "A144210000929",
        "type": 16011,
        "name": "大平山幼稚園",
        "address": "別府市大字鶴見1991",
        "lat": 33.301556,
        "lng": 131.466268
    },
    {
        "code": "A144210000974",
        "type": 16011,
        "name": "東山幼稚園",
        "address": "別府市大字別府4380-1",
        "lat": 33.267126,
        "lng": 131.44884
    },
    {
        "code": "A144210000983",
        "type": 16011,
        "name": "南幼稚園",
        "address": "別府市浜脇3-7-13",
        "lat": 33.270723,
        "lng": 131.502438
    },
    {
        "code": "A144210001045",
        "type": 16011,
        "name": "べっぷ幼稚園",
        "address": "別府市京町11-9",
        "lat": 33.288474,
        "lng": 131.504919
    },
    {
        "code": "A144210001054",
        "type": 16011,
        "name": "山の手幼稚園",
        "address": "別府市青山町5-68",
        "lat": 33.278431,
        "lng": 131.493336
    },
    {
        "code": "A144310000133",
        "type": 16011,
        "name": "別府大学附属幼稚園",
        "address": "別府市北石垣82",
        "lat": 33.311798,
        "lng": 131.489285
    },
    {
        "code": "A144310000142",
        "type": 16011,
        "name": "明星幼稚園",
        "address": "別府市野口原3088",
        "lat": 33.284407,
        "lng": 131.482923
    },
    {
        "code": "A144310000151",
        "type": 16011,
        "name": "真愛幼稚園",
        "address": "別府市上田の湯町7-4",
        "lat": 33.277753,
        "lng": 131.496994
    },
    {
        "code": "A144310000160",
        "type": 16011,
        "name": "カトリック海の星幼稚園",
        "address": "別府市末広町1-14",
        "lat": 33.274455,
        "lng": 131.502422
    },
    {
        "code": "A144310000179",
        "type": 16011,
        "name": "別府中央幼稚園",
        "address": "別府市中央町9-32",
        "lat": 33.277324,
        "lng": 131.502658
    },
    {
        "code": "A144310000188",
        "type": 16011,
        "name": "わかば幼稚園",
        "address": "別府市大字北石垣881",
        "lat": 33.310023,
        "lng": 131.497081
    },
    {
        "code": "A244310000196",
        "type": 16013,
        "name": "ひめやま幼稚園",
        "address": "別府市大字野田78",
        "lat": 33.328738,
        "lng": 131.486192
    },
    {
        "code": "A244310000720",
        "type": 16013,
        "name": "あおばこども園",
        "address": "別府市大畑11組",
        "lat": 33.3057,
        "lng": 131.472075
    },
    {
        "code": "A244310000739",
        "type": 16013,
        "name": "朝日こども園",
        "address": "別府市火売7組-2",
        "lat": 33.309961,
        "lng": 131.470224
    },
    {
        "code": "B144210000375",
        "type": 16001,
        "name": "境川小学校",
        "address": "別府市石垣西1-2-24",
        "lat": 33.289658,
        "lng": 131.492703
    },
    {
        "code": "B144210000384",
        "type": 16001,
        "name": "南立石小学校",
        "address": "別府市南立石1907-1",
        "lat": 33.289119,
        "lng": 131.473451
    },
    {
        "code": "B144210000393",
        "type": 16001,
        "name": "亀川小学校",
        "address": "別府市大字内竃1179",
        "lat": 33.329837,
        "lng": 131.490838
    },
    {
        "code": "B144210000400",
        "type": 16001,
        "name": "朝日小学校",
        "address": "別府市大字鶴見347",
        "lat": 33.309062,
        "lng": 131.475451
    },
    {
        "code": "B144210000419",
        "type": 16001,
        "name": "石垣小学校",
        "address": "別府市石垣西7-6-27",
        "lat": 33.300172,
        "lng": 131.49295
    },
    {
        "code": "B144210000428",
        "type": 16001,
        "name": "東山小学校",
        "address": "別府市大字別府4380-1",
        "lat": 33.252649,
        "lng": 131.436842
    },
    {
        "code": "B144210000437",
        "type": 16001,
        "name": "上人小学校",
        "address": "別府市大字北石垣171",
        "lat": 33.315672,
        "lng": 131.492866
    },
    {
        "code": "B144210002140",
        "type": 16001,
        "name": "鶴見小学校",
        "address": "別府市大字鶴見4034",
        "lat": 33.295896,
        "lng": 131.469729
    },
    {
        "code": "B144210002177",
        "type": 16001,
        "name": "春木川小学校",
        "address": "別府市中須賀東町8組の4",
        "lat": 33.307161,
        "lng": 131.497041
    },
    {
        "code": "B144210002248",
        "type": 16001,
        "name": "緑丘小学校",
        "address": "別府市鶴見3789-1",
        "lat": 33.297285,
        "lng": 131.486894
    },
    {
        "code": "B144210002257",
        "type": 16001,
        "name": "大平山小学校",
        "address": "別府市大字鶴見1991",
        "lat": 33.301396,
        "lng": 131.466924
    },
    {
        "code": "B144210002391",
        "type": 16001,
        "name": "南小学校",
        "address": "別府市浜脇3-7-13",
        "lat": 33.270617,
        "lng": 131.502763
    },
    {
        "code": "B144210002462",
        "type": 16001,
        "name": "別府中央小学校",
        "address": "別府市京町818-26",
        "lat": 33.287645,
        "lng": 131.505142
    },
    {
        "code": "B144210002612",
        "type": 16001,
        "name": "山の手小学校",
        "address": "別府市青山町5-68",
        "lat": 33.278381,
        "lng": 131.493339
    },
    {
        "code": "B144310000015",
        "type": 16001,
        "name": "明星小学校",
        "address": "別府市野口原3088",
        "lat": 33.285286,
        "lng": 131.483478
    },
    {
        "code": "C144210000186",
        "type": 16002,
        "name": "青山中学校",
        "address": "別府市野口原3088-1",
        "lat": 33.289638,
        "lng": 131.483038
    },
    {
        "code": "C144210000195",
        "type": 16002,
        "name": "中部中学校",
        "address": "別府市鶴見4530-1",
        "lat": 33.292646,
        "lng": 131.490061
    },
    {
        "code": "C144210000202",
        "type": 16002,
        "name": "北部中学校",
        "address": "別府市亀川231",
        "lat": 33.326115,
        "lng": 131.488144
    },
    {
        "code": "C144210000220",
        "type": 16002,
        "name": "朝日中学校",
        "address": "別府市大字鶴見950-5",
        "lat": 33.310895,
        "lng": 131.466174
    },
    {
        "code": "C144210000239",
        "type": 16002,
        "name": "東山中学校",
        "address": "別府市大字別府4380-1",
        "lat": 33.267188,
        "lng": 131.449301
    },
    {
        "code": "C144210001078",
        "type": 16002,
        "name": "鶴見台中学校",
        "address": "別府市大字鶴見3682-3",
        "lat": 33.299729,
        "lng": 131.489033
    },
    {
        "code": "C144210001265",
        "type": 16002,
        "name": "別府西中学校",
        "address": "別府市中島町7-49",
        "lat": 33.273898,
        "lng": 131.492546
    },
    {
        "code": "C144310000031",
        "type": 16002,
        "name": "明豊中学校",
        "address": "別府市野口原3088",
        "lat": 33.288536,
        "lng": 131.483061
    },
    {
        "code": "D144210000102",
        "type": 16004,
        "name": "別府鶴見丘高等学校",
        "address": "別府市4433-2",
        "lat": 33.293965,
        "lng": 131.490118
    },
    {
        "code": "D144210000380",
        "type": 16004,
        "name": "別府翔青高等学校",
        "address": "別府市野口原3088-91",
        "lat": 33.287758,
        "lng": 131.486061
    },
    {
        "code": "D144310000075",
        "type": 16004,
        "name": "別府溝部学園高等学校",
        "address": "別府市大字野田78",
        "lat": 33.328532,
        "lng": 131.486172
    },
    {
        "code": "D144310000146",
        "type": 16004,
        "name": "明豊高等学校",
        "address": "別府市野口原3088",
        "lat": 33.287846,
        "lng": 131.486047
    },
    {
        "code": "E144210000047",
        "type": 16012,
        "name": "別府支援学校",
        "address": "別府市大字鶴見4224",
        "lat": 33.294952,
        "lng": 131.480145
    },
    {
        "code": "E144210000056",
        "type": 16012,
        "name": "南石垣支援学校",
        "address": "別府市石垣西1-2-5",
        "lat": 33.289646,
        "lng": 131.494228
    },
    {
        "code": "E144210000145",
        "type": 16012,
        "name": "別府支援学校鶴見校",
        "address": "別府市大字鶴見4075-12",
        "lat": 33.294757,
        "lng": 131.477895
    },
    {
        "code": "E144210000154",
        "type": 16012,
        "name": "別府支援学校石垣原校",
        "address": "別府市大字鶴見4050-293",
        "lat": 33.294674,
        "lng": 131.475117
    },
    {
        "code": "F144310111441",
        "type": 16007,
        "name": "別府大学",
        "address": "別府市大字北石垣82",
        "lat": 33.312325,
        "lng": 131.49045
    },
    {
        "code": "F144310111450",
        "type": 16007,
        "name": "立命館アジア太平洋大学",
        "address": "別府市十文字原1-1",
        "lat": 33.33693,
        "lng": 131.469856
    },
    {
        "code": "F244310111495",
        "type": 16006,
        "name": "別府溝部学園短期大学",
        "address": "別府市大字野田字通山78",
        "lat": 33.32806,
        "lng": 131.487311
    },
    {
        "code": "F244310111501",
        "type": 16006,
        "name": "別府大学短期大学部",
        "address": "別府市大字北石垣82",
        "lat": 33.312228,
        "lng": 131.490477
    },
    {
        "code": "H144310000030",
        "type": 16016,
        "name": "大分県歯科技術専門学校",
        "address": "別府市大字野田78",
        "lat": 33.327718,
        "lng": 131.486878
    },
    {
        "code": "H144310000049",
        "type": 16016,
        "name": "別府市医師会看護専門学校",
        "address": "別府市上田の湯町10-21",
        "lat": 33.278045,
        "lng": 131.494683
    },
    {
        "code": "H144310000101",
        "type": 16016,
        "name": "別府大学附属看護専門学校",
        "address": "別府市北石垣82",
        "lat": 33.3125,
        "lng": 131.491655
    },
    {
        "code": "H144310000352",
        "type": 16016,
        "name": "別府医療センター附属大分中央看護学校",
        "address": "別府市大字内竈1473",
        "lat": 33.331801,
        "lng": 131.488262
    },
    {
        "code": "H144310000398",
        "type": 16016,
        "name": "大分ドッググルーミング専門学校",
        "address": "別府市京町1306-4",
        "lat": 33.286474,
        "lng": 131.501758
    }
]