[
    {
        "code": "A144210000448",
        "type": 16011,
        "name": "安岐幼稚園",
        "address": "国東市下原2071",
        "lat": 33.467739,
        "lng": 131.719887
    },
    {
        "code": "A144210000698",
        "type": 16011,
        "name": "熊毛幼稚園",
        "address": "国東市国見町小熊毛62-2",
        "lat": 33.660632,
        "lng": 131.648863
    },
    {
        "code": "A144210000714",
        "type": 16011,
        "name": "竹田津幼稚園",
        "address": "国東市国見町竹田津3610-1",
        "lat": 33.67101,
        "lng": 131.565006
    },
    {
        "code": "A144210000849",
        "type": 16011,
        "name": "国見中央幼稚園",
        "address": "国東市国見町中850",
        "lat": 33.668052,
        "lng": 131.590147
    },
    {
        "code": "A144210000858",
        "type": 16011,
        "name": "富来幼稚園",
        "address": "国東市国東町富来浦677-4",
        "lat": 33.608104,
        "lng": 131.701718
    },
    {
        "code": "A144210001036",
        "type": 16011,
        "name": "安岐中央幼稚園",
        "address": "国東市安岐町中園210-1",
        "lat": 33.46371,
        "lng": 131.694644
    },
    {
        "code": "A144310000393",
        "type": 16011,
        "name": "ひともし幼稚園",
        "address": "国東市国東町鶴川1826",
        "lat": 33.559741,
        "lng": 131.734137
    },
    {
        "code": "A244310000436",
        "type": 16013,
        "name": "むさしこども園",
        "address": "国東市武蔵町糸原498",
        "lat": 33.495577,
        "lng": 131.720085
    },
    {
        "code": "A244310000445",
        "type": 16013,
        "name": "国東こども園",
        "address": "国東市国東町田深字安ヶ浜1571-14",
        "lat": 33.56784,
        "lng": 131.733448
    },
    {
        "code": "A244310000454",
        "type": 16013,
        "name": "安岐中央こども園",
        "address": "国東市安岐町下山口606-3",
        "lat": 33.457287,
        "lng": 131.68424
    },
    {
        "code": "B144210001294",
        "type": 16001,
        "name": "竹田津小学校",
        "address": "国東市国見町竹田津3610-1",
        "lat": 33.670773,
        "lng": 131.564692
    },
    {
        "code": "B144210001301",
        "type": 16001,
        "name": "伊美小学校",
        "address": "国東市国見町中850",
        "lat": 33.667327,
        "lng": 131.590147
    },
    {
        "code": "B144210001310",
        "type": 16001,
        "name": "熊毛小学校",
        "address": "国東市国見町小熊毛62-2",
        "lat": 33.660037,
        "lng": 131.648689
    },
    {
        "code": "B144210001338",
        "type": 16001,
        "name": "国東小学校",
        "address": "国東市安国寺623-2",
        "lat": 33.561742,
        "lng": 131.729301
    },
    {
        "code": "B144210001347",
        "type": 16001,
        "name": "小原小学校",
        "address": "国東市国東町小原1468",
        "lat": 33.550024,
        "lng": 131.722319
    },
    {
        "code": "B144210001356",
        "type": 16001,
        "name": "旭日小学校",
        "address": "国東市国東町綱井2980-1",
        "lat": 33.52912,
        "lng": 131.722321
    },
    {
        "code": "B144210001365",
        "type": 16001,
        "name": "安岐小学校",
        "address": "国東市安岐町下原2071",
        "lat": 33.467262,
        "lng": 131.720272
    },
    {
        "code": "B144210002453",
        "type": 16001,
        "name": "安岐中央小学校",
        "address": "国東市安岐町中園210-1",
        "lat": 33.4636,
        "lng": 131.694776
    },
    {
        "code": "B144210002578",
        "type": 16001,
        "name": "富来小学校",
        "address": "国東市国東町富来浦677-4",
        "lat": 33.608437,
        "lng": 131.701517
    },
    {
        "code": "C144210000658",
        "type": 16002,
        "name": "国見中学校",
        "address": "国東市国見町伊美2830",
        "lat": 33.679306,
        "lng": 131.595909
    },
    {
        "code": "C144210000676",
        "type": 16002,
        "name": "安岐中学校",
        "address": "国東市安岐町中園408",
        "lat": 33.464483,
        "lng": 131.69498
    },
    {
        "code": "C144210001210",
        "type": 16002,
        "name": "国東中学校",
        "address": "国東市国東町田深1422",
        "lat": 33.575975,
        "lng": 131.729447
    },
    {
        "code": "C244210000023",
        "type": 16014,
        "name": "志成学園",
        "address": "国東市国東市武蔵町成吉810",
        "lat": 33.506573,
        "lng": 131.70953
    },
    {
        "code": "D144210000317",
        "type": 16004,
        "name": "国東高等学校",
        "address": "国東市国東町鶴川1974",
        "lat": 33.557236,
        "lng": 131.732183
    },
    {
        "code": "D144210000326",
        "type": 16004,
        "name": "国東高等学校双国校",
        "address": "国東市国見町中1350",
        "lat": 33.6754,
        "lng": 131.593223
    },
    {
        "code": "H244210000022",
        "type": 16015,
        "name": "国東自動車学校",
        "address": "国東市国東町北江4398",
        "lat": 33.578104,
        "lng": 131.731253
    }
]