[
    {
        "code": "A144210000509",
        "type": 16011,
        "name": "挟間幼稚園",
        "address": "由布市挾間町挾間132-2",
        "lat": 33.201646,
        "lng": 131.512808
    },
    {
        "code": "A144210000518",
        "type": 16011,
        "name": "谷幼稚園",
        "address": "由布市挾間町谷699",
        "lat": 33.186728,
        "lng": 131.493217
    },
    {
        "code": "A144210000527",
        "type": 16011,
        "name": "石城幼稚園",
        "address": "由布市挾間町来鉢31-2",
        "lat": 33.222563,
        "lng": 131.524178
    },
    {
        "code": "A144210000536",
        "type": 16011,
        "name": "由布院幼稚園",
        "address": "由布市湯布院町川南1075-1",
        "lat": 33.251148,
        "lng": 131.348778
    },
    {
        "code": "A144210000750",
        "type": 16011,
        "name": "塚原幼稚園",
        "address": "由布市湯布院町塚原521-6",
        "lat": 33.306384,
        "lng": 131.387083
    },
    {
        "code": "A144210000769",
        "type": 16011,
        "name": "由布川幼稚園",
        "address": "由布市挾間町古野211-1",
        "lat": 33.210476,
        "lng": 131.528432
    },
    {
        "code": "A144210000885",
        "type": 16011,
        "name": "西庄内幼稚園",
        "address": "由布市庄内町高岡417-1",
        "lat": 33.184343,
        "lng": 131.409987
    },
    {
        "code": "A144210000894",
        "type": 16011,
        "name": "阿南幼稚園",
        "address": "由布市庄内町東長宝558",
        "lat": 33.18708,
        "lng": 131.45305
    },
    {
        "code": "A244310000793",
        "type": 16013,
        "name": "ひばりこども園",
        "address": "由布市庄内町柿原410-1",
        "lat": 33.178463,
        "lng": 131.424298
    },
    {
        "code": "A244310001060",
        "type": 16013,
        "name": "きらりこども園",
        "address": "由布市挾間町挾間625-1",
        "lat": 33.199848,
        "lng": 131.517048
    },
    {
        "code": "A244310001079",
        "type": 16013,
        "name": "はさまこども園",
        "address": "由布市挾間町挾間114",
        "lat": 33.201468,
        "lng": 131.513316
    },
    {
        "code": "A244310001088",
        "type": 16013,
        "name": "湯布院すみれこども園",
        "address": "由布市湯布院町川上2542",
        "lat": 33.261686,
        "lng": 131.366043
    },
    {
        "code": "B144210001445",
        "type": 16001,
        "name": "石城小学校",
        "address": "由布市挾間町来鉢31-1",
        "lat": 33.222575,
        "lng": 131.52361
    },
    {
        "code": "B144210001454",
        "type": 16001,
        "name": "由布川小学校",
        "address": "由布市挾間町古野211-1",
        "lat": 33.210249,
        "lng": 131.529323
    },
    {
        "code": "B144210001463",
        "type": 16001,
        "name": "挾間小学校",
        "address": "由布市挾間町向ﾉ原89",
        "lat": 33.198705,
        "lng": 131.514725
    },
    {
        "code": "B144210001472",
        "type": 16001,
        "name": "谷小学校",
        "address": "由布市挾間町谷699",
        "lat": 33.186336,
        "lng": 131.492901
    },
    {
        "code": "B144210001481",
        "type": 16001,
        "name": "阿南小学校",
        "address": "由布市庄内町東長宝523",
        "lat": 33.186248,
        "lng": 131.452719
    },
    {
        "code": "B144210001490",
        "type": 16001,
        "name": "東庄内小学校",
        "address": "由布市庄内町大龍1835",
        "lat": 33.177872,
        "lng": 131.435192
    },
    {
        "code": "B144210001506",
        "type": 16001,
        "name": "西庄内小学校",
        "address": "由布市庄内町高岡417-1",
        "lat": 33.184338,
        "lng": 131.409754
    },
    {
        "code": "B144210001515",
        "type": 16001,
        "name": "由布院小学校",
        "address": "由布市湯布院町川上3758",
        "lat": 33.263932,
        "lng": 131.354826
    },
    {
        "code": "B144210001524",
        "type": 16001,
        "name": "川西小学校",
        "address": "由布市湯布院町川西3716",
        "lat": 33.235723,
        "lng": 131.324165
    },
    {
        "code": "B144210001533",
        "type": 16001,
        "name": "塚原小学校",
        "address": "由布市湯布院町塚原511",
        "lat": 33.306594,
        "lng": 131.387439
    },
    {
        "code": "C144210000710",
        "type": 16002,
        "name": "挾間中学校",
        "address": "由布市挾間町向原440",
        "lat": 33.200454,
        "lng": 131.510218
    },
    {
        "code": "C144210000729",
        "type": 16002,
        "name": "庄内中学校",
        "address": "由布市庄内町柿原49",
        "lat": 33.18551,
        "lng": 131.436021
    },
    {
        "code": "C144210000738",
        "type": 16002,
        "name": "湯布院中学校",
        "address": "由布市湯布院町川北1179",
        "lat": 33.256641,
        "lng": 131.345159
    },
    {
        "code": "D144210000237",
        "type": 16004,
        "name": "由布高等学校",
        "address": "由布市庄内町大竜2674-1",
        "lat": 33.182238,
        "lng": 131.45312
    },
    {
        "code": "E144210000109",
        "type": 16012,
        "name": "由布支援学校",
        "address": "由布市西長宝1796",
        "lat": 33.187932,
        "lng": 131.449204
    }
]