[
    {
        "code": "A244210000036",
        "type": 16013,
        "name": "飯田こども園",
        "address": "玖珠郡九重町大字田野1624-10",
        "lat": 33.157484,
        "lng": 131.221656
    },
    {
        "code": "A244210000045",
        "type": 16013,
        "name": "ここのえみつばこども園",
        "address": "玖珠郡九重町大字引治508-11",
        "lat": 33.230648,
        "lng": 131.180103
    },
    {
        "code": "B144210001800",
        "type": 16001,
        "name": "東飯田小学校",
        "address": "玖珠郡九重町大字恵良938",
        "lat": 33.258757,
        "lng": 131.179921
    },
    {
        "code": "B144210001819",
        "type": 16001,
        "name": "野上小学校",
        "address": "玖珠郡九重町大字野上17-1",
        "lat": 33.225372,
        "lng": 131.201615
    },
    {
        "code": "B144210001828",
        "type": 16001,
        "name": "野矢小学校",
        "address": "玖珠郡九重町野上3460",
        "lat": 33.238871,
        "lng": 131.262498
    },
    {
        "code": "B144210001837",
        "type": 16001,
        "name": "飯田小学校",
        "address": "玖珠郡九重町大字田野1617",
        "lat": 33.159433,
        "lng": 131.221754
    },
    {
        "code": "B144210001846",
        "type": 16001,
        "name": "淮園小学校",
        "address": "玖珠郡九重町大字菅原1274",
        "lat": 33.193928,
        "lng": 131.159315
    },
    {
        "code": "B144210001855",
        "type": 16001,
        "name": "南山田小学校",
        "address": "玖珠郡九重町町田609",
        "lat": 33.219871,
        "lng": 131.173062
    },
    {
        "code": "C144210001238",
        "type": 16002,
        "name": "ここのえ緑陽中学校",
        "address": "玖珠郡九重町大字後野上17-3",
        "lat": 33.227995,
        "lng": 131.191358
    }
]