[
    {
        "code": "A104225010013",
        "type": 16011,
        "name": "さくらんぼこども園",
        "address": "遠田郡涌谷町上郡字永根1-2",
        "lat": 38.562108,
        "lng": 141.114707
    },
    {
        "code": "A104225010022",
        "type": 16011,
        "name": "涌谷幼稚園",
        "address": "遠田郡涌谷町蔵人沖名242",
        "lat": 38.547168,
        "lng": 141.118824
    },
    {
        "code": "A104225010031",
        "type": 16011,
        "name": "ののだけ幼稚園",
        "address": "遠田郡涌谷町猪岡短台字愛宕11-3",
        "lat": 38.561317,
        "lng": 141.192429
    },
    {
        "code": "A104225010040",
        "type": 16011,
        "name": "涌谷南幼稚園",
        "address": "遠田郡涌谷町字下道108-1",
        "lat": 38.535335,
        "lng": 141.132425
    },
    {
        "code": "B104225010011",
        "type": 16001,
        "name": "涌谷第一小学校",
        "address": "遠田郡涌谷町字立町15",
        "lat": 38.542945,
        "lng": 141.129305
    },
    {
        "code": "B104225010020",
        "type": 16001,
        "name": "月将館小学校",
        "address": "遠田郡涌谷町涌谷字小人町1",
        "lat": 38.543501,
        "lng": 141.134305
    },
    {
        "code": "B104225010039",
        "type": 16001,
        "name": "箟岳白山小学校",
        "address": "遠田郡涌谷町太田字台78-2",
        "lat": 38.573647,
        "lng": 141.183838
    },
    {
        "code": "C104225010019",
        "type": 16002,
        "name": "涌谷中学校",
        "address": "遠田郡涌谷町涌谷字内林1-10",
        "lat": 38.548222,
        "lng": 141.129861
    },
    {
        "code": "D104215010018",
        "type": 16004,
        "name": "涌谷高等学校",
        "address": "遠田郡涌谷町涌谷字八方谷三･1",
        "lat": 38.545531,
        "lng": 141.144996
    }
]