[
    {
        "code": "A104225050014",
        "type": 16011,
        "name": "なんごう幼稚園",
        "address": "遠田郡美里町木間塚字中央1",
        "lat": 38.487612,
        "lng": 141.136502
    },
    {
        "code": "A104225050023",
        "type": 16011,
        "name": "ふどうどう幼稚園",
        "address": "遠田郡美里町字志賀町3-2-1",
        "lat": 38.530009,
        "lng": 141.068802
    },
    {
        "code": "A104225050032",
        "type": 16011,
        "name": "こごた幼稚園",
        "address": "遠田郡美里町北浦字中新田142",
        "lat": 38.555342,
        "lng": 141.044922
    },
    {
        "code": "B104225050012",
        "type": 16001,
        "name": "小牛田小学校",
        "address": "遠田郡美里町牛飼字清水江220",
        "lat": 38.552109,
        "lng": 141.05709
    },
    {
        "code": "B104225050021",
        "type": 16001,
        "name": "不動堂小学校",
        "address": "遠田郡美里町峯山12-1",
        "lat": 38.536556,
        "lng": 141.073479
    },
    {
        "code": "B104225050030",
        "type": 16001,
        "name": "北浦小学校",
        "address": "遠田郡美里町北浦字浦田上129",
        "lat": 38.564885,
        "lng": 141.022649
    },
    {
        "code": "B104225050049",
        "type": 16001,
        "name": "中埣小学校",
        "address": "遠田郡美里町荻埣字朝日壇78",
        "lat": 38.576464,
        "lng": 141.028763
    },
    {
        "code": "B104225050058",
        "type": 16001,
        "name": "青生小学校",
        "address": "遠田郡美里町青生字中ﾉ橋128-1",
        "lat": 38.536833,
        "lng": 141.043482
    },
    {
        "code": "B104225050067",
        "type": 16001,
        "name": "南郷小学校",
        "address": "遠田郡美里町木間塚字高田5",
        "lat": 38.487951,
        "lng": 141.132918
    },
    {
        "code": "C104225050010",
        "type": 16002,
        "name": "小牛田中学校",
        "address": "遠田郡美里町牛飼字新西原310",
        "lat": 38.556275,
        "lng": 141.047924
    },
    {
        "code": "C104225050029",
        "type": 16002,
        "name": "不動堂中学校",
        "address": "遠田郡美里町字志賀殿72",
        "lat": 38.533223,
        "lng": 141.069035
    },
    {
        "code": "C104225050038",
        "type": 16002,
        "name": "南郷中学校",
        "address": "遠田郡美里町木間塚字高田66",
        "lat": 38.486563,
        "lng": 141.134307
    },
    {
        "code": "D104215050019",
        "type": 16004,
        "name": "小牛田農林高等学校",
        "address": "遠田郡美里町牛飼字伊勢堂裏30",
        "lat": 38.555165,
        "lng": 141.055146
    },
    {
        "code": "D104215050028",
        "type": 16004,
        "name": "南郷高等学校",
        "address": "遠田郡美里町大柳字天神原7",
        "lat": 38.501838,
        "lng": 141.117919
    },
    {
        "code": "E104215050016",
        "type": 16012,
        "name": "聴覚支援学校小牛田校",
        "address": "遠田郡美里町北浦字船入1",
        "lat": 38.539377,
        "lng": 141.05638
    },
    {
        "code": "E104215050025",
        "type": 16012,
        "name": "支援学校小牛田高等学園",
        "address": "遠田郡美里町北浦字船入1",
        "lat": 38.539333,
        "lng": 141.056536
    }
]