[
    {
        "code": "A145220271055",
        "type": 16011,
        "name": "石山幼稚園",
        "address": "都城市高城町石山3660",
        "lat": 31.835826,
        "lng": 131.129049
    },
    {
        "code": "A145220271091",
        "type": 16011,
        "name": "有水幼稚園",
        "address": "都城市高城町有水3354-1",
        "lat": 31.854924,
        "lng": 131.136217
    },
    {
        "code": "A145220271108",
        "type": 16011,
        "name": "高城幼稚園",
        "address": "都城市高城町穂満坊16",
        "lat": 31.799216,
        "lng": 131.133311
    },
    {
        "code": "A145320271124",
        "type": 16011,
        "name": "天竜幼稚園",
        "address": "都城市牟田町2-14",
        "lat": 31.725373,
        "lng": 131.061124
    },
    {
        "code": "A145320271133",
        "type": 16011,
        "name": "天竜第二幼稚園",
        "address": "都城市南鷹尾町16-15",
        "lat": 31.717626,
        "lng": 131.040429
    },
    {
        "code": "A145320271142",
        "type": 16011,
        "name": "天竜第三幼稚園",
        "address": "都城市鷹尾4-18-11",
        "lat": 31.72851,
        "lng": 131.042248
    },
    {
        "code": "A145320271151",
        "type": 16011,
        "name": "アソカ幼稚園",
        "address": "都城市年見町23-4",
        "lat": 31.732917,
        "lng": 131.087783
    },
    {
        "code": "A145320271160",
        "type": 16011,
        "name": "ふたば幼稚園",
        "address": "都城市松元町18-1",
        "lat": 31.724553,
        "lng": 131.056383
    },
    {
        "code": "A145320271240",
        "type": 16011,
        "name": "妻ケ丘幼稚園",
        "address": "都城市中原町23街区14",
        "lat": 31.727692,
        "lng": 131.071011
    },
    {
        "code": "A145320271259",
        "type": 16011,
        "name": "清涼幼稚園",
        "address": "都城市庄内町12396",
        "lat": 31.772664,
        "lng": 131.023627
    },
    {
        "code": "A145320271516",
        "type": 16011,
        "name": "一万城幼稚園",
        "address": "都城市一万城町1123",
        "lat": 31.720946,
        "lng": 131.093177
    },
    {
        "code": "A145320271525",
        "type": 16011,
        "name": "さくら幼稚園",
        "address": "都城市姫城町8街区30",
        "lat": 31.719435,
        "lng": 131.063565
    },
    {
        "code": "A145320271712",
        "type": 16011,
        "name": "都城聖ドミニコ学園幼稚園",
        "address": "都城市下長飯町881",
        "lat": 31.699976,
        "lng": 131.055006
    },
    {
        "code": "A145320271776",
        "type": 16011,
        "name": "天竜祝吉幼稚園",
        "address": "都城市千町5276-10",
        "lat": 31.738853,
        "lng": 131.077964
    },
    {
        "code": "A145320271918",
        "type": 16011,
        "name": "知勇学園認定こども園ししのこ幼稚園",
        "address": "都城市上水流町1758",
        "lat": 31.805581,
        "lng": 131.093391
    },
    {
        "code": "A245320220198",
        "type": 16013,
        "name": "にし幼稚園",
        "address": "都城市南横市町4003-2",
        "lat": 31.744423,
        "lng": 131.036334
    },
    {
        "code": "A245320220303",
        "type": 16013,
        "name": "いなり認定こども園",
        "address": "都城市郡元町4-23-18",
        "lat": 31.742406,
        "lng": 131.091405
    },
    {
        "code": "A245320220312",
        "type": 16013,
        "name": "五十市認定こども園",
        "address": "都城市久保原町29-4",
        "lat": 31.721103,
        "lng": 131.027986
    },
    {
        "code": "A245320220321",
        "type": 16013,
        "name": "こども園乙房こども園",
        "address": "都城市乙房町323",
        "lat": 31.764838,
        "lng": 131.059088
    },
    {
        "code": "A245320220330",
        "type": 16013,
        "name": "みやこばるこども縁",
        "address": "都城市都原11-5",
        "lat": 31.738237,
        "lng": 131.038568
    },
    {
        "code": "A245320220349",
        "type": 16013,
        "name": "宮丸認定こども園",
        "address": "都城市宮丸町2856-1",
        "lat": 31.731733,
        "lng": 131.055941
    },
    {
        "code": "A245320220358",
        "type": 16013,
        "name": "かたひら認定こども園",
        "address": "都城市志比田町7182-1",
        "lat": 31.739149,
        "lng": 131.048484
    },
    {
        "code": "A245320220492",
        "type": 16013,
        "name": "みやこのじょう児童学園",
        "address": "都城市祝吉2-7-4",
        "lat": 31.746702,
        "lng": 131.083974
    },
    {
        "code": "A245320220688",
        "type": 16013,
        "name": "上長飯認定こども園",
        "address": "都城市上長飯町81-4",
        "lat": 31.713661,
        "lng": 131.094591
    },
    {
        "code": "A245320220697",
        "type": 16013,
        "name": "川東さくらんぼこども園",
        "address": "都城市下川東2-3351",
        "lat": 31.74206,
        "lng": 131.067126
    },
    {
        "code": "A245320220704",
        "type": 16013,
        "name": "さかえこども園",
        "address": "都城市高城町穂満坊2553-51",
        "lat": 31.807598,
        "lng": 131.130525
    },
    {
        "code": "A245320220713",
        "type": 16013,
        "name": "志比田こども園",
        "address": "都城市志比田町5779-2",
        "lat": 31.741921,
        "lng": 131.054532
    },
    {
        "code": "A245320220722",
        "type": 16013,
        "name": "志和池さくらんぼこども園",
        "address": "都城市下水流町2964-3",
        "lat": 31.817252,
        "lng": 131.108054
    },
    {
        "code": "A245320220731",
        "type": 16013,
        "name": "谷頭こども園",
        "address": "都城市山田町中霧島3270-1",
        "lat": 31.791572,
        "lng": 131.050242
    },
    {
        "code": "A245320220740",
        "type": 16013,
        "name": "とほく認定こども園",
        "address": "都城市都北町1013",
        "lat": 31.759987,
        "lng": 131.091001
    },
    {
        "code": "A245320220759",
        "type": 16013,
        "name": "早水保育園",
        "address": "都城市早水町1-7-5",
        "lat": 31.735578,
        "lng": 131.091732
    },
    {
        "code": "A245320220768",
        "type": 16013,
        "name": "まるのキンダーガーデン",
        "address": "都城市野々美谷町2947-7",
        "lat": 31.793478,
        "lng": 131.074382
    },
    {
        "code": "A245320220777",
        "type": 16013,
        "name": "まんがつか認定こども園",
        "address": "都城市山田町山田9728-40",
        "lat": 31.817034,
        "lng": 131.060785
    },
    {
        "code": "A245320220786",
        "type": 16013,
        "name": "おおむたこども園",
        "address": "都城市大牟田2093-25",
        "lat": 31.865244,
        "lng": 131.079593
    },
    {
        "code": "A245320221044",
        "type": 16013,
        "name": "こばとキンダーガーテン",
        "address": "都城市丸谷町2695-6",
        "lat": 31.830159,
        "lng": 131.092571
    },
    {
        "code": "A245320221053",
        "type": 16013,
        "name": "やすひさ幼児園",
        "address": "都城市安久町1674-1",
        "lat": 31.693146,
        "lng": 131.086737
    },
    {
        "code": "A245320221062",
        "type": 16013,
        "name": "あやめ原こども園",
        "address": "都城市菖蒲原町27-1-2",
        "lat": 31.728598,
        "lng": 131.085475
    },
    {
        "code": "A245320221268",
        "type": 16013,
        "name": "上長飯認定こども園分園わかば保育園",
        "address": "都城市高野町3090-2",
        "lat": 31.811287,
        "lng": 130.95309
    },
    {
        "code": "A245320221311",
        "type": 16013,
        "name": "花笑みすずらんこども園",
        "address": "都城市南鷹尾町28-6",
        "lat": 31.719403,
        "lng": 131.039043
    },
    {
        "code": "A245320221320",
        "type": 16013,
        "name": "五十市認定こども園分園",
        "address": "都城市久保原町28-15",
        "lat": 31.720644,
        "lng": 131.028692
    },
    {
        "code": "B145220213018",
        "type": 16001,
        "name": "明道小学校",
        "address": "都城市八幡町12街区4",
        "lat": 31.720234,
        "lng": 131.060507
    },
    {
        "code": "B145220213027",
        "type": 16001,
        "name": "南小学校",
        "address": "都城市姫城町25街区17",
        "lat": 31.715818,
        "lng": 131.066924
    },
    {
        "code": "B145220213036",
        "type": 16001,
        "name": "大王小学校",
        "address": "都城市大王町20-1",
        "lat": 31.732122,
        "lng": 131.065895
    },
    {
        "code": "B145220213054",
        "type": 16001,
        "name": "東小学校",
        "address": "都城市上東町11街区20",
        "lat": 31.724401,
        "lng": 131.076145
    },
    {
        "code": "B145220213063",
        "type": 16001,
        "name": "上長飯小学校",
        "address": "都城市上長飯町531",
        "lat": 31.714958,
        "lng": 131.091672
    },
    {
        "code": "B145220213072",
        "type": 16001,
        "name": "五十市小学校",
        "address": "都城市五十町2242",
        "lat": 31.713262,
        "lng": 131.037038
    },
    {
        "code": "B145220213081",
        "type": 16001,
        "name": "西小学校",
        "address": "都城市南横市町3800",
        "lat": 31.741502,
        "lng": 131.033809
    },
    {
        "code": "B145220213090",
        "type": 16001,
        "name": "今町小学校",
        "address": "都城市今町8923",
        "lat": 31.692792,
        "lng": 131.036372
    },
    {
        "code": "B145220213107",
        "type": 16001,
        "name": "沖水小学校",
        "address": "都城市太郎坊町1979",
        "lat": 31.776008,
        "lng": 131.092837
    },
    {
        "code": "B145220213116",
        "type": 16001,
        "name": "祝吉小学校",
        "address": "都城市祝吉3-14-1",
        "lat": 31.741547,
        "lng": 131.085318
    },
    {
        "code": "B145220213125",
        "type": 16001,
        "name": "志和池小学校",
        "address": "都城市上水流町1666",
        "lat": 31.810422,
        "lng": 131.097779
    },
    {
        "code": "B145220213134",
        "type": 16001,
        "name": "丸野小学校",
        "address": "都城市野々美谷町2941",
        "lat": 31.792888,
        "lng": 131.07311
    },
    {
        "code": "B145220213143",
        "type": 16001,
        "name": "庄内小学校",
        "address": "都城市庄内町12680",
        "lat": 31.77345,
        "lng": 131.018288
    },
    {
        "code": "B145220213152",
        "type": 16001,
        "name": "菓子野小学校",
        "address": "都城市菓子野町9555",
        "lat": 31.778506,
        "lng": 131.043091
    },
    {
        "code": "B145220213161",
        "type": 16001,
        "name": "乙房小学校",
        "address": "都城市乙房町1707",
        "lat": 31.766563,
        "lng": 131.059396
    },
    {
        "code": "B145220213170",
        "type": 16001,
        "name": "西岳小学校",
        "address": "都城市美川町2928",
        "lat": 31.808117,
        "lng": 130.958177
    },
    {
        "code": "B145220213189",
        "type": 16001,
        "name": "吉之元小学校",
        "address": "都城市吉之元町4518",
        "lat": 31.826137,
        "lng": 130.91532
    },
    {
        "code": "B145220213198",
        "type": 16001,
        "name": "夏尾小学校",
        "address": "都城市夏尾町6644",
        "lat": 31.845193,
        "lng": 130.974843
    },
    {
        "code": "B145220213205",
        "type": 16001,
        "name": "御池小学校",
        "address": "都城市御池町5844-291",
        "lat": 31.86469,
        "lng": 130.946622
    },
    {
        "code": "B145220213214",
        "type": 16001,
        "name": "梅北小学校",
        "address": "都城市梅北町4687",
        "lat": 31.675211,
        "lng": 131.058815
    },
    {
        "code": "B145220213223",
        "type": 16001,
        "name": "安久小学校",
        "address": "都城市安久町2648-2",
        "lat": 31.694488,
        "lng": 131.093589
    },
    {
        "code": "B145220213241",
        "type": 16001,
        "name": "川東小学校",
        "address": "都城市下川東2-3295",
        "lat": 31.74351,
        "lng": 131.06634
    },
    {
        "code": "B145220213250",
        "type": 16001,
        "name": "明和小学校",
        "address": "都城市久保原町34-27",
        "lat": 31.723011,
        "lng": 131.027567
    },
    {
        "code": "B145220213269",
        "type": 16001,
        "name": "白雲小学校",
        "address": "都城市丸谷町388",
        "lat": 31.812449,
        "lng": 131.054546
    },
    {
        "code": "B145220213447",
        "type": 16001,
        "name": "山之口小学校",
        "address": "都城市山之口町花木2580",
        "lat": 31.78165,
        "lng": 131.156308
    },
    {
        "code": "B145220213456",
        "type": 16001,
        "name": "麓小学校",
        "address": "都城市山之口町山之口3842",
        "lat": 31.799487,
        "lng": 131.161337
    },
    {
        "code": "B145220213465",
        "type": 16001,
        "name": "富吉小学校",
        "address": "都城市山之口町富吉1659-1",
        "lat": 31.768891,
        "lng": 131.149424
    },
    {
        "code": "B145220213535",
        "type": 16001,
        "name": "高城小学校",
        "address": "都城市高城町穂満坊20",
        "lat": 31.798836,
        "lng": 131.132872
    },
    {
        "code": "B145220213544",
        "type": 16001,
        "name": "有水小学校",
        "address": "都城市高城町有水3354-1",
        "lat": 31.854732,
        "lng": 131.136043
    },
    {
        "code": "B145220213562",
        "type": 16001,
        "name": "石山小学校",
        "address": "都城市高城町石山3661",
        "lat": 31.835507,
        "lng": 131.128867
    },
    {
        "code": "B145220213633",
        "type": 16001,
        "name": "山田小学校",
        "address": "都城市山田町山田3931",
        "lat": 31.815888,
        "lng": 131.037029
    },
    {
        "code": "B145220213642",
        "type": 16001,
        "name": "中霧島小学校",
        "address": "都城市山田町中霧島3470-1",
        "lat": 31.792322,
        "lng": 131.040008
    },
    {
        "code": "B145220213651",
        "type": 16001,
        "name": "木之川内小学校",
        "address": "都城市山田町山田9350",
        "lat": 31.829907,
        "lng": 131.059243
    },
    {
        "code": "B145220213704",
        "type": 16001,
        "name": "高崎小学校",
        "address": "都城市高崎町大牟田1179-1",
        "lat": 31.873262,
        "lng": 131.06593
    },
    {
        "code": "B145220213713",
        "type": 16001,
        "name": "高崎麓小学校",
        "address": "都城市高崎町前田758",
        "lat": 31.907849,
        "lng": 131.041126
    },
    {
        "code": "B145220213722",
        "type": 16001,
        "name": "江平小学校",
        "address": "都城市高崎町江平2338-1",
        "lat": 31.888626,
        "lng": 131.095859
    },
    {
        "code": "B145220213731",
        "type": 16001,
        "name": "縄瀬小学校",
        "address": "都城市高崎町縄瀬1411",
        "lat": 31.848743,
        "lng": 131.103917
    },
    {
        "code": "B145220213740",
        "type": 16001,
        "name": "笛水小学校",
        "address": "都城市高崎町笛水948-1",
        "lat": 31.931284,
        "lng": 131.118559
    },
    {
        "code": "C145220243010",
        "type": 16002,
        "name": "姫城中学校",
        "address": "都城市姫城町25街区71",
        "lat": 31.716346,
        "lng": 131.065896
    },
    {
        "code": "C145220243029",
        "type": 16002,
        "name": "小松原中学校",
        "address": "都城市大王町19-1",
        "lat": 31.731983,
        "lng": 131.066729
    },
    {
        "code": "C145220243047",
        "type": 16002,
        "name": "妻ケ丘中学校",
        "address": "都城市妻ヶ丘町13街区3",
        "lat": 31.726929,
        "lng": 131.074534
    },
    {
        "code": "C145220243056",
        "type": 16002,
        "name": "五十市中学校",
        "address": "都城市久保原町2-6",
        "lat": 31.719456,
        "lng": 131.03601
    },
    {
        "code": "C145220243065",
        "type": 16002,
        "name": "祝吉中学校",
        "address": "都城市千町4962",
        "lat": 31.737789,
        "lng": 131.084505
    },
    {
        "code": "C145220243074",
        "type": 16002,
        "name": "沖水中学校",
        "address": "都城市都北町5615",
        "lat": 31.763787,
        "lng": 131.091254
    },
    {
        "code": "C145220243083",
        "type": 16002,
        "name": "志和池中学校",
        "address": "都城市上水流町4323-1",
        "lat": 31.80945,
        "lng": 131.094197
    },
    {
        "code": "C145220243092",
        "type": 16002,
        "name": "庄内中学校",
        "address": "都城市庄内町8976",
        "lat": 31.775311,
        "lng": 131.025677
    },
    {
        "code": "C145220243109",
        "type": 16002,
        "name": "西岳中学校",
        "address": "都城市美川町2927",
        "lat": 31.807279,
        "lng": 130.959123
    },
    {
        "code": "C145220243118",
        "type": 16002,
        "name": "夏尾中学校",
        "address": "都城市夏尾町6673-4",
        "lat": 31.843804,
        "lng": 130.973399
    },
    {
        "code": "C145220243127",
        "type": 16002,
        "name": "中郷中学校",
        "address": "都城市梅北町2912-1",
        "lat": 31.684565,
        "lng": 131.073749
    },
    {
        "code": "C145220243136",
        "type": 16002,
        "name": "西中学校",
        "address": "都城市都原町7707",
        "lat": 31.736648,
        "lng": 131.03526
    },
    {
        "code": "C145220243145",
        "type": 16002,
        "name": "白雲中学校",
        "address": "都城市丸谷町388",
        "lat": 31.812604,
        "lng": 131.054177
    },
    {
        "code": "C145220243207",
        "type": 16002,
        "name": "山之口中学校",
        "address": "都城市山之口町花木1536",
        "lat": 31.776269,
        "lng": 131.152305
    },
    {
        "code": "C145220243252",
        "type": 16002,
        "name": "高城中学校",
        "address": "都城市高城町穂満坊115-1",
        "lat": 31.798532,
        "lng": 131.130431
    },
    {
        "code": "C145220243261",
        "type": 16002,
        "name": "有水中学校",
        "address": "都城市高城町有水3656-1",
        "lat": 31.856685,
        "lng": 131.141756
    },
    {
        "code": "C145220243314",
        "type": 16002,
        "name": "山田中学校",
        "address": "都城市山田町山田2189-1",
        "lat": 31.807816,
        "lng": 131.035222
    },
    {
        "code": "C145220243350",
        "type": 16002,
        "name": "高崎中学校",
        "address": "都城市高崎町大牟田1904-1",
        "lat": 31.870181,
        "lng": 131.076135
    },
    {
        "code": "C145220243369",
        "type": 16002,
        "name": "笛水中学校",
        "address": "都城市高崎町笛水948-1",
        "lat": 31.93107,
        "lng": 131.117535
    },
    {
        "code": "C145220250010",
        "type": 16002,
        "name": "都城泉ヶ丘高等学校附属中学校",
        "address": "都城市妻ヶ丘町27-15",
        "lat": 31.73015,
        "lng": 131.077338
    },
    {
        "code": "D145220260114",
        "type": 16004,
        "name": "都城泉ヶ丘高等学校",
        "address": "都城市妻ヶ丘町27街区15",
        "lat": 31.730151,
        "lng": 131.077339
    },
    {
        "code": "D145220260123",
        "type": 16004,
        "name": "都城農業高等学校",
        "address": "都城市祝吉1-5-1",
        "lat": 31.740679,
        "lng": 131.080826
    },
    {
        "code": "D145220260132",
        "type": 16004,
        "name": "都城商業高等学校",
        "address": "都城市上東町31-25",
        "lat": 31.723513,
        "lng": 131.082367
    },
    {
        "code": "D145220260141",
        "type": 16004,
        "name": "都城工業高等学校",
        "address": "都城市五十町2400",
        "lat": 31.715206,
        "lng": 131.034983
    },
    {
        "code": "D145220260150",
        "type": 16004,
        "name": "都城西高等学校",
        "address": "都城市都原町3405",
        "lat": 31.732038,
        "lng": 131.043981
    },
    {
        "code": "D145220260169",
        "type": 16004,
        "name": "高城高等学校",
        "address": "都城市高城町穂満坊156",
        "lat": 31.796362,
        "lng": 131.129503
    },
    {
        "code": "D145320259106",
        "type": 16004,
        "name": "都城高等学校",
        "address": "都城市蓑原町7916",
        "lat": 31.730482,
        "lng": 131.037843
    },
    {
        "code": "D145320259142",
        "type": 16004,
        "name": "都城聖ドミニコ学園高等学校",
        "address": "都城市下長飯町881",
        "lat": 31.700264,
        "lng": 131.056064
    },
    {
        "code": "E145220298215",
        "type": 16012,
        "name": "都城さくら聴覚支援学校",
        "address": "都城市都原町7430",
        "lat": 31.735149,
        "lng": 131.043009
    },
    {
        "code": "E145220299376",
        "type": 16012,
        "name": "都城きりしま支援学校",
        "address": "都城市南横市町7097-2",
        "lat": 31.740121,
        "lng": 131.047563
    },
    {
        "code": "G145110111610",
        "type": 16005,
        "name": "都城工業高等専門学校",
        "address": "都城市吉尾町473-1",
        "lat": 31.761176,
        "lng": 131.079727
    },
    {
        "code": "H145320286195",
        "type": 16016,
        "name": "都城調理師高等専修学校",
        "address": "都城市都島町210-4",
        "lat": 31.720412,
        "lng": 131.05097
    },
    {
        "code": "H145320286220",
        "type": 16016,
        "name": "都城看護専門学校",
        "address": "都城市姫城町8街区23",
        "lat": 31.718967,
        "lng": 131.064221
    },
    {
        "code": "H145320286364",
        "type": 16016,
        "name": "都城コアカレッジ",
        "address": "都城市吉尾町77-8",
        "lat": 31.752307,
        "lng": 131.083047
    },
    {
        "code": "H145320286499",
        "type": 16016,
        "name": "都城医療センター附属看護学校",
        "address": "都城市祝吉町5033-1",
        "lat": 31.739589,
        "lng": 131.087462
    },
    {
        "code": "H145320286532",
        "type": 16016,
        "name": "都城デンタルコアカレッジ",
        "address": "都城市吉尾町77-10",
        "lat": 31.752324,
        "lng": 131.083558
    },
    {
        "code": "H145320286587",
        "type": 16016,
        "name": "豊心福祉学園",
        "address": "都城市安久町4966-5",
        "lat": 31.701348,
        "lng": 131.072665
    },
    {
        "code": "H145320286603",
        "type": 16016,
        "name": "都城リハビリテーション学院",
        "address": "都城市大岩田町5822-9",
        "lat": 31.691682,
        "lng": 131.057595
    }
]