[
    {
        "code": "A145342171664",
        "type": 16011,
        "name": "門川幼稚園",
        "address": "東臼杵郡門川町大字門川尾末1411",
        "lat": 32.468937,
        "lng": 131.654035
    },
    {
        "code": "A245342120139",
        "type": 16013,
        "name": "栄ケ丘幼稚園",
        "address": "東臼杵郡門川町宮ｹ原4-35",
        "lat": 32.481989,
        "lng": 131.652605
    },
    {
        "code": "A245342120898",
        "type": 16013,
        "name": "幼保連携型認定こども園にじのね",
        "address": "東臼杵郡門川町栄ヶ丘1-1-5",
        "lat": 32.481662,
        "lng": 131.646534
    },
    {
        "code": "A245342121129",
        "type": 16013,
        "name": "南町保育園",
        "address": "門川町南ヶ丘2-20",
        "lat": 32.458291,
        "lng": 131.640437
    },
    {
        "code": "A245342121138",
        "type": 16013,
        "name": "いすず保育園",
        "address": "門川町大字門川尾末2276-2",
        "lat": 32.467717,
        "lng": 131.642775
    },
    {
        "code": "A245342121414",
        "type": 16013,
        "name": "きぼうの森こども園",
        "address": "東臼杵郡門川町大字門川尾末8600-64",
        "lat": 32.473265,
        "lng": 131.654035
    },
    {
        "code": "B145242116216",
        "type": 16001,
        "name": "門川小学校",
        "address": "東臼杵郡門川町大字門川尾末1502-2",
        "lat": 32.471731,
        "lng": 131.651985
    },
    {
        "code": "B145242116225",
        "type": 16001,
        "name": "草川小学校",
        "address": "東臼杵郡門川町大字加草4-98",
        "lat": 32.487064,
        "lng": 131.665512
    },
    {
        "code": "B145242116252",
        "type": 16001,
        "name": "五十鈴小学校",
        "address": "東臼杵郡門川町大字門川尾末6270",
        "lat": 32.472425,
        "lng": 131.632459
    },
    {
        "code": "C145242146085",
        "type": 16002,
        "name": "門川中学校",
        "address": "東臼杵郡門川町西栄町2-3-1",
        "lat": 32.479258,
        "lng": 131.649236
    },
    {
        "code": "D145242160486",
        "type": 16004,
        "name": "門川高等学校",
        "address": "東臼杵郡門川町大字門川尾末2680",
        "lat": 32.470314,
        "lng": 131.641736
    }
]