[
    {
        "code": "B145243016858",
        "type": 16001,
        "name": "椎葉小学校",
        "address": "東臼杵郡椎葉村大字下福良1747-13",
        "lat": 32.468523,
        "lng": 131.159862
    },
    {
        "code": "B145243016910",
        "type": 16001,
        "name": "尾向小学校",
        "address": "東臼杵郡椎葉村大字不土野383",
        "lat": 32.497658,
        "lng": 131.073338
    },
    {
        "code": "B145243016929",
        "type": 16001,
        "name": "不土野小学校",
        "address": "東臼杵郡椎葉村不土野1396",
        "lat": 32.441523,
        "lng": 131.064453
    },
    {
        "code": "B145243016947",
        "type": 16001,
        "name": "大河内小学校",
        "address": "東臼杵郡椎葉村大字大河内1111",
        "lat": 32.3707,
        "lng": 131.141588
    },
    {
        "code": "B145243016965",
        "type": 16001,
        "name": "松尾小学校",
        "address": "東臼杵郡椎葉村松尾429",
        "lat": 32.48894,
        "lng": 131.243716
    },
    {
        "code": "C145243046342",
        "type": 16002,
        "name": "椎葉中学校",
        "address": "東臼杵郡椎葉村大字下福良102",
        "lat": 32.456496,
        "lng": 131.15064
    }
]