[
    {
        "code": "A145344171679",
        "type": 16011,
        "name": "第一高千穂幼稚園",
        "address": "西臼杵郡高千穂町大字三田井69-1",
        "lat": 32.715237,
        "lng": 131.30848
    },
    {
        "code": "A245344120144",
        "type": 16013,
        "name": "木の花幼保園",
        "address": "西臼杵郡高千穂町大字三田井1154",
        "lat": 32.707262,
        "lng": 131.307736
    },
    {
        "code": "B145244118014",
        "type": 16001,
        "name": "高千穂小学校",
        "address": "西臼杵郡高千穂町大字三田井122",
        "lat": 32.711837,
        "lng": 131.310922
    },
    {
        "code": "B145244118023",
        "type": 16001,
        "name": "押方小学校",
        "address": "西臼杵郡高千穂町大字押方561-1",
        "lat": 32.710892,
        "lng": 131.277758
    },
    {
        "code": "B145244118050",
        "type": 16001,
        "name": "田原小学校",
        "address": "西臼杵郡高千穂町河内36",
        "lat": 32.776273,
        "lng": 131.254342
    },
    {
        "code": "B145244118078",
        "type": 16001,
        "name": "岩戸小学校",
        "address": "西臼杵郡高千穂町大字岩戸1076-1",
        "lat": 32.734947,
        "lng": 131.349668
    },
    {
        "code": "B145244118130",
        "type": 16001,
        "name": "上野小学校",
        "address": "西臼杵郡高千穂町大字上野4956",
        "lat": 32.756893,
        "lng": 131.299672
    },
    {
        "code": "C145244148016",
        "type": 16002,
        "name": "高千穂中学校",
        "address": "西臼杵郡高千穂町大字三田井939-6",
        "lat": 32.701421,
        "lng": 131.302478
    },
    {
        "code": "C145244148098",
        "type": 16002,
        "name": "上野中学校",
        "address": "西臼杵郡高千穂町上野4956",
        "lat": 32.756888,
        "lng": 131.299673
    },
    {
        "code": "D145244160348",
        "type": 16004,
        "name": "高千穂高等学校",
        "address": "西臼杵郡高千穂町大字三田井1234",
        "lat": 32.710115,
        "lng": 131.304811
    },
    {
        "code": "E145244199634",
        "type": 16012,
        "name": "延岡しろやま支援学校高千穂校",
        "address": "西臼杵郡高千穂町大字三田井1234",
        "lat": 32.709578,
        "lng": 131.304323
    }
]