[
    {
        "code": "A104396060011",
        "type": 16011,
        "name": "あさひ幼稚園",
        "address": "本吉郡南三陸町志津川字天王山38-141",
        "lat": 38.682471,
        "lng": 141.460635
    },
    {
        "code": "B104226060018",
        "type": 16001,
        "name": "志津川小学校",
        "address": "本吉郡南三陸町志津川字城場75-2",
        "lat": 38.683531,
        "lng": 141.448578
    },
    {
        "code": "B104226060027",
        "type": 16001,
        "name": "戸倉小学校",
        "address": "本吉郡南三陸町戸倉字宇津野50-1",
        "lat": 38.638558,
        "lng": 141.438868
    },
    {
        "code": "B104226060036",
        "type": 16001,
        "name": "入谷小学校",
        "address": "本吉郡南三陸町入谷字童子下193-2",
        "lat": 38.704603,
        "lng": 141.415383
    },
    {
        "code": "B104226060045",
        "type": 16001,
        "name": "伊里前小学校",
        "address": "本吉郡南三陸町歌津字伊里前113",
        "lat": 38.718477,
        "lng": 141.521534
    },
    {
        "code": "B104226060054",
        "type": 16001,
        "name": "名足小学校",
        "address": "本吉郡南三陸町歌津字中山14",
        "lat": 38.722014,
        "lng": 141.555528
    },
    {
        "code": "C104226060016",
        "type": 16002,
        "name": "志津川中学校",
        "address": "本吉郡南三陸町志津川字助作1-1",
        "lat": 38.686576,
        "lng": 141.444002
    },
    {
        "code": "C104226060025",
        "type": 16002,
        "name": "歌津中学校",
        "address": "本吉郡南三陸町歌津字伊里前123",
        "lat": 38.719345,
        "lng": 141.521632
    },
    {
        "code": "D104216060015",
        "type": 16004,
        "name": "志津川高等学校",
        "address": "本吉郡南三陸町志津川字廻館92-2",
        "lat": 38.680848,
        "lng": 141.438778
    }
]