[
    {
        "code": "A146110000019",
        "type": 16011,
        "name": "鹿児島大学教育学部附属幼稚園",
        "address": "鹿児島市郡元1-20-15",
        "lat": 31.567094,
        "lng": 130.545898
    },
    {
        "code": "A146210000053",
        "type": 16011,
        "name": "松元幼稚園",
        "address": "鹿児島市上谷口町3366-10",
        "lat": 31.596775,
        "lng": 130.430047
    },
    {
        "code": "A146210000320",
        "type": 16011,
        "name": "桜峰幼稚園",
        "address": "鹿児島市桜島松浦町355",
        "lat": 31.620352,
        "lng": 130.643307
    },
    {
        "code": "A146210000598",
        "type": 16011,
        "name": "宮川幼稚園",
        "address": "鹿児島市五ヶ別府町159",
        "lat": 31.573952,
        "lng": 130.47639
    },
    {
        "code": "A146210000605",
        "type": 16011,
        "name": "皆与志幼稚園",
        "address": "鹿児島市皆与志町4307",
        "lat": 31.670948,
        "lng": 130.519395
    },
    {
        "code": "A146310000015",
        "type": 16011,
        "name": "鹿児島竜谷学園アソカ幼稚園",
        "address": "鹿児島市新屋敷町25-25",
        "lat": 31.584188,
        "lng": 130.556835
    },
    {
        "code": "A146310000024",
        "type": 16011,
        "name": "いにしき幼稚園",
        "address": "鹿児島市下伊敷2-12-3",
        "lat": 31.618251,
        "lng": 130.535569
    },
    {
        "code": "A146310000033",
        "type": 16011,
        "name": "大谷幼稚園",
        "address": "鹿児島市新町2-7",
        "lat": 31.589042,
        "lng": 130.559026
    },
    {
        "code": "A146310000042",
        "type": 16011,
        "name": "鹿児島女子短期大学附属かもめ幼稚園",
        "address": "鹿児島市紫原1-19-20",
        "lat": 31.558815,
        "lng": 130.538443
    },
    {
        "code": "A146310000051",
        "type": 16011,
        "name": "川上幼稚園",
        "address": "鹿児島市川上町847",
        "lat": 31.654984,
        "lng": 130.554388
    },
    {
        "code": "A146310000060",
        "type": 16011,
        "name": "共研幼稚園",
        "address": "鹿児島市上之園町20-17",
        "lat": 31.580271,
        "lng": 130.547367
    },
    {
        "code": "A146310000079",
        "type": 16011,
        "name": "共立学舎共立幼稚園",
        "address": "鹿児島市春日町6-25",
        "lat": 31.606664,
        "lng": 130.565025
    },
    {
        "code": "A146310000088",
        "type": 16011,
        "name": "敬愛幼稚園",
        "address": "鹿児島市加治屋町5-6",
        "lat": 31.584546,
        "lng": 130.549422
    },
    {
        "code": "A146310000097",
        "type": 16011,
        "name": "研明舎幼稚園",
        "address": "鹿児島市下荒田2-23-3",
        "lat": 31.575172,
        "lng": 130.556288
    },
    {
        "code": "A146310000104",
        "type": 16011,
        "name": "さみどり幼稚園",
        "address": "鹿児島市薬師1-4-12",
        "lat": 31.589042,
        "lng": 130.540734
    },
    {
        "code": "A146310000113",
        "type": 16011,
        "name": "鹿児島三育幼稚園",
        "address": "鹿児島市平之町14-21",
        "lat": 31.592896,
        "lng": 130.547679
    },
    {
        "code": "A146310000122",
        "type": 16011,
        "name": "集成幼稚園",
        "address": "鹿児島市加治屋町15-2",
        "lat": 31.58729,
        "lng": 130.550788
    },
    {
        "code": "A146310000131",
        "type": 16011,
        "name": "昭和幼稚園",
        "address": "鹿児島市原良2-2-1",
        "lat": 31.598371,
        "lng": 130.535542
    },
    {
        "code": "A146310000140",
        "type": 16011,
        "name": "聖母幼稚園",
        "address": "鹿児島市荒田2-53-11",
        "lat": 31.570375,
        "lng": 130.548323
    },
    {
        "code": "A146310000159",
        "type": 16011,
        "name": "武幼稚園",
        "address": "鹿児島市武1-12-15",
        "lat": 31.581728,
        "lng": 130.539098
    },
    {
        "code": "A146310000168",
        "type": 16011,
        "name": "たにやま幼稚園",
        "address": "鹿児島市和田1-4-5",
        "lat": 31.514247,
        "lng": 130.515783
    },
    {
        "code": "A146310000177",
        "type": 16011,
        "name": "唐湊幼稚園",
        "address": "鹿児島市唐湊4-5-25",
        "lat": 31.568727,
        "lng": 130.538421
    },
    {
        "code": "A146310000186",
        "type": 16011,
        "name": "ひばり幼稚園",
        "address": "鹿児島市田上5-13-21",
        "lat": 31.579231,
        "lng": 130.525949
    },
    {
        "code": "A146310000195",
        "type": 16011,
        "name": "鹿児島竜谷学園和光幼稚園",
        "address": "鹿児島市東千石町21-38",
        "lat": 31.59427,
        "lng": 130.555449
    },
    {
        "code": "A146310000346",
        "type": 16011,
        "name": "鹿児島竜谷学園東俣幼稚園",
        "address": "鹿児島市東俣町3761-1",
        "lat": 31.688038,
        "lng": 130.500583
    },
    {
        "code": "A146310000426",
        "type": 16011,
        "name": "鹿児島幼稚園",
        "address": "鹿児島市錦江台1-20-1",
        "lat": 31.506186,
        "lng": 130.497904
    },
    {
        "code": "A146310000462",
        "type": 16011,
        "name": "鹿児島竜谷学園宇宿幼稚園",
        "address": "鹿児島市宇宿4-18-8",
        "lat": 31.545872,
        "lng": 130.537107
    },
    {
        "code": "A146310000499",
        "type": 16011,
        "name": "吉野幼稚園",
        "address": "鹿児島市吉野町3216-53",
        "lat": 31.643751,
        "lng": 130.573435
    },
    {
        "code": "A146310000514",
        "type": 16011,
        "name": "鹿児島女子短期大学附属なでしこ幼稚園",
        "address": "鹿児島市明和2-41-1",
        "lat": 31.602696,
        "lng": 130.521129
    },
    {
        "code": "A146310000523",
        "type": 16011,
        "name": "カトリックカリタス幼稚園",
        "address": "鹿児島市紫原3-36-22",
        "lat": 31.553846,
        "lng": 130.535157
    },
    {
        "code": "A146310000532",
        "type": 16011,
        "name": "田上幼稚園",
        "address": "鹿児島市田上4-13-15",
        "lat": 31.575165,
        "lng": 130.524666
    },
    {
        "code": "A146310000578",
        "type": 16011,
        "name": "こまつばら幼稚園",
        "address": "鹿児島市小松原2-10-3",
        "lat": 31.528989,
        "lng": 130.527991
    },
    {
        "code": "A146310000596",
        "type": 16011,
        "name": "太陽の子幼稚園",
        "address": "鹿児島市鴨池新町25-6",
        "lat": 31.551961,
        "lng": 130.556606
    },
    {
        "code": "A146310000612",
        "type": 16011,
        "name": "鴨池しらうめ幼稚園",
        "address": "鹿児島市鴨池新町3-1",
        "lat": 31.55713,
        "lng": 130.555525
    },
    {
        "code": "A146310000676",
        "type": 16011,
        "name": "さつき幼稚園",
        "address": "鹿児島市西陵3-3-17",
        "lat": 31.583092,
        "lng": 130.512211
    },
    {
        "code": "A146310000685",
        "type": 16011,
        "name": "星ケ峯幼稚園",
        "address": "鹿児島市星ヶ峯3-33-1",
        "lat": 31.580446,
        "lng": 130.491378
    },
    {
        "code": "A146310000694",
        "type": 16011,
        "name": "喜入幼稚園",
        "address": "鹿児島市喜入町335-1",
        "lat": 31.36928,
        "lng": 130.541628
    },
    {
        "code": "A146310000701",
        "type": 16011,
        "name": "鹿児島女子短期大学附属すみれ幼稚園",
        "address": "鹿児島市皇徳寺台4-44-1",
        "lat": 31.563726,
        "lng": 130.480293
    },
    {
        "code": "A146310000710",
        "type": 16011,
        "name": "鹿児島竜谷学園恵光幼稚園",
        "address": "鹿児島市小山田町3510-3",
        "lat": 31.660057,
        "lng": 130.491054
    },
    {
        "code": "A146310000729",
        "type": 16011,
        "name": "錦城幼稚園",
        "address": "鹿児島市星ヶ峯2-2-1",
        "lat": 31.574002,
        "lng": 130.498299
    },
    {
        "code": "A246310000014",
        "type": 16013,
        "name": "鴨池幼稚園",
        "address": "鹿児島市郡元3-8-5",
        "lat": 31.560393,
        "lng": 130.5479
    },
    {
        "code": "A246310000023",
        "type": 16013,
        "name": "草牟田幼稚園",
        "address": "鹿児島市草牟田2-20-15",
        "lat": 31.602902,
        "lng": 130.539972
    },
    {
        "code": "A246310000032",
        "type": 16013,
        "name": "みのり幼稚園",
        "address": "鹿児島市明和1-39-1",
        "lat": 31.601296,
        "lng": 130.524473
    },
    {
        "code": "A246310000041",
        "type": 16013,
        "name": "清谿幼稚園",
        "address": "鹿児島市谷山中央1-4360",
        "lat": 31.523956,
        "lng": 130.517734
    },
    {
        "code": "A246310000050",
        "type": 16013,
        "name": "あけぼの幼稚園",
        "address": "鹿児島市小野4-4-31",
        "lat": 31.61054,
        "lng": 130.524625
    },
    {
        "code": "A246310000069",
        "type": 16013,
        "name": "玉里善き牧者幼稚園",
        "address": "鹿児島市草牟田2-29-7",
        "lat": 31.606993,
        "lng": 130.538161
    },
    {
        "code": "A246310000078",
        "type": 16013,
        "name": "谷山善き牧者幼稚園",
        "address": "鹿児島市西谷山1-1-1",
        "lat": 31.526793,
        "lng": 130.509344
    },
    {
        "code": "A246310000087",
        "type": 16013,
        "name": "紫原幼稚園",
        "address": "鹿児島市紫原6-40-4",
        "lat": 31.5651,
        "lng": 130.527833
    },
    {
        "code": "A246310000096",
        "type": 16013,
        "name": "こばと・ゆなの木こども園",
        "address": "鹿児島市大明丘3-14-1",
        "lat": 31.63148,
        "lng": 130.566341
    },
    {
        "code": "A246310000103",
        "type": 16013,
        "name": "はなぶさ幼稚園",
        "address": "鹿児島市緑ヶ丘町13-1",
        "lat": 31.656839,
        "lng": 130.547094
    },
    {
        "code": "A246310000112",
        "type": 16013,
        "name": "伊敷幼稚園",
        "address": "鹿児島市伊敷5-19-20",
        "lat": 31.626555,
        "lng": 130.527177
    },
    {
        "code": "A246310000121",
        "type": 16013,
        "name": "うちの幼稚園",
        "address": "鹿児島市玉里団地1-5-3",
        "lat": 31.61882,
        "lng": 130.544971
    },
    {
        "code": "A246310000130",
        "type": 16013,
        "name": "桜ヶ丘中央幼稚園",
        "address": "鹿児島市桜ヶ丘4-8-2",
        "lat": 31.554229,
        "lng": 130.516717
    },
    {
        "code": "A246310000149",
        "type": 16013,
        "name": "若葉幼稚園",
        "address": "鹿児島市桜ヶ丘6-30-2",
        "lat": 31.545913,
        "lng": 130.518509
    },
    {
        "code": "A246310000158",
        "type": 16013,
        "name": "武岡幼稚園",
        "address": "鹿児島市武岡5-26-6",
        "lat": 31.596558,
        "lng": 130.507519
    },
    {
        "code": "A246310000167",
        "type": 16013,
        "name": "吉田南幼稚園",
        "address": "鹿児島市本名町543",
        "lat": 31.688713,
        "lng": 130.546899
    },
    {
        "code": "A246310000176",
        "type": 16013,
        "name": "よしだルンビニー幼稚園",
        "address": "鹿児島市東佐多町2157-1",
        "lat": 31.734364,
        "lng": 130.576323
    },
    {
        "code": "A246310000185",
        "type": 16013,
        "name": "鹿児島さくら幼稚園",
        "address": "鹿児島市桜ヶ丘7-23-5",
        "lat": 31.553504,
        "lng": 130.52415
    },
    {
        "code": "A246310000194",
        "type": 16013,
        "name": "ヴェリタスこども園",
        "address": "鹿児島市武岡1-22-1",
        "lat": 31.590644,
        "lng": 130.520599
    },
    {
        "code": "A246310000201",
        "type": 16013,
        "name": "千年幼稚園",
        "address": "鹿児島市千年1-36-1",
        "lat": 31.637401,
        "lng": 130.523343
    },
    {
        "code": "A246310000210",
        "type": 16013,
        "name": "可愛幼稚園",
        "address": "鹿児島市下福元町7649",
        "lat": 31.483569,
        "lng": 130.502304
    },
    {
        "code": "A246310000229",
        "type": 16013,
        "name": "やはた幼稚園",
        "address": "鹿児島市下荒田4-19-10",
        "lat": 31.570067,
        "lng": 130.556469
    },
    {
        "code": "A246310000238",
        "type": 16013,
        "name": "めぐみ幼稚園",
        "address": "鹿児島市鴨池2-23-17",
        "lat": 31.564756,
        "lng": 130.551053
    },
    {
        "code": "A246310000719",
        "type": 16013,
        "name": "鹿児島おおとり幼稚園",
        "address": "鹿児島市武岡4-16-1",
        "lat": 31.595119,
        "lng": 130.512669
    },
    {
        "code": "A246310000728",
        "type": 16013,
        "name": "さかもと幼稚園",
        "address": "鹿児島市西坂元町57-23",
        "lat": 31.613304,
        "lng": 130.553293
    },
    {
        "code": "A246310000737",
        "type": 16013,
        "name": "辻ケ丘幼稚園",
        "address": "鹿児島市東坂元2-39-1",
        "lat": 31.623078,
        "lng": 130.55555
    },
    {
        "code": "A246310001040",
        "type": 16013,
        "name": "コスモス認定こども園",
        "address": "鹿児島市桜ヶ丘2-6-1",
        "lat": 31.556373,
        "lng": 130.515367
    },
    {
        "code": "A246310001059",
        "type": 16013,
        "name": "しらゆきこども園",
        "address": "鹿児島市小松原2-10-15",
        "lat": 31.529315,
        "lng": 130.527098
    },
    {
        "code": "A246310001068",
        "type": 16013,
        "name": "御所こども園",
        "address": "鹿児島市上福元町5682",
        "lat": 31.530543,
        "lng": 130.504336
    },
    {
        "code": "A246310001077",
        "type": 16013,
        "name": "御所風の子こども園",
        "address": "鹿児島市上福元町5644",
        "lat": 31.531365,
        "lng": 130.501084
    },
    {
        "code": "A246310001086",
        "type": 16013,
        "name": "西谷山認定こども園",
        "address": "鹿児島市西谷山2-16-8",
        "lat": 31.519466,
        "lng": 130.506831
    },
    {
        "code": "A246310001095",
        "type": 16013,
        "name": "聖徳認定こども園",
        "address": "鹿児島市和田2-2-1",
        "lat": 31.510409,
        "lng": 130.512571
    },
    {
        "code": "A246310001102",
        "type": 16013,
        "name": "ひかりやま保育園",
        "address": "鹿児島市光山2-12-1",
        "lat": 31.490263,
        "lng": 130.508239
    },
    {
        "code": "A246310001335",
        "type": 16013,
        "name": "つばき幼稚園",
        "address": "鹿児島市中山1-6-1",
        "lat": 31.546827,
        "lng": 130.513662
    },
    {
        "code": "A246310001344",
        "type": 16013,
        "name": "ひまわり幼稚園",
        "address": "鹿児島市東谷山3-31-13",
        "lat": 31.531001,
        "lng": 130.51869
    },
    {
        "code": "A246310001898",
        "type": 16013,
        "name": "たちばな保育園",
        "address": "鹿児島市紫原6-40-27",
        "lat": 31.565391,
        "lng": 130.527864
    },
    {
        "code": "A246310001905",
        "type": 16013,
        "name": "わくわく鹿児島中央認定こども園",
        "address": "鹿児島市薬師2-30-15",
        "lat": 31.589884,
        "lng": 130.536466
    },
    {
        "code": "A246310001914",
        "type": 16013,
        "name": "松青こども園",
        "address": "鹿児島市谷山中央4-4907-11",
        "lat": 31.519991,
        "lng": 130.517083
    },
    {
        "code": "A246310001923",
        "type": 16013,
        "name": "ベビーズ松青こども園",
        "address": "鹿児島市谷山中央3-522",
        "lat": 31.520594,
        "lng": 130.52021
    },
    {
        "code": "A246310001932",
        "type": 16013,
        "name": "みのりこども園",
        "address": "鹿児島市春山町388",
        "lat": 31.573348,
        "lng": 130.460369
    },
    {
        "code": "A246310001941",
        "type": 16013,
        "name": "錦ヶ丘幼稚園",
        "address": "鹿児島市吉野町2223-4",
        "lat": 31.639119,
        "lng": 130.571154
    },
    {
        "code": "A246310002094",
        "type": 16013,
        "name": "ちはなこども園",
        "address": "鹿児島市吉野町5652-1",
        "lat": 31.637397,
        "lng": 130.583261
    },
    {
        "code": "A246310002101",
        "type": 16013,
        "name": "光愛こども園",
        "address": "鹿児島市西陵3-9-3",
        "lat": 31.582356,
        "lng": 130.511475
    },
    {
        "code": "A246310002110",
        "type": 16013,
        "name": "光愛こども園あいあい",
        "address": "鹿児島市西陵3-19-7",
        "lat": 31.582546,
        "lng": 130.512388
    },
    {
        "code": "A246310002129",
        "type": 16013,
        "name": "いちご認定こども園",
        "address": "鹿児島市皇徳寺台1-30-2",
        "lat": 31.558693,
        "lng": 130.496044
    },
    {
        "code": "A246310002138",
        "type": 16013,
        "name": "おひさまこども園",
        "address": "鹿児島市小原町12-1",
        "lat": 31.5423,
        "lng": 130.528994
    },
    {
        "code": "A246310002147",
        "type": 16013,
        "name": "桜ヶ丘こども園",
        "address": "鹿児島市桜ヶ丘6-47-1",
        "lat": 31.54548,
        "lng": 130.522584
    },
    {
        "code": "A246310002156",
        "type": 16013,
        "name": "錦城幼稚園",
        "address": "鹿児島市星ヶ峯2-2-1",
        "lat": 31.573866,
        "lng": 130.498302
    },
    {
        "code": "A246310002165",
        "type": 16013,
        "name": "こまつばら幼稚園",
        "address": "鹿児島市小松原2-10-4",
        "lat": 31.529057,
        "lng": 130.528198
    },
    {
        "code": "B146110000017",
        "type": 16001,
        "name": "鹿児島大学教育学部附属小学校",
        "address": "鹿児島市郡元1-20-15",
        "lat": 31.566211,
        "lng": 130.545503
    },
    {
        "code": "B146210000015",
        "type": 16001,
        "name": "川上小学校",
        "address": "鹿児島市川上町322",
        "lat": 31.652537,
        "lng": 130.554305
    },
    {
        "code": "B146210000024",
        "type": 16001,
        "name": "吉野小学校",
        "address": "鹿児島市吉野町2472",
        "lat": 31.638288,
        "lng": 130.565499
    },
    {
        "code": "B146210000033",
        "type": 16001,
        "name": "清水小学校",
        "address": "鹿児島市清水町8-15",
        "lat": 31.608347,
        "lng": 130.566833
    },
    {
        "code": "B146210000042",
        "type": 16001,
        "name": "大龍小学校",
        "address": "鹿児島市大竜町11-44",
        "lat": 31.606486,
        "lng": 130.562973
    },
    {
        "code": "B146210000051",
        "type": 16001,
        "name": "名山小学校",
        "address": "鹿児島市山下町6-43",
        "lat": 31.596542,
        "lng": 130.555501
    },
    {
        "code": "B146210000060",
        "type": 16001,
        "name": "山下小学校",
        "address": "鹿児島市西千石町15-5",
        "lat": 31.590903,
        "lng": 130.550363
    },
    {
        "code": "B146210000079",
        "type": 16001,
        "name": "松原小学校",
        "address": "鹿児島市南林寺町2-18",
        "lat": 31.585793,
        "lng": 130.558863
    },
    {
        "code": "B146210000088",
        "type": 16001,
        "name": "城南小学校",
        "address": "鹿児島市城南町1-1",
        "lat": 31.582099,
        "lng": 130.561196
    },
    {
        "code": "B146210000097",
        "type": 16001,
        "name": "草牟田小学校",
        "address": "鹿児島市城山2-3-1",
        "lat": 31.603402,
        "lng": 130.547279
    },
    {
        "code": "B146210000104",
        "type": 16001,
        "name": "原良小学校",
        "address": "鹿児島市原良2-1-1",
        "lat": 31.597481,
        "lng": 130.534756
    },
    {
        "code": "B146210000113",
        "type": 16001,
        "name": "西田小学校",
        "address": "鹿児島市薬師2-31-1",
        "lat": 31.589902,
        "lng": 130.535782
    },
    {
        "code": "B146210000122",
        "type": 16001,
        "name": "武小学校",
        "address": "鹿児島市武1-35-31",
        "lat": 31.577571,
        "lng": 130.538559
    },
    {
        "code": "B146210000131",
        "type": 16001,
        "name": "田上小学校",
        "address": "鹿児島市田上5-12-1",
        "lat": 31.579542,
        "lng": 130.526144
    },
    {
        "code": "B146210000140",
        "type": 16001,
        "name": "中洲小学校",
        "address": "鹿児島市上之園町28-1",
        "lat": 31.579848,
        "lng": 130.544142
    },
    {
        "code": "B146210000159",
        "type": 16001,
        "name": "荒田小学校",
        "address": "鹿児島市荒田1-30-27",
        "lat": 31.575933,
        "lng": 130.548475
    },
    {
        "code": "B146210000168",
        "type": 16001,
        "name": "八幡小学校",
        "address": "鹿児島市下荒田3-25-1",
        "lat": 31.5711,
        "lng": 130.554308
    },
    {
        "code": "B146210000177",
        "type": 16001,
        "name": "中郡小学校",
        "address": "鹿児島市郡元2-4-6",
        "lat": 31.563878,
        "lng": 130.546392
    },
    {
        "code": "B146210000186",
        "type": 16001,
        "name": "紫原小学校",
        "address": "鹿児島市紫原2-36-50",
        "lat": 31.559156,
        "lng": 130.53681
    },
    {
        "code": "B146210000195",
        "type": 16001,
        "name": "鴨池小学校",
        "address": "鹿児島市真砂本町59-28",
        "lat": 31.554657,
        "lng": 130.552725
    },
    {
        "code": "B146210000202",
        "type": 16001,
        "name": "南小学校",
        "address": "鹿児島市東郡元町13-22",
        "lat": 31.552519,
        "lng": 130.54692
    },
    {
        "code": "B146210000211",
        "type": 16001,
        "name": "宇宿小学校",
        "address": "鹿児島市宇宿4-21-7",
        "lat": 31.545769,
        "lng": 130.53606
    },
    {
        "code": "B146210000220",
        "type": 16001,
        "name": "伊敷小学校",
        "address": "鹿児島市伊敷5-19-1",
        "lat": 31.627181,
        "lng": 130.527559
    },
    {
        "code": "B146210000239",
        "type": 16001,
        "name": "玉江小学校",
        "address": "鹿児島市下伊敷1-35-1",
        "lat": 31.612484,
        "lng": 130.534252
    },
    {
        "code": "B146210000248",
        "type": 16001,
        "name": "小山田小学校",
        "address": "鹿児島市小山田町9398",
        "lat": 31.663868,
        "lng": 130.489671
    },
    {
        "code": "B146210000257",
        "type": 16001,
        "name": "犬迫小学校",
        "address": "鹿児島市犬迫町5745",
        "lat": 31.629982,
        "lng": 130.49645
    },
    {
        "code": "B146210000266",
        "type": 16001,
        "name": "皆与志小学校",
        "address": "鹿児島市皆与志町4307",
        "lat": 31.67084,
        "lng": 130.518918
    },
    {
        "code": "B146210000275",
        "type": 16001,
        "name": "東桜島小学校",
        "address": "鹿児島市東桜島町17",
        "lat": 31.557463,
        "lng": 130.629941
    },
    {
        "code": "B146210000284",
        "type": 16001,
        "name": "高免小学校",
        "address": "鹿児島市高免町32",
        "lat": 31.621153,
        "lng": 130.683546
    },
    {
        "code": "B146210000293",
        "type": 16001,
        "name": "黒神小学校",
        "address": "鹿児島市黒神町2561",
        "lat": 31.592545,
        "lng": 130.708072
    },
    {
        "code": "B146210000300",
        "type": 16001,
        "name": "谷山小学校",
        "address": "鹿児島市谷山中央1-4962",
        "lat": 31.522327,
        "lng": 130.517535
    },
    {
        "code": "B146210000319",
        "type": 16001,
        "name": "和田小学校",
        "address": "鹿児島市和田2-2-10",
        "lat": 31.5103,
        "lng": 130.511647
    },
    {
        "code": "B146210000328",
        "type": 16001,
        "name": "福平小学校",
        "address": "鹿児島市平川町819-3",
        "lat": 31.478414,
        "lng": 130.501509
    },
    {
        "code": "B146210000337",
        "type": 16001,
        "name": "平川小学校",
        "address": "鹿児島市平川町3795",
        "lat": 31.940428,
        "lng": 130.413099
    },
    {
        "code": "B146210000346",
        "type": 16001,
        "name": "錫山小学校",
        "address": "鹿児島市下福元町9856",
        "lat": 31.496358,
        "lng": 130.453412
    },
    {
        "code": "B146210000355",
        "type": 16001,
        "name": "中山小学校",
        "address": "鹿児島市中山2-30-3",
        "lat": 31.550279,
        "lng": 130.503882
    },
    {
        "code": "B146210000364",
        "type": 16001,
        "name": "宮川小学校",
        "address": "鹿児島市皇徳寺台4-26-1",
        "lat": 31.563573,
        "lng": 130.484176
    },
    {
        "code": "B146210001531",
        "type": 16001,
        "name": "桜峰小学校",
        "address": "鹿児島市桜島松浦町355",
        "lat": 31.620543,
        "lng": 130.644151
    },
    {
        "code": "B146210001540",
        "type": 16001,
        "name": "桜洲小学校",
        "address": "鹿児島市桜島小池町55",
        "lat": 31.597455,
        "lng": 130.608364
    },
    {
        "code": "B146210001559",
        "type": 16001,
        "name": "吉田小学校",
        "address": "鹿児島市西佐多町185-4",
        "lat": 31.737253,
        "lng": 130.568645
    },
    {
        "code": "B146210001568",
        "type": 16001,
        "name": "本名小学校",
        "address": "鹿児島市本名町3579",
        "lat": 31.700395,
        "lng": 130.545182
    },
    {
        "code": "B146210001577",
        "type": 16001,
        "name": "宮小学校",
        "address": "鹿児島市宮之浦町1953",
        "lat": 31.676656,
        "lng": 130.565054
    },
    {
        "code": "B146210001586",
        "type": 16001,
        "name": "本城小学校",
        "address": "鹿児島市本城町1705",
        "lat": 31.711158,
        "lng": 130.558266
    },
    {
        "code": "B146210001595",
        "type": 16001,
        "name": "瀬々串小学校",
        "address": "鹿児島市喜入瀬々串町3103-2",
        "lat": 31.422385,
        "lng": 130.520631
    },
    {
        "code": "B146210001602",
        "type": 16001,
        "name": "中名小学校",
        "address": "鹿児島市喜入中名町1079",
        "lat": 31.391053,
        "lng": 130.533082
    },
    {
        "code": "B146210001611",
        "type": 16001,
        "name": "喜入小学校",
        "address": "鹿児島市喜入町6993",
        "lat": 31.374779,
        "lng": 130.541138
    },
    {
        "code": "B146210001620",
        "type": 16001,
        "name": "前之浜小学校",
        "address": "鹿児島市喜入前之浜町7036",
        "lat": 31.343533,
        "lng": 130.551393
    },
    {
        "code": "B146210001639",
        "type": 16001,
        "name": "生見小学校",
        "address": "鹿児島市喜入生見町1365",
        "lat": 31.311636,
        "lng": 130.570533
    },
    {
        "code": "B146210001648",
        "type": 16001,
        "name": "一倉小学校",
        "address": "鹿児島市喜入一倉町5335",
        "lat": 31.351345,
        "lng": 130.522683
    },
    {
        "code": "B146210002013",
        "type": 16001,
        "name": "松元小学校",
        "address": "鹿児島市上谷口町956-1",
        "lat": 31.606306,
        "lng": 130.435183
    },
    {
        "code": "B146210002022",
        "type": 16001,
        "name": "東昌小学校",
        "address": "鹿児島市直木町4307-1",
        "lat": 31.584388,
        "lng": 130.416484
    },
    {
        "code": "B146210002031",
        "type": 16001,
        "name": "春山小学校",
        "address": "鹿児島市春山町1824-2",
        "lat": 31.583652,
        "lng": 130.457108
    },
    {
        "code": "B146210002040",
        "type": 16001,
        "name": "石谷小学校",
        "address": "鹿児島市石谷町1360",
        "lat": 31.612512,
        "lng": 130.459694
    },
    {
        "code": "B146210002059",
        "type": 16001,
        "name": "郡山小学校",
        "address": "鹿児島市郡山町2080",
        "lat": 31.680647,
        "lng": 130.467892
    },
    {
        "code": "B146210002068",
        "type": 16001,
        "name": "南方小学校",
        "address": "鹿児島市川田町1415",
        "lat": 31.678087,
        "lng": 130.505586
    },
    {
        "code": "B146210002077",
        "type": 16001,
        "name": "花尾小学校",
        "address": "鹿児島市花尾町170",
        "lat": 31.704994,
        "lng": 130.492646
    },
    {
        "code": "B146210004618",
        "type": 16001,
        "name": "東谷山小学校",
        "address": "鹿児島市魚見町124-1",
        "lat": 31.540603,
        "lng": 130.523339
    },
    {
        "code": "B146210004627",
        "type": 16001,
        "name": "大明丘小学校",
        "address": "鹿児島市大明丘1-18-1",
        "lat": 31.628511,
        "lng": 130.565027
    },
    {
        "code": "B146210004636",
        "type": 16001,
        "name": "西紫原小学校",
        "address": "鹿児島市紫原4-16-4",
        "lat": 31.556018,
        "lng": 130.53206
    },
    {
        "code": "B146210004645",
        "type": 16001,
        "name": "広木小学校",
        "address": "鹿児島市広木1-4-1",
        "lat": 31.564961,
        "lng": 130.52145
    },
    {
        "code": "B146210004654",
        "type": 16001,
        "name": "坂元小学校",
        "address": "鹿児島市玉里団地3-45-1",
        "lat": 31.623484,
        "lng": 130.549167
    },
    {
        "code": "B146210004663",
        "type": 16001,
        "name": "明和小学校",
        "address": "鹿児島市明和2-1-1",
        "lat": 31.602318,
        "lng": 130.52192
    },
    {
        "code": "B146210004672",
        "type": 16001,
        "name": "西伊敷小学校",
        "address": "鹿児島市西伊敷4-12-1",
        "lat": 31.640288,
        "lng": 130.536057
    },
    {
        "code": "B146210004690",
        "type": 16001,
        "name": "武岡小学校",
        "address": "鹿児島市武岡2-30-1",
        "lat": 31.591875,
        "lng": 130.517393
    },
    {
        "code": "B146210004707",
        "type": 16001,
        "name": "西谷山小学校",
        "address": "鹿児島市上福元町6464-1",
        "lat": 31.523882,
        "lng": 130.501259
    },
    {
        "code": "B146210004716",
        "type": 16001,
        "name": "西陵小学校",
        "address": "鹿児島市西陵1-11-1",
        "lat": 31.579376,
        "lng": 130.516589
    },
    {
        "code": "B146210004725",
        "type": 16001,
        "name": "桜丘西小学校",
        "address": "鹿児島市桜ヶ丘2-35",
        "lat": 31.554073,
        "lng": 130.511118
    },
    {
        "code": "B146210004743",
        "type": 16001,
        "name": "錦江台小学校",
        "address": "鹿児島市錦江台1-70-1",
        "lat": 31.499912,
        "lng": 130.49426
    },
    {
        "code": "B146210004761",
        "type": 16001,
        "name": "星峯西小学校",
        "address": "鹿児島市星ヶ峯4-9-1",
        "lat": 31.578682,
        "lng": 130.492092
    },
    {
        "code": "B146210004770",
        "type": 16001,
        "name": "吉野東小学校",
        "address": "鹿児島市吉野町5968-1",
        "lat": 31.648287,
        "lng": 130.586414
    },
    {
        "code": "B146210004789",
        "type": 16001,
        "name": "桜丘東小学校",
        "address": "鹿児島市桜ヶ丘6-13",
        "lat": 31.547824,
        "lng": 130.521756
    },
    {
        "code": "B146210004798",
        "type": 16001,
        "name": "向陽小学校",
        "address": "鹿児島市向陽1-14-1",
        "lat": 31.559045,
        "lng": 130.515867
    },
    {
        "code": "B146210004814",
        "type": 16001,
        "name": "清和小学校",
        "address": "鹿児島市上福元町1277-1",
        "lat": 31.535492,
        "lng": 130.510091
    },
    {
        "code": "B146210004841",
        "type": 16001,
        "name": "坂元台小学校",
        "address": "鹿児島市西坂元町58-2",
        "lat": 31.616096,
        "lng": 130.552723
    },
    {
        "code": "B146210004850",
        "type": 16001,
        "name": "花野小学校",
        "address": "鹿児島市花野光ヶ丘1-1-1",
        "lat": 31.647287,
        "lng": 130.52939
    },
    {
        "code": "B146210004878",
        "type": 16001,
        "name": "星峯東小学校",
        "address": "鹿児島市星ヶ峯1-17-1",
        "lat": 31.573543,
        "lng": 130.50334
    },
    {
        "code": "B146210004887",
        "type": 16001,
        "name": "牟礼岡小学校",
        "address": "鹿児島市牟礼岡1-1-1",
        "lat": 31.679451,
        "lng": 130.585635
    },
    {
        "code": "B146210004896",
        "type": 16001,
        "name": "武岡台小学校",
        "address": "鹿児島市武岡6-1-1",
        "lat": 31.596124,
        "lng": 130.514893
    },
    {
        "code": "B146210004903",
        "type": 16001,
        "name": "皇徳寺小学校",
        "address": "鹿児島市皇徳寺台2-50-1",
        "lat": 31.556935,
        "lng": 130.49287
    },
    {
        "code": "B146210004912",
        "type": 16001,
        "name": "伊敷台小学校",
        "address": "鹿児島市伊敷台4-20-1",
        "lat": 31.631261,
        "lng": 130.538837
    },
    {
        "code": "B146310000013",
        "type": 16001,
        "name": "鹿児島三育小学校",
        "address": "鹿児島市平之町14-21",
        "lat": 31.592847,
        "lng": 130.547725
    },
    {
        "code": "B146310000022",
        "type": 16001,
        "name": "池田小学校",
        "address": "鹿児島市西別府町1660",
        "lat": 31.599319,
        "lng": 130.485619
    },
    {
        "code": "C146110000015",
        "type": 16002,
        "name": "鹿児島大学教育学部附属中学校",
        "address": "鹿児島市郡元1-20-35",
        "lat": 31.566822,
        "lng": 130.543837
    },
    {
        "code": "C146210000013",
        "type": 16002,
        "name": "吉野中学校",
        "address": "鹿児島市吉野町3074",
        "lat": 31.646565,
        "lng": 130.571749
    },
    {
        "code": "C146210000022",
        "type": 16002,
        "name": "清水中学校",
        "address": "鹿児島市稲荷町36-29",
        "lat": 31.612291,
        "lng": 130.565944
    },
    {
        "code": "C146210000031",
        "type": 16002,
        "name": "長田中学校",
        "address": "鹿児島市小川町3-10",
        "lat": 31.600153,
        "lng": 130.558751
    },
    {
        "code": "C146210000040",
        "type": 16002,
        "name": "甲東中学校",
        "address": "鹿児島市樋之口町4-38",
        "lat": 31.585348,
        "lng": 130.554224
    },
    {
        "code": "C146210000059",
        "type": 16002,
        "name": "城西中学校",
        "address": "鹿児島市城西2-3-12",
        "lat": 31.596069,
        "lng": 130.539503
    },
    {
        "code": "C146210000068",
        "type": 16002,
        "name": "武中学校",
        "address": "鹿児島市武3-42-1",
        "lat": 31.580875,
        "lng": 130.533449
    },
    {
        "code": "C146210000077",
        "type": 16002,
        "name": "甲南中学校",
        "address": "鹿児島市高麗町36-32",
        "lat": 31.579009,
        "lng": 130.549971
    },
    {
        "code": "C146210000086",
        "type": 16002,
        "name": "天保山中学校",
        "address": "鹿児島市下荒田2-31-15",
        "lat": 31.574961,
        "lng": 130.559363
    },
    {
        "code": "C146210000095",
        "type": 16002,
        "name": "鴨池中学校",
        "address": "鹿児島市真砂本町58-58",
        "lat": 31.553908,
        "lng": 130.553586
    },
    {
        "code": "C146210000102",
        "type": 16002,
        "name": "南中学校",
        "address": "鹿児島市東郡元13-34",
        "lat": 31.553768,
        "lng": 130.547059
    },
    {
        "code": "C146210000111",
        "type": 16002,
        "name": "紫原中学校",
        "address": "鹿児島市紫原6-31-19",
        "lat": 31.564239,
        "lng": 130.528727
    },
    {
        "code": "C146210000120",
        "type": 16002,
        "name": "伊敷中学校",
        "address": "鹿児島市下伊敷1-11-1",
        "lat": 31.609735,
        "lng": 130.537252
    },
    {
        "code": "C146210000139",
        "type": 16002,
        "name": "河頭中学校",
        "address": "鹿児島市犬迫町1168",
        "lat": 31.64312,
        "lng": 130.512753
    },
    {
        "code": "C146210000148",
        "type": 16002,
        "name": "東桜島中学校",
        "address": "鹿児島市東桜島町810",
        "lat": 31.552603,
        "lng": 130.636107
    },
    {
        "code": "C146210000157",
        "type": 16002,
        "name": "黒神中学校",
        "address": "鹿児島市黒神町647",
        "lat": 31.584518,
        "lng": 130.705795
    },
    {
        "code": "C146210000166",
        "type": 16002,
        "name": "谷山中学校",
        "address": "鹿児島市上福元町5500",
        "lat": 31.52391,
        "lng": 130.510425
    },
    {
        "code": "C146210000175",
        "type": 16002,
        "name": "和田中学校",
        "address": "鹿児島市和田2-44-3",
        "lat": 31.507106,
        "lng": 130.508398
    },
    {
        "code": "C146210000184",
        "type": 16002,
        "name": "福平中学校",
        "address": "鹿児島市平川町6004",
        "lat": 31.477303,
        "lng": 130.497482
    },
    {
        "code": "C146210000193",
        "type": 16002,
        "name": "錫山中学校",
        "address": "鹿児島市下福元町9856",
        "lat": 31.496217,
        "lng": 130.453374
    },
    {
        "code": "C146210000200",
        "type": 16002,
        "name": "谷山北中学校",
        "address": "鹿児島市山田町1690",
        "lat": 31.562767,
        "lng": 130.504896
    },
    {
        "code": "C146210000585",
        "type": 16002,
        "name": "桜島中学校",
        "address": "鹿児島市藤野町1342",
        "lat": 31.620673,
        "lng": 130.633069
    },
    {
        "code": "C146210000594",
        "type": 16002,
        "name": "吉田北中学校",
        "address": "鹿児島市西佐多町269",
        "lat": 31.737892,
        "lng": 130.567932
    },
    {
        "code": "C146210000601",
        "type": 16002,
        "name": "吉田南中学校",
        "address": "鹿児島市本名町565",
        "lat": 31.689068,
        "lng": 130.548453
    },
    {
        "code": "C146210000610",
        "type": 16002,
        "name": "喜入中学校",
        "address": "鹿児島市喜入町7143",
        "lat": 31.371438,
        "lng": 130.535963
    },
    {
        "code": "C146210000718",
        "type": 16002,
        "name": "松元中学校",
        "address": "鹿児島市上谷口町2994-2",
        "lat": 31.601054,
        "lng": 130.434988
    },
    {
        "code": "C146210000727",
        "type": 16002,
        "name": "郡山中学校",
        "address": "鹿児島市郡山町1500",
        "lat": 31.679475,
        "lng": 130.469943
    },
    {
        "code": "C146210001735",
        "type": 16002,
        "name": "緑丘中学校",
        "address": "鹿児島市緑ヶ丘町46-1",
        "lat": 31.656203,
        "lng": 130.544083
    },
    {
        "code": "C146210001744",
        "type": 16002,
        "name": "明和中学校",
        "address": "鹿児島市明和2-2-1",
        "lat": 31.600985,
        "lng": 130.521115
    },
    {
        "code": "C146210001753",
        "type": 16002,
        "name": "坂元中学校",
        "address": "鹿児島市玉里団地3-45-2",
        "lat": 31.622956,
        "lng": 130.547834
    },
    {
        "code": "C146210001762",
        "type": 16002,
        "name": "西紫原中学校",
        "address": "鹿児島市西紫原町26-1",
        "lat": 31.557767,
        "lng": 130.527116
    },
    {
        "code": "C146210001771",
        "type": 16002,
        "name": "桜丘中学校",
        "address": "鹿児島市桜ヶ丘2-34",
        "lat": 31.552851,
        "lng": 130.510034
    },
    {
        "code": "C146210001780",
        "type": 16002,
        "name": "東谷山中学校",
        "address": "鹿児島市魚見町120-2",
        "lat": 31.541464,
        "lng": 130.524839
    },
    {
        "code": "C146210001833",
        "type": 16002,
        "name": "星峯中学校",
        "address": "鹿児島市星ヶ峯4-10-1",
        "lat": 31.578154,
        "lng": 130.493369
    },
    {
        "code": "C146210001860",
        "type": 16002,
        "name": "吉野東中学校",
        "address": "鹿児島市吉野町5003",
        "lat": 31.648648,
        "lng": 130.585275
    },
    {
        "code": "C146210001888",
        "type": 16002,
        "name": "西陵中学校",
        "address": "鹿児島市西陵5-13-1",
        "lat": 31.582237,
        "lng": 130.505256
    },
    {
        "code": "C146210001904",
        "type": 16002,
        "name": "武岡中学校",
        "address": "鹿児島市武岡5-50-1",
        "lat": 31.599985,
        "lng": 130.508505
    },
    {
        "code": "C146210001922",
        "type": 16002,
        "name": "皇徳寺中学校",
        "address": "鹿児島市皇徳寺台3-35-1",
        "lat": 31.562628,
        "lng": 130.487732
    },
    {
        "code": "C146210001931",
        "type": 16002,
        "name": "鹿児島玉龍中学校",
        "address": "鹿児島市池之上町20-57",
        "lat": 31.610039,
        "lng": 130.561834
    },
    {
        "code": "C146210001995",
        "type": 16002,
        "name": "伊敷台中学校",
        "address": "鹿児島市伊敷台1-3-1",
        "lat": 31.621496,
        "lng": 130.529902
    },
    {
        "code": "C146310000011",
        "type": 16002,
        "name": "ラサール中学校",
        "address": "鹿児島市小松原2-10-1",
        "lat": 31.529771,
        "lng": 130.527951
    },
    {
        "code": "C146310000020",
        "type": 16002,
        "name": "鹿児島純心女子中学校",
        "address": "鹿児島市唐湊4-22-2",
        "lat": 31.564544,
        "lng": 130.538032
    },
    {
        "code": "C146310000048",
        "type": 16002,
        "name": "鹿児島修学館中学校",
        "address": "鹿児島市永吉2-9-1",
        "lat": 31.603664,
        "lng": 130.534962
    },
    {
        "code": "C146310000066",
        "type": 16002,
        "name": "池田中学校",
        "address": "鹿児島市西別府町1680",
        "lat": 31.600784,
        "lng": 130.483904
    },
    {
        "code": "C146310000075",
        "type": 16002,
        "name": "志學館中等部",
        "address": "鹿児島市南郡元町32-1",
        "lat": 31.558129,
        "lng": 130.542726
    },
    {
        "code": "D146210000011",
        "type": 16004,
        "name": "鶴丸高等学校",
        "address": "鹿児島市薬師2-1-1",
        "lat": 31.589875,
        "lng": 130.538337
    },
    {
        "code": "D146210000020",
        "type": 16004,
        "name": "甲南高等学校",
        "address": "鹿児島市上之園町23-1",
        "lat": 31.579321,
        "lng": 130.546364
    },
    {
        "code": "D146210000039",
        "type": 16004,
        "name": "鹿児島中央高等学校",
        "address": "鹿児島市加治屋町10-1",
        "lat": 31.586292,
        "lng": 130.549808
    },
    {
        "code": "D146210000048",
        "type": 16004,
        "name": "鹿児島東高等学校",
        "address": "鹿児島市東坂元3-28-1",
        "lat": 31.622364,
        "lng": 130.563298
    },
    {
        "code": "D146210000057",
        "type": 16004,
        "name": "鹿児島工業高等学校",
        "address": "鹿児島市草牟田2-57-1",
        "lat": 31.607985,
        "lng": 130.538752
    },
    {
        "code": "D146210000066",
        "type": 16004,
        "name": "鹿児島南高等学校",
        "address": "鹿児島市谷山中央8-4-1",
        "lat": 31.526382,
        "lng": 130.510397
    },
    {
        "code": "D146210000477",
        "type": 16004,
        "name": "鹿児島玉龍高等学校",
        "address": "鹿児島市池之上町20-57",
        "lat": 31.610624,
        "lng": 130.561639
    },
    {
        "code": "D146210000486",
        "type": 16004,
        "name": "鹿児島商業高等学校",
        "address": "鹿児島市西坂元町58-1",
        "lat": 31.614124,
        "lng": 130.55314
    },
    {
        "code": "D146210000495",
        "type": 16004,
        "name": "鹿児島女子高等学校",
        "address": "鹿児島市玉里町27-1",
        "lat": 31.612179,
        "lng": 130.539974
    },
    {
        "code": "D146210000547",
        "type": 16004,
        "name": "錦江湾高等学校",
        "address": "鹿児島市平川町4047",
        "lat": 31.445667,
        "lng": 130.506426
    },
    {
        "code": "D146210000556",
        "type": 16004,
        "name": "松陽高等学校",
        "address": "鹿児島市福山町573",
        "lat": 31.599276,
        "lng": 130.452761
    },
    {
        "code": "D146210000627",
        "type": 16004,
        "name": "武岡台高等学校",
        "address": "鹿児島市小野町3175",
        "lat": 31.604624,
        "lng": 130.508866
    },
    {
        "code": "D146210000636",
        "type": 16004,
        "name": "開陽高等学校",
        "address": "鹿児島市西谷山1-2-1",
        "lat": 31.52411,
        "lng": 130.508815
    },
    {
        "code": "D146210000663",
        "type": 16004,
        "name": "明桜館高等学校",
        "address": "鹿児島市郡山町100",
        "lat": 31.67802,
        "lng": 130.480145
    },
    {
        "code": "D146310000019",
        "type": 16004,
        "name": "鹿児島実業高等学校",
        "address": "鹿児島市五ヶ別府町3591-3",
        "lat": 31.590348,
        "lng": 130.493785
    },
    {
        "code": "D146310000037",
        "type": 16004,
        "name": "樟南高等学校",
        "address": "鹿児島市武岡1-120-1",
        "lat": 31.585193,
        "lng": 130.528
    },
    {
        "code": "D146310000064",
        "type": 16004,
        "name": "鹿児島高等学校",
        "address": "鹿児島市薬師1-21-9",
        "lat": 31.592152,
        "lng": 130.539948
    },
    {
        "code": "D146310000073",
        "type": 16004,
        "name": "鹿児島純心女子高等学校",
        "address": "鹿児島市唐湊4-22-2",
        "lat": 31.564767,
        "lng": 130.537254
    },
    {
        "code": "D146310000082",
        "type": 16004,
        "name": "鹿児島情報高等学校",
        "address": "鹿児島市谷山中央2-4118",
        "lat": 31.527715,
        "lng": 130.52184
    },
    {
        "code": "D146310000091",
        "type": 16004,
        "name": "ラ・サール高等学校",
        "address": "鹿児島市小松原2-10-1",
        "lat": 31.530326,
        "lng": 130.527617
    },
    {
        "code": "D146310000180",
        "type": 16004,
        "name": "志學館高等部高等学校",
        "address": "鹿児島市南郡元町32-1",
        "lat": 31.557879,
        "lng": 130.543087
    },
    {
        "code": "D146310000199",
        "type": 16004,
        "name": "池田高等学校",
        "address": "鹿児島市西別府町1680",
        "lat": 31.600624,
        "lng": 130.483869
    },
    {
        "code": "D146310000215",
        "type": 16004,
        "name": "鹿児島修学館高等学校",
        "address": "鹿児島市永吉2-9-1",
        "lat": 31.603398,
        "lng": 130.53503
    },
    {
        "code": "E146110000010",
        "type": 16012,
        "name": "鹿児島大学教育学部附属特別支援学校",
        "address": "鹿児島市下伊敷1-10-1",
        "lat": 31.610485,
        "lng": 130.535585
    },
    {
        "code": "E146210000018",
        "type": 16012,
        "name": "鹿児島盲学校",
        "address": "鹿児島市西谷山1-3-3",
        "lat": 31.524216,
        "lng": 130.506337
    },
    {
        "code": "E146210000027",
        "type": 16012,
        "name": "鹿児島聾学校",
        "address": "鹿児島市下伊敷1-52-27",
        "lat": 31.605829,
        "lng": 130.541621
    },
    {
        "code": "E146210000036",
        "type": 16012,
        "name": "鹿児島養護学校",
        "address": "鹿児島市吉野町2952-15",
        "lat": 31.640427,
        "lng": 130.569304
    },
    {
        "code": "E146210000045",
        "type": 16012,
        "name": "桜丘養護学校",
        "address": "鹿児島市桜ヶ丘6-12",
        "lat": 31.549046,
        "lng": 130.523006
    },
    {
        "code": "E146210000116",
        "type": 16012,
        "name": "武岡台養護学校",
        "address": "鹿児島市小野町2760",
        "lat": 31.60479,
        "lng": 130.510199
    },
    {
        "code": "E146210000125",
        "type": 16012,
        "name": "皆与志養護学校",
        "address": "鹿児島市皆与志町1782-1",
        "lat": 31.655202,
        "lng": 130.514669
    },
    {
        "code": "E146210000161",
        "type": 16012,
        "name": "鹿児島高等特別支援学校",
        "address": "鹿児島市東坂元3-28-1",
        "lat": 31.622532,
        "lng": 130.563136
    },
    {
        "code": "F146110111620",
        "type": 16007,
        "name": "鹿児島大学",
        "address": "鹿児島市郡元1-21-24",
        "lat": 31.570322,
        "lng": 130.543753
    },
    {
        "code": "F146310111644",
        "type": 16007,
        "name": "鹿児島国際大学",
        "address": "鹿児島市坂之上8-34-1",
        "lat": 31.494863,
        "lng": 130.494167
    },
    {
        "code": "F146310111662",
        "type": 16007,
        "name": "志學館大学",
        "address": "鹿児島市紫原1-59-1",
        "lat": 31.559191,
        "lng": 130.543235
    },
    {
        "code": "F246210111681",
        "type": 16006,
        "name": "鹿児島県立短期大学",
        "address": "鹿児島市下伊敷1-52-1",
        "lat": 31.614373,
        "lng": 130.532169
    },
    {
        "code": "F246310111698",
        "type": 16006,
        "name": "鹿児島純心女子短期大学",
        "address": "鹿児島市唐湊4-22-1",
        "lat": 31.564156,
        "lng": 130.537948
    },
    {
        "code": "F246310111705",
        "type": 16006,
        "name": "鹿児島女子短期大学",
        "address": "鹿児島市高麗町6-9",
        "lat": 31.5829,
        "lng": 130.551465
    },
    {
        "code": "H146310000029",
        "type": 16016,
        "name": "赤塚学園美容・デザイン専門学校",
        "address": "鹿児島市上荒田町6-1",
        "lat": 31.577536,
        "lng": 130.543971
    },
    {
        "code": "H146310000038",
        "type": 16016,
        "name": "鹿児島看護専門学校",
        "address": "鹿児島市永吉1-18-2",
        "lat": 31.599519,
        "lng": 130.534742
    },
    {
        "code": "H146310000065",
        "type": 16016,
        "name": "今村学園ライセンスアカデミー",
        "address": "鹿児島市新屋敷町2-10",
        "lat": 31.581476,
        "lng": 130.553874
    },
    {
        "code": "H146310000074",
        "type": 16016,
        "name": "鹿児島県理容美容専門学校",
        "address": "鹿児島市加治屋町17-7",
        "lat": 31.585916,
        "lng": 130.551701
    },
    {
        "code": "H146310000083",
        "type": 16016,
        "name": "野村服飾専門学校",
        "address": "鹿児島市下荒田3-28-12",
        "lat": 31.569999,
        "lng": 130.552299
    },
    {
        "code": "H146310000092",
        "type": 16016,
        "name": "鹿児島中央看護専門学校",
        "address": "鹿児島市泉町12-7",
        "lat": 31.592671,
        "lng": 130.559835
    },
    {
        "code": "H146310000109",
        "type": 16016,
        "name": "鹿児島工学院専門学校",
        "address": "鹿児島市五ヶ別府町3721-7",
        "lat": 31.588981,
        "lng": 130.4881
    },
    {
        "code": "H146310000118",
        "type": 16016,
        "name": "第一東大医進予備校",
        "address": "鹿児島市上荒田町7-14",
        "lat": 31.577476,
        "lng": 130.544805
    },
    {
        "code": "H146310000127",
        "type": 16016,
        "name": "鹿児島歯科学院専門学校",
        "address": "鹿児島市照国町13-15",
        "lat": 31.592156,
        "lng": 130.551652
    },
    {
        "code": "H146310000136",
        "type": 16016,
        "name": "鹿児島英語専修学校",
        "address": "鹿児島市田上1-12-3",
        "lat": 31.576259,
        "lng": 130.531724
    },
    {
        "code": "H146310000154",
        "type": 16016,
        "name": "鹿児島県医療法人協会立看護専門学校",
        "address": "鹿児島市中山町878-1",
        "lat": 31.547531,
        "lng": 130.497167
    },
    {
        "code": "H146310000163",
        "type": 16016,
        "name": "鹿児島鍼灸専門学校",
        "address": "鹿児島市高麗町37-7",
        "lat": 31.579052,
        "lng": 130.550797
    },
    {
        "code": "H146310000172",
        "type": 16016,
        "name": "ＫＣＳ鹿児島情報専門学校",
        "address": "鹿児島市郡元1-9-5",
        "lat": 31.567189,
        "lng": 130.541968
    },
    {
        "code": "H146310000181",
        "type": 16016,
        "name": "鹿児島情報ビジネス公務員専門学校",
        "address": "鹿児島市東千石町19-32",
        "lat": 31.593129,
        "lng": 130.554197
    },
    {
        "code": "H146310000190",
        "type": 16016,
        "name": "鹿児島キャリアデザイン専門学校",
        "address": "鹿児島市谷山中央2-4173",
        "lat": 31.526413,
        "lng": 130.521475
    },
    {
        "code": "H146310000207",
        "type": 16016,
        "name": "鹿児島医療福祉専門学校",
        "address": "鹿児島市田上8-21-3",
        "lat": 31.59427,
        "lng": 130.502845
    },
    {
        "code": "H146310000225",
        "type": 16016,
        "name": "南九州医療事務医療秘書専門学校",
        "address": "鹿児島市荒田1-27-1",
        "lat": 31.576672,
        "lng": 130.548766
    },
    {
        "code": "H146310000234",
        "type": 16016,
        "name": "久木田学園看護専門学校",
        "address": "鹿児島市本名町481-1",
        "lat": 31.691617,
        "lng": 130.545346
    },
    {
        "code": "H146310000243",
        "type": 16016,
        "name": "鹿児島医療技術専門学校",
        "address": "鹿児島市平川町宇都口5417-1",
        "lat": 31.47625,
        "lng": 130.503273
    },
    {
        "code": "H146310000261",
        "type": 16016,
        "name": "鹿児島公務員専修学校",
        "address": "鹿児島市田上1-12-2",
        "lat": 31.576258,
        "lng": 130.531913
    },
    {
        "code": "H146310000270",
        "type": 16016,
        "name": "鹿児島外語学院",
        "address": "鹿児島市下荒田4-41-4",
        "lat": 31.567243,
        "lng": 130.55576
    },
    {
        "code": "H146310000298",
        "type": 16016,
        "name": "鹿児島高等予備校",
        "address": "鹿児島市高麗町15-10",
        "lat": 31.581075,
        "lng": 130.552242
    },
    {
        "code": "H146310000314",
        "type": 16016,
        "name": "鹿児島レディスカレッジ",
        "address": "鹿児島市加治屋町12-9",
        "lat": 31.587658,
        "lng": 130.549385
    },
    {
        "code": "H146310000323",
        "type": 16016,
        "name": "鹿児島県美容専門学校",
        "address": "鹿児島市鴨池2-4-6",
        "lat": 31.567398,
        "lng": 130.553064
    },
    {
        "code": "H146310000350",
        "type": 16016,
        "name": "鹿児島医療センター附属鹿児島看護学校",
        "address": "鹿児島市下伊敷1-52-17",
        "lat": 31.615484,
        "lng": 130.532644
    },
    {
        "code": "H146310000369",
        "type": 16016,
        "name": "北九州予備校鹿児島校",
        "address": "鹿児島市西田1-7-3",
        "lat": 31.587867,
        "lng": 130.544118
    },
    {
        "code": "H146310000387",
        "type": 16016,
        "name": "赤塚学園看護専門学校",
        "address": "鹿児島市上荒田町21-12",
        "lat": 31.577174,
        "lng": 130.543492
    },
    {
        "code": "H146310000396",
        "type": 16016,
        "name": "鹿児島環境・情報専門学校",
        "address": "鹿児島市田上3-4-8",
        "lat": 31.575154,
        "lng": 130.530024
    },
    {
        "code": "H146310000403",
        "type": 16016,
        "name": "鹿児島医療工学専門学校",
        "address": "鹿児島市船津町4-18",
        "lat": 31.58829,
        "lng": 130.558374
    }
]