[
    {
        "code": "A146310000202",
        "type": 16011,
        "name": "指宿幼稚園",
        "address": "指宿市湊2-21-1",
        "lat": 31.240191,
        "lng": 130.645261
    },
    {
        "code": "A146310000211",
        "type": 16011,
        "name": "白百合幼稚園",
        "address": "指宿市大牟礼4-15-30",
        "lat": 31.245015,
        "lng": 130.646875
    },
    {
        "code": "A146310000435",
        "type": 16011,
        "name": "みどり幼稚園",
        "address": "指宿市西方4692-4",
        "lat": 31.278859,
        "lng": 130.618359
    },
    {
        "code": "A146310000541",
        "type": 16011,
        "name": "柳和幼稚園",
        "address": "指宿市十町2459",
        "lat": 31.25267,
        "lng": 130.630442
    },
    {
        "code": "A246310000265",
        "type": 16013,
        "name": "コスモス幼稚園・こすもす保育園",
        "address": "指宿市十二町2338-6",
        "lat": 31.236385,
        "lng": 130.635543
    },
    {
        "code": "A246310000586",
        "type": 16013,
        "name": "つちはしこども学園",
        "address": "指宿市岩本2808",
        "lat": 31.292984,
        "lng": 130.597067
    },
    {
        "code": "A246310000657",
        "type": 16013,
        "name": "たいせいこども園",
        "address": "指宿市山川小川649-1",
        "lat": 31.205233,
        "lng": 130.600481
    },
    {
        "code": "A246310000693",
        "type": 16013,
        "name": "つちはしこども学園分園花のおさなご園",
        "address": "指宿市十町151-5",
        "lat": 31.254729,
        "lng": 130.62921
    },
    {
        "code": "A246310001380",
        "type": 16013,
        "name": "うおみ認定こども園",
        "address": "指宿市東方11018-11",
        "lat": 31.264891,
        "lng": 130.640086
    },
    {
        "code": "A246310001399",
        "type": 16013,
        "name": "ひばりこども園",
        "address": "指宿市十町543",
        "lat": 31.254281,
        "lng": 130.63584
    },
    {
        "code": "A246310001969",
        "type": 16013,
        "name": "せいあこども園",
        "address": "指宿市十二町541",
        "lat": 31.239057,
        "lng": 130.640345
    },
    {
        "code": "B146210000373",
        "type": 16001,
        "name": "指宿小学校",
        "address": "指宿市西方4692-1",
        "lat": 31.279217,
        "lng": 130.617284
    },
    {
        "code": "B146210000382",
        "type": 16001,
        "name": "魚見小学校",
        "address": "指宿市東方11017",
        "lat": 31.265802,
        "lng": 130.639894
    },
    {
        "code": "B146210000391",
        "type": 16001,
        "name": "柳田小学校",
        "address": "指宿市十町2454",
        "lat": 31.253831,
        "lng": 130.630034
    },
    {
        "code": "B146210000408",
        "type": 16001,
        "name": "丹波小学校",
        "address": "指宿市湯の浜3-2-6",
        "lat": 31.234,
        "lng": 130.645867
    },
    {
        "code": "B146210000417",
        "type": 16001,
        "name": "今和泉小学校",
        "address": "指宿市岩本2739",
        "lat": 31.293147,
        "lng": 130.59607
    },
    {
        "code": "B146210000426",
        "type": 16001,
        "name": "池田小学校",
        "address": "指宿市池田3977-1",
        "lat": 31.26369,
        "lng": 130.561094
    },
    {
        "code": "B146210001657",
        "type": 16001,
        "name": "山川小学校",
        "address": "指宿市山川成川3260",
        "lat": 31.197628,
        "lng": 130.637281
    },
    {
        "code": "B146210001693",
        "type": 16001,
        "name": "開聞小学校",
        "address": "指宿市開聞十町2399",
        "lat": 31.206653,
        "lng": 130.535334
    },
    {
        "code": "B146210001700",
        "type": 16001,
        "name": "川尻小学校",
        "address": "指宿市開聞川尻5530",
        "lat": 31.180701,
        "lng": 130.560382
    },
    {
        "code": "C146210000219",
        "type": 16002,
        "name": "北指宿中学校",
        "address": "指宿市西方2329",
        "lat": 31.268671,
        "lng": 130.623656
    },
    {
        "code": "C146210000228",
        "type": 16002,
        "name": "南指宿中学校",
        "address": "指宿市十二町420",
        "lat": 31.239166,
        "lng": 130.633645
    },
    {
        "code": "C146210000237",
        "type": 16002,
        "name": "西指宿中学校",
        "address": "指宿市新西方1534-2",
        "lat": 31.275522,
        "lng": 130.58687
    },
    {
        "code": "C146210000629",
        "type": 16002,
        "name": "山川中学校",
        "address": "指宿市山川成川2350",
        "lat": 31.203052,
        "lng": 130.618288
    },
    {
        "code": "C146210000638",
        "type": 16002,
        "name": "開聞中学校",
        "address": "指宿市開聞十町2561",
        "lat": 31.200013,
        "lng": 130.53841
    },
    {
        "code": "D146210000075",
        "type": 16004,
        "name": "指宿高等学校",
        "address": "指宿市十町236",
        "lat": 31.25147,
        "lng": 130.629229
    },
    {
        "code": "D146210000084",
        "type": 16004,
        "name": "山川高等学校",
        "address": "指宿市山川成川3423",
        "lat": 31.205439,
        "lng": 130.611989
    },
    {
        "code": "D146210000501",
        "type": 16004,
        "name": "指宿市立指宿商業高等学校",
        "address": "指宿市岩本2747",
        "lat": 31.293885,
        "lng": 130.594996
    },
    {
        "code": "E146210000063",
        "type": 16012,
        "name": "指宿養護学校",
        "address": "指宿市十二町4193-2",
        "lat": 31.220584,
        "lng": 130.643562
    }
]