[
    {
        "code": "A146310000550",
        "type": 16011,
        "name": "加世田しらうめ幼稚園",
        "address": "南さつま市加世田唐仁原1159",
        "lat": 31.421288,
        "lng": 130.311284
    },
    {
        "code": "A246310001148",
        "type": 16013,
        "name": "加世田幼児園",
        "address": "南さつま市加世田武田17444-4",
        "lat": 31.410106,
        "lng": 130.322343
    },
    {
        "code": "A246310001763",
        "type": 16013,
        "name": "加世田聖母幼稚園",
        "address": "南さつま市加世田本町35-2",
        "lat": 31.417587,
        "lng": 130.32095
    },
    {
        "code": "A246310001772",
        "type": 16013,
        "name": "阿多こども園",
        "address": "南さつま市金峰町4104-5",
        "lat": 31.435368,
        "lng": 130.337671
    },
    {
        "code": "B146210000471",
        "type": 16001,
        "name": "加世田小学校",
        "address": "南さつま市加世田武田17470",
        "lat": 31.411877,
        "lng": 130.32358
    },
    {
        "code": "B146210000480",
        "type": 16001,
        "name": "川畑小学校",
        "address": "南さつま市加世田川畑4257",
        "lat": 31.412659,
        "lng": 130.336518
    },
    {
        "code": "B146210000499",
        "type": 16001,
        "name": "内山田小学校",
        "address": "南さつま市加世田内山田7316",
        "lat": 31.384376,
        "lng": 130.314034
    },
    {
        "code": "B146210000505",
        "type": 16001,
        "name": "長屋小学校",
        "address": "南さつま市加世田武田6923",
        "lat": 31.400576,
        "lng": 130.29813
    },
    {
        "code": "B146210000514",
        "type": 16001,
        "name": "万世小学校",
        "address": "南さつま市加世田唐仁原6410-2",
        "lat": 31.421902,
        "lng": 130.293944
    },
    {
        "code": "B146210000523",
        "type": 16001,
        "name": "益山小学校",
        "address": "南さつま市加世田宮原1260",
        "lat": 31.431362,
        "lng": 130.313667
    },
    {
        "code": "B146210000532",
        "type": 16001,
        "name": "小湊小学校",
        "address": "南さつま市加世田小湊8464",
        "lat": 31.413613,
        "lng": 130.256351
    },
    {
        "code": "B146210001782",
        "type": 16001,
        "name": "大浦小学校",
        "address": "南さつま市大浦町7182",
        "lat": 31.376508,
        "lng": 130.225592
    },
    {
        "code": "B146210002120",
        "type": 16001,
        "name": "田布施小学校",
        "address": "南さつま市金峰町尾下450",
        "lat": 31.46135,
        "lng": 130.344082
    },
    {
        "code": "B146210002139",
        "type": 16001,
        "name": "阿多小学校",
        "address": "南さつま市金峰町宮崎2566-1",
        "lat": 31.437018,
        "lng": 130.336903
    },
    {
        "code": "B146210004994",
        "type": 16001,
        "name": "笠沙小学校",
        "address": "南さつま市笠沙町片浦2362",
        "lat": 31.414741,
        "lng": 130.136874
    },
    {
        "code": "C146210000273",
        "type": 16002,
        "name": "加世田中学校",
        "address": "南さつま市加世田武田15533",
        "lat": 31.408145,
        "lng": 130.316208
    },
    {
        "code": "C146210000282",
        "type": 16002,
        "name": "万世中学校",
        "address": "南さつま市加世田唐仁原5898",
        "lat": 31.427891,
        "lng": 130.290282
    },
    {
        "code": "C146210001799",
        "type": 16002,
        "name": "金峰中学校",
        "address": "南さつま市金峰町中津野500-1",
        "lat": 31.450383,
        "lng": 130.338515
    },
    {
        "code": "C146210002119",
        "type": 16002,
        "name": "大笠中学校",
        "address": "南さつま市大浦町24524",
        "lat": 31.381633,
        "lng": 130.228298
    },
    {
        "code": "C246210000021",
        "type": 16014,
        "name": "坊津学園",
        "address": "南さつま市坊津町泊8748",
        "lat": 31.286213,
        "lng": 130.230318
    },
    {
        "code": "D146210000128",
        "type": 16004,
        "name": "加世田高等学校",
        "address": "南さつま市加世田川畑3200",
        "lat": 31.406757,
        "lng": 130.324947
    },
    {
        "code": "D146210000137",
        "type": 16004,
        "name": "加世田常潤高等学校",
        "address": "南さつま市加世田武田14863",
        "lat": 31.408406,
        "lng": 130.308738
    },
    {
        "code": "D146310000117",
        "type": 16004,
        "name": "鳳凰高等学校",
        "address": "南さつま市加世田唐仁原1202",
        "lat": 31.422075,
        "lng": 130.311861
    },
    {
        "code": "E146210000143",
        "type": 16012,
        "name": "南薩養護学校",
        "address": "南さつま市金峰町尾下326",
        "lat": 31.459078,
        "lng": 130.346606
    }
]