[
    {
        "code": "A146210000080",
        "type": 16011,
        "name": "建昌幼稚園",
        "address": "姶良市東餅田2648-2",
        "lat": 31.726348,
        "lng": 130.630677
    },
    {
        "code": "A146210000179",
        "type": 16011,
        "name": "錦江幼稚園",
        "address": "姶良市加治木町木田171-1",
        "lat": 31.736877,
        "lng": 130.657269
    },
    {
        "code": "A146210000366",
        "type": 16011,
        "name": "加治木幼稚園",
        "address": "姶良市加治木町仮屋町251",
        "lat": 31.741146,
        "lng": 130.663685
    },
    {
        "code": "A146210000543",
        "type": 16011,
        "name": "帖佐幼稚園",
        "address": "姶良市鍋倉634-1",
        "lat": 31.742007,
        "lng": 130.628176
    },
    {
        "code": "A146310000621",
        "type": 16011,
        "name": "あいら幼稚園",
        "address": "姶良市加治木町木田1961",
        "lat": 31.732844,
        "lng": 130.642884
    },
    {
        "code": "A146310000649",
        "type": 16011,
        "name": "薫光幼稚園",
        "address": "姶良市松原町1-17-9",
        "lat": 31.718506,
        "lng": 130.629722
    },
    {
        "code": "A246210000016",
        "type": 16013,
        "name": "大楠ちびっ子園",
        "address": "姶良市蒲生町上久徳1194-18",
        "lat": 31.761641,
        "lng": 130.575366
    },
    {
        "code": "A246310000390",
        "type": 16013,
        "name": "双葉幼稚園",
        "address": "姶良市加治木町諏訪町53",
        "lat": 31.73586,
        "lng": 130.671546
    },
    {
        "code": "A246310000407",
        "type": 16013,
        "name": "啓明幼稚園・保育園",
        "address": "姶良市池島町31-7",
        "lat": 31.718775,
        "lng": 130.612799
    },
    {
        "code": "A246310000416",
        "type": 16013,
        "name": "エミールこども園",
        "address": "姶良市西餅田2803",
        "lat": 31.724342,
        "lng": 130.617839
    },
    {
        "code": "A246310000880",
        "type": 16013,
        "name": "建昌保育園",
        "address": "姶良市東餠田2602",
        "lat": 31.726306,
        "lng": 130.632901
    },
    {
        "code": "A246310000899",
        "type": 16013,
        "name": "池島こども園",
        "address": "姶良市永池町9-3",
        "lat": 31.71551,
        "lng": 130.613764
    },
    {
        "code": "A246310000906",
        "type": 16013,
        "name": "エミールさくらこども園",
        "address": "姶良市西餠田2803-3",
        "lat": 31.724415,
        "lng": 130.617834
    },
    {
        "code": "A246310001031",
        "type": 16013,
        "name": "ひまわりこども園",
        "address": "姶良市西姶良1-39-30",
        "lat": 31.72728,
        "lng": 130.605384
    },
    {
        "code": "A246310001585",
        "type": 16013,
        "name": "菜の花保育園",
        "address": "姶良市東餠田1343-3",
        "lat": 31.724494,
        "lng": 130.635864
    },
    {
        "code": "A246310001594",
        "type": 16013,
        "name": "建昌こぎく保育園",
        "address": "姶良市東餠田3355-1",
        "lat": 31.725221,
        "lng": 130.633542
    },
    {
        "code": "A246310001601",
        "type": 16013,
        "name": "なでしこ保育園",
        "address": "姶良市永池町12-13",
        "lat": 31.715547,
        "lng": 130.612674
    },
    {
        "code": "A246310001861",
        "type": 16013,
        "name": "おひさまこども園",
        "address": "姶良市西餠田3306-1",
        "lat": 31.719448,
        "lng": 130.62195
    },
    {
        "code": "B146210002512",
        "type": 16001,
        "name": "柁城小学校",
        "address": "姶良市加治木町仮屋町248",
        "lat": 31.742047,
        "lng": 130.664247
    },
    {
        "code": "B146210002521",
        "type": 16001,
        "name": "錦江小学校",
        "address": "姶良市加治木町錦江町74",
        "lat": 31.736994,
        "lng": 130.659294
    },
    {
        "code": "B146210002530",
        "type": 16001,
        "name": "竜門小学校",
        "address": "姶良市加治木町小山田1363",
        "lat": 31.764311,
        "lng": 130.675572
    },
    {
        "code": "B146210002549",
        "type": 16001,
        "name": "永原小学校",
        "address": "姶良市加治木町西別府594",
        "lat": 31.764005,
        "lng": 130.65107
    },
    {
        "code": "B146210002558",
        "type": 16001,
        "name": "帖佐小学校",
        "address": "姶良市鍋倉663",
        "lat": 31.743168,
        "lng": 130.628324
    },
    {
        "code": "B146210002567",
        "type": 16001,
        "name": "建昌小学校",
        "address": "姶良市東餅田2405",
        "lat": 31.727225,
        "lng": 130.630019
    },
    {
        "code": "B146210002576",
        "type": 16001,
        "name": "三船小学校",
        "address": "姶良市増田399",
        "lat": 31.754833,
        "lng": 130.600937
    },
    {
        "code": "B146210002585",
        "type": 16001,
        "name": "重富小学校",
        "address": "姶良市平松5636",
        "lat": 31.705949,
        "lng": 130.604271
    },
    {
        "code": "B146210002594",
        "type": 16001,
        "name": "山田小学校",
        "address": "姶良市下名1018",
        "lat": 31.771443,
        "lng": 130.612407
    },
    {
        "code": "B146210002601",
        "type": 16001,
        "name": "北山小学校",
        "address": "姶良市北山3783",
        "lat": 31.821437,
        "lng": 130.600962
    },
    {
        "code": "B146210002610",
        "type": 16001,
        "name": "蒲生小学校",
        "address": "姶良市蒲生町上久徳2252",
        "lat": 31.764832,
        "lng": 130.570339
    },
    {
        "code": "B146210002629",
        "type": 16001,
        "name": "漆小学校",
        "address": "姶良市蒲生町漆317",
        "lat": 31.824452,
        "lng": 130.558071
    },
    {
        "code": "B146210002638",
        "type": 16001,
        "name": "西浦小学校",
        "address": "姶良市蒲生町西浦815",
        "lat": 31.800744,
        "lng": 130.53228
    },
    {
        "code": "B146210004752",
        "type": 16001,
        "name": "姶良小学校",
        "address": "姶良市西餅田2726",
        "lat": 31.723531,
        "lng": 130.619075
    },
    {
        "code": "B146210004832",
        "type": 16001,
        "name": "西姶良小学校",
        "address": "姶良市西姶良1-37-1",
        "lat": 31.728085,
        "lng": 130.603826
    },
    {
        "code": "B146210004869",
        "type": 16001,
        "name": "加治木小学校",
        "address": "姶良市加治木町反土2955",
        "lat": 31.742479,
        "lng": 130.65582
    },
    {
        "code": "B146210005001",
        "type": 16001,
        "name": "松原なぎさ小学校",
        "address": "姶良市松原町1-23-1",
        "lat": 31.719692,
        "lng": 130.63103
    },
    {
        "code": "C146210000923",
        "type": 16002,
        "name": "帖佐中学校",
        "address": "姶良市西餅田1586",
        "lat": 31.739412,
        "lng": 130.624422
    },
    {
        "code": "C146210000932",
        "type": 16002,
        "name": "重富中学校",
        "address": "姶良市平松7092",
        "lat": 31.713448,
        "lng": 130.615937
    },
    {
        "code": "C146210000941",
        "type": 16002,
        "name": "山田中学校",
        "address": "姶良市下名977",
        "lat": 31.770777,
        "lng": 130.611157
    },
    {
        "code": "C146210000950",
        "type": 16002,
        "name": "蒲生中学校",
        "address": "姶良市蒲生町北10",
        "lat": 31.764225,
        "lng": 130.565315
    },
    {
        "code": "C146210001824",
        "type": 16002,
        "name": "加治木中学校",
        "address": "姶良市加治木町反土2162",
        "lat": 31.747,
        "lng": 130.663746
    },
    {
        "code": "D146210000271",
        "type": 16004,
        "name": "蒲生高等学校",
        "address": "姶良市蒲生町下久徳848-2",
        "lat": 31.757744,
        "lng": 130.588339
    },
    {
        "code": "D146210000280",
        "type": 16004,
        "name": "加治木高等学校",
        "address": "姶良市加治木町仮屋町211",
        "lat": 31.741705,
        "lng": 130.665746
    },
    {
        "code": "D146210000299",
        "type": 16004,
        "name": "加治木工業高等学校",
        "address": "姶良市加治木町新富町131",
        "lat": 31.742339,
        "lng": 130.669222
    },
    {
        "code": "D146310000108",
        "type": 16004,
        "name": "龍桜高等学校",
        "address": "姶良市加治木町木田5348",
        "lat": 31.732054,
        "lng": 130.660563
    },
    {
        "code": "E146210000072",
        "type": 16012,
        "name": "加治木養護学校",
        "address": "姶良市加治木町木田1784",
        "lat": 31.728991,
        "lng": 130.6435
    },
    {
        "code": "H146310000252",
        "type": 16016,
        "name": "加治木看護専門学校",
        "address": "姶良市加治木町港町131-1",
        "lat": 31.733664,
        "lng": 130.665094
    }
]