[
    {
        "code": "A146210000650",
        "type": 16011,
        "name": "鶴田幼稚園",
        "address": "薩摩郡さつま町神子758",
        "lat": 31.95116,
        "lng": 130.488632
    },
    {
        "code": "A146310000355",
        "type": 16011,
        "name": "宮之城聖母幼稚園",
        "address": "薩摩郡さつま町虎居1020",
        "lat": 31.910917,
        "lng": 130.454509
    },
    {
        "code": "A246310001166",
        "type": 16013,
        "name": "つるだ同朋子ども園",
        "address": "薩摩郡さつま町鶴田3424-18",
        "lat": 31.95177,
        "lng": 130.494327
    },
    {
        "code": "A246310001610",
        "type": 16013,
        "name": "クオラキッズ",
        "address": "薩摩郡さつま町船木2336-1",
        "lat": 31.872735,
        "lng": 130.44212
    },
    {
        "code": "A246310001629",
        "type": 16013,
        "name": "しびこども園",
        "address": "薩摩郡さつま町紫尾1468",
        "lat": 31.963589,
        "lng": 130.43459
    },
    {
        "code": "A246310001638",
        "type": 16013,
        "name": "あさひこども園",
        "address": "薩摩郡さつま町柏原5183",
        "lat": 31.949482,
        "lng": 130.463085
    },
    {
        "code": "A246310002021",
        "type": 16013,
        "name": "錦光こども園",
        "address": "薩摩郡さつま町求名2735-7",
        "lat": 31.940322,
        "lng": 130.53142
    },
    {
        "code": "A246310002352",
        "type": 16013,
        "name": "恵光保育園",
        "address": "薩摩郡さつま町中津川1986-1",
        "lat": 31.905865,
        "lng": 130.542914
    },
    {
        "code": "B146210002184",
        "type": 16001,
        "name": "山崎小学校",
        "address": "薩摩郡さつま町山崎129-1",
        "lat": 31.864957,
        "lng": 130.43111
    },
    {
        "code": "B146210002193",
        "type": 16001,
        "name": "盈進小学校",
        "address": "薩摩郡さつま町宮之城屋地1546-3",
        "lat": 31.905667,
        "lng": 130.454408
    },
    {
        "code": "B146210002200",
        "type": 16001,
        "name": "流水小学校",
        "address": "薩摩郡さつま町湯田1128",
        "lat": 31.941727,
        "lng": 130.468215
    },
    {
        "code": "B146210002219",
        "type": 16001,
        "name": "佐志小学校",
        "address": "薩摩郡さつま町広瀬1177",
        "lat": 31.919841,
        "lng": 130.493103
    },
    {
        "code": "B146210002228",
        "type": 16001,
        "name": "鶴田小学校",
        "address": "薩摩郡さつま町鶴田2880",
        "lat": 31.951532,
        "lng": 130.489186
    },
    {
        "code": "B146210002237",
        "type": 16001,
        "name": "柏原小学校",
        "address": "薩摩郡さつま町柏原1588",
        "lat": 31.930645,
        "lng": 130.465466
    },
    {
        "code": "B146210002246",
        "type": 16001,
        "name": "求名小学校",
        "address": "薩摩郡さつま町求名2737",
        "lat": 31.941368,
        "lng": 130.532044
    },
    {
        "code": "B146210002255",
        "type": 16001,
        "name": "永野小学校",
        "address": "薩摩郡さつま町永野2562",
        "lat": 31.92801,
        "lng": 130.589708
    },
    {
        "code": "B146210002264",
        "type": 16001,
        "name": "中津川小学校",
        "address": "薩摩郡さつま町中津川4269",
        "lat": 31.905789,
        "lng": 130.541017
    },
    {
        "code": "C146210000772",
        "type": 16002,
        "name": "宮之城中学校",
        "address": "薩摩郡さつま町宮之城屋地391",
        "lat": 31.902511,
        "lng": 130.447073
    },
    {
        "code": "D146210000645",
        "type": 16004,
        "name": "薩摩中央高等学校",
        "address": "薩摩郡さつま町虎居1900",
        "lat": 31.913702,
        "lng": 130.451968
    }
]