[
    {
        "code": "A146210000482",
        "type": 16011,
        "name": "西阿木名幼稚園",
        "address": "大島郡天城町西阿木名262",
        "lat": 27.75232,
        "lng": 128.91639
    },
    {
        "code": "A146310000391",
        "type": 16011,
        "name": "天城カトリック幼稚園",
        "address": "大島郡天城町天城543-3",
        "lat": 27.812671,
        "lng": 128.897018
    },
    {
        "code": "B146210004351",
        "type": 16001,
        "name": "天城小学校",
        "address": "大島郡天城町天城555",
        "lat": 27.81219,
        "lng": 128.898704
    },
    {
        "code": "B146210004360",
        "type": 16001,
        "name": "岡前小学校",
        "address": "大島郡天城町岡前1602",
        "lat": 27.843521,
        "lng": 128.898536
    },
    {
        "code": "B146210004379",
        "type": 16001,
        "name": "岡前小学校与名間分校",
        "address": "大島郡天城町与名間940",
        "lat": 27.878795,
        "lng": 128.896036
    },
    {
        "code": "B146210004388",
        "type": 16001,
        "name": "兼久小学校",
        "address": "大島郡天城町瀬滝1009",
        "lat": 27.782831,
        "lng": 128.90801
    },
    {
        "code": "B146210004397",
        "type": 16001,
        "name": "西阿木名小学校",
        "address": "大島郡天城町西阿木名262",
        "lat": 27.752388,
        "lng": 128.916261
    },
    {
        "code": "B146210004404",
        "type": 16001,
        "name": "西阿木名小学校三京分校",
        "address": "大島郡天城町西阿木名1352",
        "lat": 27.77186,
        "lng": 128.950202
    },
    {
        "code": "C146210001628",
        "type": 16002,
        "name": "天城中学校",
        "address": "大島郡天城町兼久1105",
        "lat": 27.802691,
        "lng": 128.902426
    },
    {
        "code": "C146210001637",
        "type": 16002,
        "name": "北中学校",
        "address": "大島郡天城町浅間408-1",
        "lat": 27.837589,
        "lng": 128.890544
    },
    {
        "code": "C146210001646",
        "type": 16002,
        "name": "西阿木名中学校",
        "address": "大島郡天城町西阿木名262",
        "lat": 27.752448,
        "lng": 128.916085
    },
    {
        "code": "D146310000046",
        "type": 16004,
        "name": "樟南第二高等学校",
        "address": "大島郡天城町天城297",
        "lat": 27.819189,
        "lng": 128.895787
    }
]