[
    {
        "code": "A246210000025",
        "type": 16013,
        "name": "認定こども園 きらきら",
        "address": "大島郡知名町田皆1655",
        "lat": 27.387043,
        "lng": 128.543492
    },
    {
        "code": "A246210000034",
        "type": 16013,
        "name": "認定こども園すまいる",
        "address": "大島郡知名町瀬利覚546-1",
        "lat": 27.340518,
        "lng": 128.583418
    },
    {
        "code": "B146210004538",
        "type": 16001,
        "name": "知名小学校",
        "address": "大島郡知名町知名333",
        "lat": 27.332675,
        "lng": 128.574472
    },
    {
        "code": "B146210004547",
        "type": 16001,
        "name": "住吉小学校",
        "address": "大島郡知名町住吉1779",
        "lat": 27.363005,
        "lng": 128.535891
    },
    {
        "code": "B146210004556",
        "type": 16001,
        "name": "田皆小学校",
        "address": "大島郡知名町田皆1653",
        "lat": 27.386419,
        "lng": 128.543668
    },
    {
        "code": "B146210004565",
        "type": 16001,
        "name": "上城小学校",
        "address": "大島郡知名町上城220",
        "lat": 27.384253,
        "lng": 128.569305
    },
    {
        "code": "B146210004574",
        "type": 16001,
        "name": "下平川小学校",
        "address": "大島郡知名町下平川412",
        "lat": 27.358923,
        "lng": 128.600441
    },
    {
        "code": "C146210001708",
        "type": 16002,
        "name": "知名中学校",
        "address": "大島郡知名町瀬利覚536",
        "lat": 27.340675,
        "lng": 128.585609
    },
    {
        "code": "C146210001717",
        "type": 16002,
        "name": "田皆中学校",
        "address": "大島郡知名町田皆1661",
        "lat": 27.386753,
        "lng": 128.542835
    },
    {
        "code": "D146210000468",
        "type": 16004,
        "name": "沖永良部高等学校",
        "address": "大島郡知名町余多241",
        "lat": 27.36259,
        "lng": 128.616162
    }
]