[
    {
        "code": "A147220900016",
        "type": 16011,
        "name": "大宮幼稚園",
        "address": "名護市宮里5-13-22",
        "lat": 26.597964,
        "lng": 127.973257
    },
    {
        "code": "A147220900025",
        "type": 16011,
        "name": "東江幼稚園",
        "address": "名護市東江1-7-21",
        "lat": 26.585228,
        "lng": 127.987767
    },
    {
        "code": "A147220900034",
        "type": 16011,
        "name": "名護幼稚園",
        "address": "名護市大西2-2-22",
        "lat": 26.593993,
        "lng": 127.981293
    },
    {
        "code": "A147220900043",
        "type": 16011,
        "name": "屋我地幼稚園",
        "address": "名護市字饒平名159",
        "lat": 26.655509,
        "lng": 128.008034
    },
    {
        "code": "A147220900052",
        "type": 16011,
        "name": "安和幼稚園",
        "address": "名護市字安和174",
        "lat": 26.609754,
        "lng": 127.931738
    },
    {
        "code": "A147220900061",
        "type": 16011,
        "name": "久志幼稚園",
        "address": "名護市汀間122",
        "lat": 26.552727,
        "lng": 128.061939
    },
    {
        "code": "A147220900070",
        "type": 16011,
        "name": "屋部幼稚園",
        "address": "名護市字屋部47",
        "lat": 26.601643,
        "lng": 127.953398
    },
    {
        "code": "A147220900089",
        "type": 16011,
        "name": "久辺幼稚園",
        "address": "名護市字豊原208",
        "lat": 26.520124,
        "lng": 128.02384
    },
    {
        "code": "A147220900098",
        "type": 16011,
        "name": "羽地幼稚園",
        "address": "名護市字田井等601-2",
        "lat": 26.618557,
        "lng": 128.011377
    },
    {
        "code": "A147220900105",
        "type": 16011,
        "name": "稲田幼稚園",
        "address": "名護市字我部祖河440-1",
        "lat": 26.622765,
        "lng": 128.002448
    },
    {
        "code": "A147220900114",
        "type": 16011,
        "name": "瀬喜田幼稚園",
        "address": "名護市字幸喜4",
        "lat": 26.540247,
        "lng": 127.950869
    },
    {
        "code": "A147220900123",
        "type": 16011,
        "name": "真喜屋幼稚園",
        "address": "名護市字真喜屋571",
        "lat": 26.633684,
        "lng": 128.039441
    },
    {
        "code": "A147220900132",
        "type": 16011,
        "name": "大北幼稚園",
        "address": "名護市大北4-19-32",
        "lat": 26.60616,
        "lng": 127.992562
    },
    {
        "code": "A147320900014",
        "type": 16011,
        "name": "カトリック学園うみのほし幼稚園",
        "address": "名護市大中2-3-30",
        "lat": 26.593682,
        "lng": 127.983128
    },
    {
        "code": "A147320900023",
        "type": 16011,
        "name": "名護栄光幼稚園",
        "address": "名護市為又506-10",
        "lat": 26.612328,
        "lng": 127.974846
    },
    {
        "code": "A247320900013",
        "type": 16013,
        "name": "あすなろ第2認定こども園",
        "address": "名護市大東3-17-9-1",
        "lat": 26.593173,
        "lng": 127.990527
    },
    {
        "code": "A247320900022",
        "type": 16013,
        "name": "あすなろ認定こども園",
        "address": "名護市大東3-17-9-1",
        "lat": 26.593116,
        "lng": 127.990501
    },
    {
        "code": "A247320900031",
        "type": 16013,
        "name": "あすなろ東認定こども園",
        "address": "名護市東江2-6-9",
        "lat": 26.586708,
        "lng": 127.992185
    },
    {
        "code": "A247320900040",
        "type": 16013,
        "name": "あすなろグレース認定こども園",
        "address": "名護市大北1-18-4",
        "lat": 26.601035,
        "lng": 127.989201
    },
    {
        "code": "A247320900059",
        "type": 16013,
        "name": "海青こども園",
        "address": "名護市大西3-14-3",
        "lat": 26.59764,
        "lng": 127.98456
    },
    {
        "code": "A247320900068",
        "type": 16013,
        "name": "なごうら認定こども園",
        "address": "名護市屋部1716-1",
        "lat": 26.606128,
        "lng": 127.959597
    },
    {
        "code": "B147220900014",
        "type": 16001,
        "name": "久志小学校",
        "address": "名護市汀間122",
        "lat": 26.553164,
        "lng": 128.062066
    },
    {
        "code": "B147220900023",
        "type": 16001,
        "name": "羽地小学校",
        "address": "名護市字田井等601-2",
        "lat": 26.618259,
        "lng": 128.010748
    },
    {
        "code": "B147220900032",
        "type": 16001,
        "name": "東江小学校",
        "address": "名護市東江1-7-2",
        "lat": 26.586172,
        "lng": 127.988049
    },
    {
        "code": "B147220900041",
        "type": 16001,
        "name": "名護小学校",
        "address": "名護市大西2-2-22",
        "lat": 26.594282,
        "lng": 127.982688
    },
    {
        "code": "B147220900050",
        "type": 16001,
        "name": "屋我地小学校",
        "address": "名護市字饒平名159",
        "lat": 26.655528,
        "lng": 128.008156
    },
    {
        "code": "B147220900069",
        "type": 16001,
        "name": "屋部小学校",
        "address": "名護市字屋部47",
        "lat": 26.600947,
        "lng": 127.953634
    },
    {
        "code": "B147220900078",
        "type": 16001,
        "name": "瀬喜田小学校",
        "address": "名護市字幸喜4-1",
        "lat": 26.53998,
        "lng": 127.950664
    },
    {
        "code": "B147220900087",
        "type": 16001,
        "name": "久辺小学校",
        "address": "名護市豊原208",
        "lat": 26.520179,
        "lng": 128.023826
    },
    {
        "code": "B147220900096",
        "type": 16001,
        "name": "真喜屋小学校",
        "address": "名護市字真喜屋571",
        "lat": 26.633587,
        "lng": 128.039516
    },
    {
        "code": "B147220900103",
        "type": 16001,
        "name": "安和小学校",
        "address": "名護市字安和174",
        "lat": 26.609585,
        "lng": 127.93194
    },
    {
        "code": "B147220900112",
        "type": 16001,
        "name": "屋部小学校中山分校",
        "address": "名護市中山208-1",
        "lat": 26.623946,
        "lng": 127.965965
    },
    {
        "code": "B147220900121",
        "type": 16001,
        "name": "稲田小学校",
        "address": "名護市我部祖河440-1",
        "lat": 26.623114,
        "lng": 128.003435
    },
    {
        "code": "B147220900130",
        "type": 16001,
        "name": "大宮小学校",
        "address": "名護市宮里5-13-22",
        "lat": 26.597365,
        "lng": 127.973882
    },
    {
        "code": "B147220900149",
        "type": 16001,
        "name": "大北小学校",
        "address": "名護市大北4-19-37",
        "lat": 26.605662,
        "lng": 127.992052
    },
    {
        "code": "C147220900012",
        "type": 16002,
        "name": "久志中学校",
        "address": "名護市汀間122",
        "lat": 26.55315,
        "lng": 128.061905
    },
    {
        "code": "C147220900021",
        "type": 16002,
        "name": "久辺中学校",
        "address": "名護市豊原208",
        "lat": 26.521457,
        "lng": 128.023465
    },
    {
        "code": "C147220900030",
        "type": 16002,
        "name": "名護中学校",
        "address": "名護市大西2-2-33",
        "lat": 26.594605,
        "lng": 127.980868
    },
    {
        "code": "C147220900049",
        "type": 16002,
        "name": "羽地中学校",
        "address": "名護市字仲尾次770",
        "lat": 26.624948,
        "lng": 128.021878
    },
    {
        "code": "C147220900058",
        "type": 16002,
        "name": "屋我地中学校",
        "address": "名護市饒平名159",
        "lat": 26.654667,
        "lng": 128.009434
    },
    {
        "code": "C147220900067",
        "type": 16002,
        "name": "屋部中学校",
        "address": "名護市屋部546",
        "lat": 26.599586,
        "lng": 127.950745
    },
    {
        "code": "C147220900076",
        "type": 16002,
        "name": "東江中学校",
        "address": "名護市大東2-1-1",
        "lat": 26.588088,
        "lng": 127.989771
    },
    {
        "code": "C147220900085",
        "type": 16002,
        "name": "大宮中学校",
        "address": "名護市宮里7-2-66",
        "lat": 26.604855,
        "lng": 127.979357
    },
    {
        "code": "C147320900010",
        "type": 16002,
        "name": "沖縄三育中学校",
        "address": "名護市旭川837",
        "lat": 26.628639,
        "lng": 127.951383
    },
    {
        "code": "D147220900010",
        "type": 16004,
        "name": "名護高等学校",
        "address": "名護市大西5-17-1",
        "lat": 26.601782,
        "lng": 127.985826
    },
    {
        "code": "D147220900029",
        "type": 16004,
        "name": "北部農林高等学校",
        "address": "名護市字宇茂佐13",
        "lat": 26.595031,
        "lng": 127.962217
    },
    {
        "code": "D147220900038",
        "type": 16004,
        "name": "名護商工高等学校",
        "address": "名護市大北4-1-23",
        "lat": 26.603178,
        "lng": 127.990379
    },
    {
        "code": "D147320900018",
        "type": 16004,
        "name": "ヒューマンキャンパス高等学校",
        "address": "名護市三原263",
        "lat": 26.558038,
        "lng": 128.076554
    },
    {
        "code": "E147220900017",
        "type": 16012,
        "name": "名護特別支援学校",
        "address": "名護市宇茂佐760",
        "lat": 26.59842,
        "lng": 127.958495
    },
    {
        "code": "E147220900026",
        "type": 16012,
        "name": "桜野特別支援学校",
        "address": "名護市字宇茂佐1787-1",
        "lat": 26.607836,
        "lng": 127.964022
    },
    {
        "code": "F147210111743",
        "type": 16007,
        "name": "名桜大学",
        "address": "名護市字為又1220-1",
        "lat": 26.623196,
        "lng": 127.974826
    },
    {
        "code": "G147110111832",
        "type": 16005,
        "name": "沖縄工業高等専門学校",
        "address": "名護市字辺野古905",
        "lat": 26.52595,
        "lng": 128.030281
    },
    {
        "code": "H147320900019",
        "type": 16016,
        "name": "北部地区医師会北部看護学校",
        "address": "名護市字為又1219-91",
        "lat": 26.61275,
        "lng": 127.97176
    },
    {
        "code": "H147320900028",
        "type": 16016,
        "name": "沖縄情報経理専門学校名護校",
        "address": "名護市宇茂佐915-11",
        "lat": 26.596726,
        "lng": 127.964183
    }
]