[
    {
        "code": "A147220500010",
        "type": 16011,
        "name": "大山幼稚園",
        "address": "宜野湾市大山5-16-1",
        "lat": 26.279689,
        "lng": 127.746339
    },
    {
        "code": "A147220500029",
        "type": 16011,
        "name": "嘉数幼稚園",
        "address": "宜野湾市真栄原1-13-1",
        "lat": 26.257143,
        "lng": 127.745445
    },
    {
        "code": "A147220500038",
        "type": 16011,
        "name": "普天間幼稚園",
        "address": "宜野湾市普天間1-10-1",
        "lat": 26.290625,
        "lng": 127.780118
    },
    {
        "code": "A147220500047",
        "type": 16011,
        "name": "宜野湾幼稚園",
        "address": "宜野湾市神山1-1-1",
        "lat": 26.268194,
        "lng": 127.766452
    },
    {
        "code": "A147220500056",
        "type": 16011,
        "name": "普天間第二幼稚園",
        "address": "宜野湾市新城2-8-19",
        "lat": 26.284665,
        "lng": 127.770897
    },
    {
        "code": "A147220500065",
        "type": 16011,
        "name": "大謝名幼稚園",
        "address": "宜野湾市大謝名5-12-1",
        "lat": 26.266917,
        "lng": 127.732751
    },
    {
        "code": "A147220500074",
        "type": 16011,
        "name": "志真志幼稚園",
        "address": "宜野湾市宜野湾3-5-1",
        "lat": 26.259462,
        "lng": 127.755459
    },
    {
        "code": "A147220500083",
        "type": 16011,
        "name": "長田幼稚園",
        "address": "宜野湾市長田3-19-1",
        "lat": 26.26051,
        "lng": 127.767422
    },
    {
        "code": "A147220500092",
        "type": 16011,
        "name": "はごろも幼稚園",
        "address": "宜野湾市大山6-23-1",
        "lat": 26.277541,
        "lng": 127.739512
    },
    {
        "code": "A147320500018",
        "type": 16011,
        "name": "慈愛幼稚園",
        "address": "宜野湾市字宇地泊229",
        "lat": 26.269886,
        "lng": 127.730747
    },
    {
        "code": "A147320500027",
        "type": 16011,
        "name": "真栄原カトリック幼稚園",
        "address": "宜野湾市真栄原3-16-1",
        "lat": 26.262645,
        "lng": 127.744756
    },
    {
        "code": "A147320500036",
        "type": 16011,
        "name": "シオン幼稚園",
        "address": "宜野湾市喜友名1-12-20",
        "lat": 26.286266,
        "lng": 127.764388
    },
    {
        "code": "A247320500017",
        "type": 16013,
        "name": "しののめこども園",
        "address": "宜野湾市新城2-43-1",
        "lat": 26.287166,
        "lng": 127.766985
    },
    {
        "code": "B147220500018",
        "type": 16001,
        "name": "宜野湾小学校",
        "address": "宜野湾市神山1-1-1",
        "lat": 26.269195,
        "lng": 127.767161
    },
    {
        "code": "B147220500027",
        "type": 16001,
        "name": "普天間小学校",
        "address": "宜野湾市普天間1-10-1",
        "lat": 26.290388,
        "lng": 127.778631
    },
    {
        "code": "B147220500036",
        "type": 16001,
        "name": "嘉数小学校",
        "address": "宜野湾市真栄原1-13-1",
        "lat": 26.257362,
        "lng": 127.744968
    },
    {
        "code": "B147220500045",
        "type": 16001,
        "name": "大山小学校",
        "address": "宜野湾市大山5-16-1",
        "lat": 26.279416,
        "lng": 127.746051
    },
    {
        "code": "B147220500054",
        "type": 16001,
        "name": "普天間第二小学校",
        "address": "宜野湾市新城2-8-19",
        "lat": 26.285027,
        "lng": 127.770687
    },
    {
        "code": "B147220500063",
        "type": 16001,
        "name": "大謝名小学校",
        "address": "宜野湾市大謝名5-12-1",
        "lat": 26.266417,
        "lng": 127.732914
    },
    {
        "code": "B147220500072",
        "type": 16001,
        "name": "志真志小学校",
        "address": "宜野湾市宜野湾3-5-1",
        "lat": 26.259835,
        "lng": 127.75594
    },
    {
        "code": "B147220500081",
        "type": 16001,
        "name": "長田小学校",
        "address": "宜野湾市長田3-19-1",
        "lat": 26.259613,
        "lng": 127.766911
    },
    {
        "code": "B147220500090",
        "type": 16001,
        "name": "はごろも小学校",
        "address": "宜野湾市大山6-23-1",
        "lat": 26.278341,
        "lng": 127.739535
    },
    {
        "code": "B147320500016",
        "type": 16001,
        "name": "沖縄カトリック小学校",
        "address": "宜野湾市真栄原3-16-1",
        "lat": 26.262001,
        "lng": 127.744968
    },
    {
        "code": "C147220500016",
        "type": 16002,
        "name": "普天間中学校",
        "address": "宜野湾市新城2-41-1",
        "lat": 26.285722,
        "lng": 127.767021
    },
    {
        "code": "C147220500025",
        "type": 16002,
        "name": "嘉数中学校",
        "address": "宜野湾市字我如古423",
        "lat": 26.260696,
        "lng": 127.745968
    },
    {
        "code": "C147220500034",
        "type": 16002,
        "name": "真志喜中学校",
        "address": "宜野湾市真志喜3-19-1",
        "lat": 26.274916,
        "lng": 127.733107
    },
    {
        "code": "C147220500043",
        "type": 16002,
        "name": "宜野湾中学校",
        "address": "宜野湾市赤道1-15-1",
        "lat": 26.274195,
        "lng": 127.771882
    },
    {
        "code": "C147320500014",
        "type": 16002,
        "name": "沖縄カトリック中学校",
        "address": "宜野湾市真栄原3-16-1",
        "lat": 26.261779,
        "lng": 127.74469
    },
    {
        "code": "D147220500014",
        "type": 16004,
        "name": "普天間高等学校",
        "address": "宜野湾市普天間1-24-1",
        "lat": 26.291221,
        "lng": 127.778131
    },
    {
        "code": "D147220500023",
        "type": 16004,
        "name": "中部商業高等学校",
        "address": "宜野湾市我如古2-2-1",
        "lat": 26.256529,
        "lng": 127.755329
    },
    {
        "code": "D147220500032",
        "type": 16004,
        "name": "宜野湾高等学校",
        "address": "宜野湾市真志喜2-25-1",
        "lat": 26.277254,
        "lng": 127.736136
    },
    {
        "code": "D147320500012",
        "type": 16004,
        "name": "沖縄カトリック高等学校",
        "address": "宜野湾市真栄原3-16-1",
        "lat": 26.262338,
        "lng": 127.744668
    },
    {
        "code": "F147310111787",
        "type": 16007,
        "name": "沖縄国際大学",
        "address": "宜野湾市宜野湾2-6-1",
        "lat": 26.262612,
        "lng": 127.753801
    },
    {
        "code": "H147320500013",
        "type": 16016,
        "name": "パシフィックテクノカレッジ学院",
        "address": "宜野湾市真志喜3-29-1",
        "lat": 26.277569,
        "lng": 127.732819
    },
    {
        "code": "H147320500022",
        "type": 16016,
        "name": "育成保育カレッジ学院",
        "address": "宜野湾市字宇地泊548",
        "lat": 26.26797,
        "lng": 127.728511
    },
    {
        "code": "H147320500031",
        "type": 16016,
        "name": "沖縄ホテル観光専門学校",
        "address": "宜野湾市大山7-9-8",
        "lat": 26.284783,
        "lng": 127.74546
    },
    {
        "code": "H147320500040",
        "type": 16016,
        "name": "沖縄医療工学院",
        "address": "宜野湾市大山7-9-8",
        "lat": 26.284668,
        "lng": 127.745399
    }
]