[
    {
        "code": "A147321200019",
        "type": 16011,
        "name": "聖マタイ幼稚園",
        "address": "豊見城市字豊見城977-1",
        "lat": 26.192302,
        "lng": 127.682457
    },
    {
        "code": "A247221200010",
        "type": 16013,
        "name": "上田こども園",
        "address": "豊見城市宜保1-1-4",
        "lat": 26.177196,
        "lng": 127.679031
    },
    {
        "code": "A247321200018",
        "type": 16013,
        "name": "おなが幼保連携型認定こども園",
        "address": "豊見城市字翁長647-6",
        "lat": 26.156429,
        "lng": 127.671208
    },
    {
        "code": "A247321200027",
        "type": 16013,
        "name": "豊見城こども園",
        "address": "豊見城市字高嶺446-96",
        "lat": 26.166471,
        "lng": 127.700222
    },
    {
        "code": "A247321200036",
        "type": 16013,
        "name": "伊良波こども園",
        "address": "豊見城市字伊良波382",
        "lat": 26.174075,
        "lng": 127.673254
    },
    {
        "code": "A247321200045",
        "type": 16013,
        "name": "座安こども園",
        "address": "豊見城市字座安55-2",
        "lat": 26.166845,
        "lng": 127.673574
    },
    {
        "code": "A247321200054",
        "type": 16013,
        "name": "豊崎こども園",
        "address": "豊見城市字豊崎1-1190",
        "lat": 26.15712,
        "lng": 127.663363
    },
    {
        "code": "A247321200063",
        "type": 16013,
        "name": "とよみこども園",
        "address": "豊見城市字根差部579-1",
        "lat": 26.186597,
        "lng": 127.688519
    },
    {
        "code": "A247321200072",
        "type": 16013,
        "name": "長嶺こども園",
        "address": "豊見城市字饒波1018-3",
        "lat": 26.181639,
        "lng": 127.695786
    },
    {
        "code": "A247321200081",
        "type": 16013,
        "name": "ゆたかこども園",
        "address": "豊見城市字豊見城601-2",
        "lat": 26.180694,
        "lng": 127.682431
    },
    {
        "code": "A247321200090",
        "type": 16013,
        "name": "ゆたか認定こども園",
        "address": "豊見城市字髙嶺589",
        "lat": 26.165137,
        "lng": 127.699405
    },
    {
        "code": "B147221200019",
        "type": 16001,
        "name": "座安小学校",
        "address": "豊見城市字座安230-1",
        "lat": 26.165862,
        "lng": 127.673098
    },
    {
        "code": "B147221200028",
        "type": 16001,
        "name": "長嶺小学校",
        "address": "豊見城市字饒波1018",
        "lat": 26.181486,
        "lng": 127.695263
    },
    {
        "code": "B147221200037",
        "type": 16001,
        "name": "上田小学校",
        "address": "豊見城市字宜保1-1-4",
        "lat": 26.177232,
        "lng": 127.679493
    },
    {
        "code": "B147221200046",
        "type": 16001,
        "name": "豊見城小学校",
        "address": "豊見城市字高嶺446-15",
        "lat": 26.167689,
        "lng": 127.698909
    },
    {
        "code": "B147221200055",
        "type": 16001,
        "name": "伊良波小学校",
        "address": "豊見城市字伊良波300",
        "lat": 26.173508,
        "lng": 127.672813
    },
    {
        "code": "B147221200064",
        "type": 16001,
        "name": "とよみ小学校",
        "address": "豊見城市字高安1132-2",
        "lat": 26.185341,
        "lng": 127.688728
    },
    {
        "code": "B147221200073",
        "type": 16001,
        "name": "豊崎小学校",
        "address": "豊見城市字豊崎1-406",
        "lat": 26.158047,
        "lng": 127.663451
    },
    {
        "code": "B147221200082",
        "type": 16001,
        "name": "ゆたか小学校",
        "address": "豊見城市字豊見城601-1",
        "lat": 26.181364,
        "lng": 127.68199
    },
    {
        "code": "C147221200017",
        "type": 16002,
        "name": "豊見城中学校",
        "address": "豊見城市字宜保1-1-2",
        "lat": 26.17745,
        "lng": 127.680812
    },
    {
        "code": "C147221200026",
        "type": 16002,
        "name": "長嶺中学校",
        "address": "豊見城市字饒波1068-2",
        "lat": 26.182788,
        "lng": 127.696191
    },
    {
        "code": "C147221200035",
        "type": 16002,
        "name": "伊良波中学校",
        "address": "豊見城市字伊良波273",
        "lat": 26.17162,
        "lng": 127.672702
    },
    {
        "code": "D147221200015",
        "type": 16004,
        "name": "南部農林高等学校",
        "address": "豊見城市字長堂182",
        "lat": 26.183786,
        "lng": 127.709364
    },
    {
        "code": "D147221200024",
        "type": 16004,
        "name": "豊見城高等学校",
        "address": "豊見城市字真玉橋217",
        "lat": 26.192201,
        "lng": 127.689282
    },
    {
        "code": "D147221200033",
        "type": 16004,
        "name": "豊見城南高等学校",
        "address": "豊見城市字翁長520",
        "lat": 26.160593,
        "lng": 127.672119
    },
    {
        "code": "H147321200014",
        "type": 16016,
        "name": "那覇看護専門学校",
        "address": "豊見城市字渡橋名289-23",
        "lat": 26.162817,
        "lng": 127.668535
    },
    {
        "code": "H147321200023",
        "type": 16016,
        "name": "沖縄アカデミー専門学校",
        "address": "豊見城市字真玉橋387-1",
        "lat": 26.190738,
        "lng": 127.696318
    }
]