[
    {
        "code": "A147221500018",
        "type": 16011,
        "name": "大里北幼稚園",
        "address": "南城市大里字嶺井222",
        "lat": 26.193491,
        "lng": 127.754918
    },
    {
        "code": "A147221500027",
        "type": 16011,
        "name": "大里南幼稚園",
        "address": "南城市大里字仲間928",
        "lat": 26.176366,
        "lng": 127.746039
    },
    {
        "code": "A147221500036",
        "type": 16011,
        "name": "佐敷幼稚園",
        "address": "南城市佐敷字佐敷1246-2",
        "lat": 26.16766,
        "lng": 127.783366
    },
    {
        "code": "A147221500045",
        "type": 16011,
        "name": "知念幼稚園",
        "address": "南城市知念字久手堅679",
        "lat": 26.170726,
        "lng": 127.819689
    },
    {
        "code": "A147221500054",
        "type": 16011,
        "name": "玉城幼稚園",
        "address": "南城市玉城字屋嘉部76",
        "lat": 26.147876,
        "lng": 127.767211
    },
    {
        "code": "A147221500063",
        "type": 16011,
        "name": "久高幼稚園",
        "address": "南城市知念字久高231-2",
        "lat": 26.156041,
        "lng": 127.887373
    },
    {
        "code": "A247321500015",
        "type": 16013,
        "name": "あおぞらこども園",
        "address": "南城市大里嶺井537",
        "lat": 26.19641,
        "lng": 127.750832
    },
    {
        "code": "A247321500024",
        "type": 16013,
        "name": "あおぞら第２こども園",
        "address": "南城市大里嶺井556",
        "lat": 26.195374,
        "lng": 127.751487
    },
    {
        "code": "A247321500033",
        "type": 16013,
        "name": "船越認定こども園",
        "address": "南城市玉城字船越939-2",
        "lat": 26.153195,
        "lng": 127.752409
    },
    {
        "code": "B147221500016",
        "type": 16001,
        "name": "大里北小学校",
        "address": "南城市大里字嶺井392",
        "lat": 26.194029,
        "lng": 127.754875
    },
    {
        "code": "B147221500025",
        "type": 16001,
        "name": "玉城小学校",
        "address": "南城市玉城字屋嘉部3",
        "lat": 26.145726,
        "lng": 127.764935
    },
    {
        "code": "B147221500034",
        "type": 16001,
        "name": "佐敷小学校",
        "address": "南城市佐敷字佐敷1193",
        "lat": 26.167903,
        "lng": 127.784952
    },
    {
        "code": "B147221500043",
        "type": 16001,
        "name": "知念小学校",
        "address": "南城市知念字久手堅679",
        "lat": 26.170942,
        "lng": 127.819569
    },
    {
        "code": "B147221500052",
        "type": 16001,
        "name": "大里南小学校",
        "address": "南城市大里字仲間1375",
        "lat": 26.173122,
        "lng": 127.748692
    },
    {
        "code": "B147221500061",
        "type": 16001,
        "name": "久高小学校",
        "address": "南城市知念字久高46",
        "lat": 26.157137,
        "lng": 127.886499
    },
    {
        "code": "B147221500070",
        "type": 16001,
        "name": "百名小学校",
        "address": "南城市玉城字百名54",
        "lat": 26.142381,
        "lng": 127.791287
    },
    {
        "code": "B147221500089",
        "type": 16001,
        "name": "船越小学校",
        "address": "南城市玉城字船越960",
        "lat": 26.153277,
        "lng": 127.75146
    },
    {
        "code": "B147221500098",
        "type": 16001,
        "name": "馬天小学校",
        "address": "南城市佐敷字津波古1800",
        "lat": 26.181096,
        "lng": 127.768303
    },
    {
        "code": "C147221500014",
        "type": 16002,
        "name": "久高中学校",
        "address": "南城市知念字久高46",
        "lat": 26.157057,
        "lng": 127.886507
    },
    {
        "code": "C147221500023",
        "type": 16002,
        "name": "大里中学校",
        "address": "南城市大里字仲間978",
        "lat": 26.178969,
        "lng": 127.746039
    },
    {
        "code": "C147221500032",
        "type": 16002,
        "name": "佐敷中学校",
        "address": "南城市佐敷字兼久16-1",
        "lat": 26.171419,
        "lng": 127.785148
    },
    {
        "code": "C147221500041",
        "type": 16002,
        "name": "玉城中学校",
        "address": "南城市玉城字富里153",
        "lat": 26.144945,
        "lng": 127.765863
    },
    {
        "code": "C147221500050",
        "type": 16002,
        "name": "知念中学校",
        "address": "南城市知念字久手堅700",
        "lat": 26.172418,
        "lng": 127.819618
    },
    {
        "code": "H147321500011",
        "type": 16016,
        "name": "沖縄国際学院高等専修学校",
        "address": "南城市玉城字富里143",
        "lat": 26.144451,
        "lng": 127.766886
    },
    {
        "code": "H147321500020",
        "type": 16016,
        "name": "高等専修学校珊瑚舎スコーレ高等部",
        "address": "南城市佐敷字津波古兼久原509-4",
        "lat": 26.183048,
        "lng": 127.77505
    }
]