[
    {
        "code": "A147221400019",
        "type": 16011,
        "name": "久松幼稚園",
        "address": "宮古島市平良字久貝933",
        "lat": 24.792528,
        "lng": 125.271445
    },
    {
        "code": "A147221400028",
        "type": 16011,
        "name": "平一幼稚園",
        "address": "宮古島市平良字下里1141",
        "lat": 24.798173,
        "lng": 125.283776
    },
    {
        "code": "A147221400037",
        "type": 16011,
        "name": "北幼稚園",
        "address": "宮古島市平良字西里217",
        "lat": 24.805306,
        "lng": 125.28221
    },
    {
        "code": "A147221400046",
        "type": 16011,
        "name": "鏡原幼稚園",
        "address": "宮古島市平良字下里3107-2",
        "lat": 24.782425,
        "lng": 125.310226
    },
    {
        "code": "A147221400055",
        "type": 16011,
        "name": "西城幼稚園",
        "address": "宮古島市城辺字西里添1048",
        "lat": 24.759739,
        "lng": 125.364085
    },
    {
        "code": "A147221400064",
        "type": 16011,
        "name": "城辺幼稚園",
        "address": "宮古島市城辺字福里878",
        "lat": 24.753556,
        "lng": 125.393717
    },
    {
        "code": "A147221400073",
        "type": 16011,
        "name": "池間幼稚園",
        "address": "宮古島市平良字池間887",
        "lat": 24.926814,
        "lng": 125.246598
    },
    {
        "code": "A147221400082",
        "type": 16011,
        "name": "佐良浜幼稚園",
        "address": "宮古島市伊良部字前里添717",
        "lat": 24.838612,
        "lng": 125.206724
    },
    {
        "code": "A147221400091",
        "type": 16011,
        "name": "砂川幼稚園",
        "address": "宮古島市城辺字砂川605",
        "lat": 24.74367,
        "lng": 125.348528
    },
    {
        "code": "A147221400108",
        "type": 16011,
        "name": "福嶺幼稚園",
        "address": "宮古島市城辺字新城448",
        "lat": 24.743166,
        "lng": 125.411162
    },
    {
        "code": "A147221400117",
        "type": 16011,
        "name": "狩俣幼稚園",
        "address": "宮古島市平良字狩俣1242",
        "lat": 24.894538,
        "lng": 125.276207
    },
    {
        "code": "A147221400126",
        "type": 16011,
        "name": "西辺幼稚園",
        "address": "宮古島市平良字西原1081",
        "lat": 24.830516,
        "lng": 125.297648
    },
    {
        "code": "A147221400135",
        "type": 16011,
        "name": "南幼稚園",
        "address": "宮古島市平良字下里1068",
        "lat": 24.79405,
        "lng": 125.282022
    },
    {
        "code": "A147221400144",
        "type": 16011,
        "name": "東幼稚園",
        "address": "宮古島市平良字東仲宗根698",
        "lat": 24.806106,
        "lng": 125.297106
    },
    {
        "code": "A147321400017",
        "type": 16011,
        "name": "カトリック学園みつば幼稚園",
        "address": "宮古島市平良字下里156-1",
        "lat": 24.80284,
        "lng": 125.27784
    },
    {
        "code": "A247221400018",
        "type": 16013,
        "name": "上野こども園",
        "address": "宮古島市上野字新里506",
        "lat": 24.741839,
        "lng": 125.331833
    },
    {
        "code": "A247221400027",
        "type": 16013,
        "name": "下地こども園",
        "address": "宮古島市下地字洲鎌309-4",
        "lat": 24.747539,
        "lng": 125.283348
    },
    {
        "code": "A247221400036",
        "type": 16013,
        "name": "伊良部こども園",
        "address": "宮古島市伊良部字長浜1394",
        "lat": 24.832459,
        "lng": 125.169516
    },
    {
        "code": "A247321400016",
        "type": 16013,
        "name": "はなぞのこどもえん",
        "address": "宮古島市平良字東仲宗根617-6",
        "lat": 24.807125,
        "lng": 125.294552
    },
    {
        "code": "B147221400017",
        "type": 16001,
        "name": "北小学校",
        "address": "宮古島市平良字西里217",
        "lat": 24.805637,
        "lng": 125.282125
    },
    {
        "code": "B147221400026",
        "type": 16001,
        "name": "平良第一小学校",
        "address": "宮古島市平良字下里1141",
        "lat": 24.797782,
        "lng": 125.284712
    },
    {
        "code": "B147221400035",
        "type": 16001,
        "name": "狩俣小学校",
        "address": "宮古島市平良字狩俣1242",
        "lat": 24.894473,
        "lng": 125.275971
    },
    {
        "code": "B147221400044",
        "type": 16001,
        "name": "下地小学校",
        "address": "宮古島市下地字洲鎌305",
        "lat": 24.746007,
        "lng": 125.284468
    },
    {
        "code": "B147221400053",
        "type": 16001,
        "name": "西辺小学校",
        "address": "宮古島市平良字西原1081",
        "lat": 24.830331,
        "lng": 125.298236
    },
    {
        "code": "B147221400062",
        "type": 16001,
        "name": "城辺小学校",
        "address": "宮古島市城辺字福里878",
        "lat": 24.752912,
        "lng": 125.393639
    },
    {
        "code": "B147221400071",
        "type": 16001,
        "name": "上野小学校",
        "address": "宮古島市上野字野原734-2",
        "lat": 24.742841,
        "lng": 125.332414
    },
    {
        "code": "B147221400080",
        "type": 16001,
        "name": "久松小学校",
        "address": "宮古島市平良字久貝933",
        "lat": 24.792921,
        "lng": 125.271481
    },
    {
        "code": "B147221400099",
        "type": 16001,
        "name": "池間小学校",
        "address": "宮古島市平良字池間903",
        "lat": 24.927457,
        "lng": 125.247648
    },
    {
        "code": "B147221400106",
        "type": 16001,
        "name": "西城小学校",
        "address": "宮古島市城辺字西里添1048",
        "lat": 24.760462,
        "lng": 125.364247
    },
    {
        "code": "B147221400115",
        "type": 16001,
        "name": "砂川小学校",
        "address": "宮古島市城辺字砂川605",
        "lat": 24.743753,
        "lng": 125.34838
    },
    {
        "code": "B147221400124",
        "type": 16001,
        "name": "福嶺小学校",
        "address": "宮古島市城辺字新城448",
        "lat": 24.742496,
        "lng": 125.411216
    },
    {
        "code": "B147221400133",
        "type": 16001,
        "name": "鏡原小学校",
        "address": "宮古島市平良字下里3107-2",
        "lat": 24.782507,
        "lng": 125.31015
    },
    {
        "code": "B147221400142",
        "type": 16001,
        "name": "南小学校",
        "address": "宮古島市平良字下里1068",
        "lat": 24.794658,
        "lng": 125.282808
    },
    {
        "code": "B147221400151",
        "type": 16001,
        "name": "東小学校",
        "address": "宮古島市平良字東仲宗根698",
        "lat": 24.805507,
        "lng": 125.297992
    },
    {
        "code": "B147221400160",
        "type": 16001,
        "name": "伊良部島小学校",
        "address": "宮古島市伊良部字池間添1720",
        "lat": 24.836797,
        "lng": 125.20603
    },
    {
        "code": "C147221400015",
        "type": 16002,
        "name": "上野中学校",
        "address": "宮古島市上野字新里356-1",
        "lat": 24.741105,
        "lng": 125.333293
    },
    {
        "code": "C147221400024",
        "type": 16002,
        "name": "鏡原中学校",
        "address": "宮古島市平良字下里3107-3",
        "lat": 24.78182,
        "lng": 125.311512
    },
    {
        "code": "C147221400033",
        "type": 16002,
        "name": "北中学校",
        "address": "宮古島市平良字西仲宗根500",
        "lat": 24.808328,
        "lng": 125.289009
    },
    {
        "code": "C147221400042",
        "type": 16002,
        "name": "下地中学校",
        "address": "宮古島市下地字洲鎌250",
        "lat": 24.744662,
        "lng": 125.283541
    },
    {
        "code": "C147221400051",
        "type": 16002,
        "name": "平良中学校",
        "address": "宮古島市平良字西里724",
        "lat": 24.798824,
        "lng": 125.286909
    },
    {
        "code": "C147221400060",
        "type": 16002,
        "name": "池間中学校",
        "address": "宮古島市平良字池間903",
        "lat": 24.927281,
        "lng": 125.247555
    },
    {
        "code": "C147221400079",
        "type": 16002,
        "name": "西辺中学校",
        "address": "宮古島市平良字西原1138",
        "lat": 24.828899,
        "lng": 125.299994
    },
    {
        "code": "C147221400088",
        "type": 16002,
        "name": "狩俣中学校",
        "address": "宮古島市平良字狩俣4337",
        "lat": 24.886618,
        "lng": 125.280951
    },
    {
        "code": "C147221400131",
        "type": 16002,
        "name": "久松中学校",
        "address": "宮古島市平良字久貝809-1",
        "lat": 24.792704,
        "lng": 125.27031
    },
    {
        "code": "C147221400140",
        "type": 16002,
        "name": "伊良部島中学校",
        "address": "宮古島市伊良部字池間添1720",
        "lat": 24.836676,
        "lng": 125.206007
    },
    {
        "code": "C147221400159",
        "type": 16002,
        "name": "城東中学校",
        "address": "宮古島市城辺字西里添1080",
        "lat": 24.762013,
        "lng": 125.363728
    },
    {
        "code": "D147221400013",
        "type": 16004,
        "name": "宮古高等学校",
        "address": "宮古島市平良字西里718-1",
        "lat": 24.797218,
        "lng": 125.287007
    },
    {
        "code": "D147221400022",
        "type": 16004,
        "name": "宮古工業高等学校",
        "address": "宮古島市平良字東仲宗根968-4",
        "lat": 24.798694,
        "lng": 125.299994
    },
    {
        "code": "D147221400040",
        "type": 16004,
        "name": "宮古総合実業高等学校",
        "address": "宮古島市平良字下里280",
        "lat": 24.801185,
        "lng": 125.27544
    },
    {
        "code": "E147221400010",
        "type": 16012,
        "name": "宮古特別支援学校",
        "address": "宮古島市平良字狩俣4005-1",
        "lat": 24.853934,
        "lng": 125.296562
    },
    {
        "code": "H247321400011",
        "type": 16015,
        "name": "宮古すみれ洋裁学院",
        "address": "宮古島市平良字下里578",
        "lat": 24.803073,
        "lng": 125.281051
    }
]