[
    {
        "code": "A147230100013",
        "type": 16011,
        "name": "辺土名幼稚園",
        "address": "国頭郡国頭村字辺土名182",
        "lat": 26.747793,
        "lng": 128.177385
    },
    {
        "code": "A247230100012",
        "type": 16013,
        "name": "くにがみこども園",
        "address": "国頭郡国頭村字辺土名1350",
        "lat": 26.74211,
        "lng": 128.176865
    },
    {
        "code": "B147230100011",
        "type": 16001,
        "name": "辺土名小学校",
        "address": "国頭郡国頭村字辺土名181",
        "lat": 26.747246,
        "lng": 128.177168
    },
    {
        "code": "B147230100020",
        "type": 16001,
        "name": "佐手小学校",
        "address": "国頭郡国頭村佐手293",
        "lat": 26.787132,
        "lng": 128.221912
    },
    {
        "code": "B147230100039",
        "type": 16001,
        "name": "奥間小学校",
        "address": "国頭郡国頭村字奥間1",
        "lat": 26.732997,
        "lng": 128.172808
    },
    {
        "code": "B147230100048",
        "type": 16001,
        "name": "安田小学校",
        "address": "国頭郡国頭村安田279",
        "lat": 26.746249,
        "lng": 128.31874
    },
    {
        "code": "B147230100057",
        "type": 16001,
        "name": "北国小学校",
        "address": "国頭郡国頭村宜名真535",
        "lat": 26.86057,
        "lng": 128.248658
    },
    {
        "code": "B147230100066",
        "type": 16001,
        "name": "安波小学校",
        "address": "国頭郡国頭村安波601",
        "lat": 26.718113,
        "lng": 128.283243
    },
    {
        "code": "B147230100075",
        "type": 16001,
        "name": "奥小学校",
        "address": "国頭郡国頭村奥313",
        "lat": 26.841324,
        "lng": 128.289405
    },
    {
        "code": "C147230100019",
        "type": 16002,
        "name": "国頭中学校",
        "address": "国頭郡国頭村辺土名1463",
        "lat": 26.746718,
        "lng": 128.175279
    }
]