[
    {
        "code": "A147231300019",
        "type": 16011,
        "name": "宜野座幼稚園",
        "address": "国頭郡宜野座村字宜野座1190",
        "lat": 26.480547,
        "lng": 127.975164
    },
    {
        "code": "A147231300028",
        "type": 16011,
        "name": "漢那幼稚園",
        "address": "国頭郡宜野座村字漢那1987-5",
        "lat": 26.47775,
        "lng": 127.952983
    },
    {
        "code": "A147231300037",
        "type": 16011,
        "name": "松田幼稚園",
        "address": "国頭郡宜野座村字松田601",
        "lat": 26.488409,
        "lng": 127.991447
    },
    {
        "code": "B147231300017",
        "type": 16001,
        "name": "宜野座小学校",
        "address": "国頭郡宜野座村字宜野座1190",
        "lat": 26.480653,
        "lng": 127.975136
    },
    {
        "code": "B147231300026",
        "type": 16001,
        "name": "漢那小学校",
        "address": "国頭郡宜野座村字漢那1987-5",
        "lat": 26.477899,
        "lng": 127.953351
    },
    {
        "code": "B147231300035",
        "type": 16001,
        "name": "松田小学校",
        "address": "国頭郡宜野座村字松田601",
        "lat": 26.487958,
        "lng": 127.991245
    },
    {
        "code": "C147231300015",
        "type": 16002,
        "name": "宜野座中学校",
        "address": "国頭郡宜野座村字惣慶1505",
        "lat": 26.47907,
        "lng": 127.969664
    },
    {
        "code": "D147231300013",
        "type": 16004,
        "name": "宜野座高等学校",
        "address": "国頭郡宜野座村字宜野座1",
        "lat": 26.483125,
        "lng": 127.978358
    }
]