[
    {
        "code": "A147231100011",
        "type": 16011,
        "name": "安富祖幼稚園",
        "address": "国頭郡恩納村字安富祖1873",
        "lat": 26.512134,
        "lng": 127.899627
    },
    {
        "code": "A147231100020",
        "type": 16011,
        "name": "恩納幼稚園",
        "address": "国頭郡恩納村字恩納6069-1",
        "lat": 26.489232,
        "lng": 127.84541
    },
    {
        "code": "A147231100039",
        "type": 16011,
        "name": "仲泊幼稚園",
        "address": "国頭郡恩納村字仲泊433",
        "lat": 26.440187,
        "lng": 127.803125
    },
    {
        "code": "A147231100048",
        "type": 16011,
        "name": "山田幼稚園",
        "address": "国頭郡恩納村字山田997",
        "lat": 26.43323,
        "lng": 127.776978
    },
    {
        "code": "A147231100057",
        "type": 16011,
        "name": "喜瀬武原幼稚園",
        "address": "国頭郡恩納村字喜瀬武原458-16",
        "lat": 26.489703,
        "lng": 127.910247
    },
    {
        "code": "B147231100019",
        "type": 16001,
        "name": "恩納小学校",
        "address": "国頭郡恩納村字恩納6069-1",
        "lat": 26.489229,
        "lng": 127.844994
    },
    {
        "code": "B147231100028",
        "type": 16001,
        "name": "山田小学校",
        "address": "国頭郡恩納村字山田997",
        "lat": 26.433236,
        "lng": 127.776987
    },
    {
        "code": "B147231100037",
        "type": 16001,
        "name": "安富祖小学校",
        "address": "国頭郡恩納村字安富祖1868-1",
        "lat": 26.512145,
        "lng": 127.898602
    },
    {
        "code": "B147231100046",
        "type": 16001,
        "name": "仲泊小学校",
        "address": "国頭郡恩納村字仲泊433-1",
        "lat": 26.440819,
        "lng": 127.803152
    },
    {
        "code": "B147231100055",
        "type": 16001,
        "name": "喜瀬武原小学校",
        "address": "国頭郡恩納村字喜瀬武原458-16",
        "lat": 26.490007,
        "lng": 127.910306
    },
    {
        "code": "C147231100017",
        "type": 16002,
        "name": "うんな中学校",
        "address": "国頭郡恩納村字恩納7409-1",
        "lat": 26.475901,
        "lng": 127.840219
    },
    {
        "code": "F147310111778",
        "type": 16007,
        "name": "沖縄科学技術大学院大学",
        "address": "国頭郡恩納村字谷茶1919-1",
        "lat": 26.46111,
        "lng": 127.830534
    }
]