[
    {
        "code": "A147232500015",
        "type": 16011,
        "name": "屋良幼稚園",
        "address": "中頭郡嘉手納町屋良1-31-1",
        "lat": 26.36512,
        "lng": 127.764949
    },
    {
        "code": "A147232500024",
        "type": 16011,
        "name": "嘉手納幼稚園",
        "address": "中頭郡嘉手納町字嘉手納312",
        "lat": 26.364331,
        "lng": 127.753308
    },
    {
        "code": "A147332500013",
        "type": 16011,
        "name": "栄光幼稚園",
        "address": "中頭郡嘉手納町屋良964-1",
        "lat": 26.364839,
        "lng": 127.767376
    },
    {
        "code": "B147232500013",
        "type": 16001,
        "name": "屋良小学校",
        "address": "中頭郡嘉手納町屋良1-31-1",
        "lat": 26.36474,
        "lng": 127.764788
    },
    {
        "code": "B147232500022",
        "type": 16001,
        "name": "嘉手納小学校",
        "address": "中頭郡嘉手納町嘉手納312",
        "lat": 26.364846,
        "lng": 127.752037
    },
    {
        "code": "C147232500011",
        "type": 16002,
        "name": "嘉手納中学校",
        "address": "中頭郡嘉手納町字嘉手納312",
        "lat": 26.365047,
        "lng": 127.754019
    },
    {
        "code": "D147232500019",
        "type": 16004,
        "name": "嘉手納高等学校",
        "address": "中頭郡嘉手納町字屋良806",
        "lat": 26.368214,
        "lng": 127.766824
    }
]