[
    {
        "code": "A147232900011",
        "type": 16011,
        "name": "西原幼稚園",
        "address": "中頭郡西原町字与那城353",
        "lat": 26.217405,
        "lng": 127.760911
    },
    {
        "code": "A147232900020",
        "type": 16011,
        "name": "坂田幼稚園",
        "address": "中頭郡西原町字翁長626-1",
        "lat": 26.237526,
        "lng": 127.751746
    },
    {
        "code": "A147232900039",
        "type": 16011,
        "name": "西原東幼稚園",
        "address": "中頭郡西原町字小橋川125",
        "lat": 26.228602,
        "lng": 127.763818
    },
    {
        "code": "A147232900048",
        "type": 16011,
        "name": "西原南幼稚園",
        "address": "中頭郡西原町字安室122-1",
        "lat": 26.219627,
        "lng": 127.753864
    },
    {
        "code": "A147332900019",
        "type": 16011,
        "name": "善隣学園善隣幼稚園",
        "address": "中頭郡西原町字幸地1027-1",
        "lat": 26.226512,
        "lng": 127.737506
    },
    {
        "code": "B147110000016",
        "type": 16001,
        "name": "琉球大学教育学部附属小学校",
        "address": "中頭郡西原町千原1",
        "lat": 26.243531,
        "lng": 127.765356
    },
    {
        "code": "B147232900019",
        "type": 16001,
        "name": "西原小学校",
        "address": "中頭郡西原町字与那城353",
        "lat": 26.217724,
        "lng": 127.761612
    },
    {
        "code": "B147232900028",
        "type": 16001,
        "name": "坂田小学校",
        "address": "中頭郡西原町字翁長627",
        "lat": 26.236646,
        "lng": 127.751065
    },
    {
        "code": "B147232900037",
        "type": 16001,
        "name": "西原東小学校",
        "address": "中頭郡西原町字嘉手苅90",
        "lat": 26.228088,
        "lng": 127.766079
    },
    {
        "code": "B147232900046",
        "type": 16001,
        "name": "西原南小学校",
        "address": "中頭郡西原町字安室123-2",
        "lat": 26.220172,
        "lng": 127.754302
    },
    {
        "code": "C147110000014",
        "type": 16002,
        "name": "琉球大学教育学部附属中学校",
        "address": "中頭郡西原町千原1",
        "lat": 26.244392,
        "lng": 127.766689
    },
    {
        "code": "C147232900017",
        "type": 16002,
        "name": "西原中学校",
        "address": "中頭郡西原町字翁長238",
        "lat": 26.228357,
        "lng": 127.755215
    },
    {
        "code": "C147232900026",
        "type": 16002,
        "name": "西原東中学校",
        "address": "中頭郡西原町字小那覇308-1",
        "lat": 26.22195,
        "lng": 127.769051
    },
    {
        "code": "D147232900015",
        "type": 16004,
        "name": "西原高等学校",
        "address": "中頭郡西原町字翁長610",
        "lat": 26.238781,
        "lng": 127.751441
    },
    {
        "code": "E147232900012",
        "type": 16012,
        "name": "森川特別支援学校",
        "address": "中頭郡西原町字森川151",
        "lat": 26.250891,
        "lng": 127.755273
    },
    {
        "code": "F147110111736",
        "type": 16007,
        "name": "琉球大学",
        "address": "中頭郡西原町字千原1",
        "lat": 26.24129,
        "lng": 127.758974
    },
    {
        "code": "F147310111803",
        "type": 16007,
        "name": "沖縄キリスト教学院大学",
        "address": "中頭郡西原町字翁長777",
        "lat": 26.238165,
        "lng": 127.755898
    },
    {
        "code": "F247310111811",
        "type": 16006,
        "name": "沖縄キリスト教短期大学",
        "address": "中頭郡西原町字翁長777",
        "lat": 26.238503,
        "lng": 127.75644
    }
]