[
    {
        "code": "A147232600014",
        "type": 16011,
        "name": "北玉幼稚園",
        "address": "中頭郡北谷町字吉原875",
        "lat": 26.313725,
        "lng": 127.772944
    },
    {
        "code": "A147232600032",
        "type": 16011,
        "name": "浜川幼稚園",
        "address": "中頭郡北谷町字宮城1-172",
        "lat": 26.327283,
        "lng": 127.749081
    },
    {
        "code": "A147232600041",
        "type": 16011,
        "name": "北谷第二幼稚園",
        "address": "中頭郡北谷町字桑江567-1",
        "lat": 26.324827,
        "lng": 127.773644
    },
    {
        "code": "B147232600021",
        "type": 16001,
        "name": "北玉小学校",
        "address": "中頭郡北谷町字吉原875",
        "lat": 26.314053,
        "lng": 127.772936
    },
    {
        "code": "B147232600030",
        "type": 16001,
        "name": "浜川小学校",
        "address": "中頭郡北谷町字宮城1-172",
        "lat": 26.326829,
        "lng": 127.74902
    },
    {
        "code": "B147232600049",
        "type": 16001,
        "name": "北谷第二小学校",
        "address": "中頭郡北谷町字桑江567-1",
        "lat": 26.324413,
        "lng": 127.772602
    },
    {
        "code": "C147232600010",
        "type": 16002,
        "name": "北谷中学校",
        "address": "中頭郡北谷町吉原480",
        "lat": 26.319941,
        "lng": 127.779935
    },
    {
        "code": "C147232600029",
        "type": 16002,
        "name": "桑江中学校",
        "address": "中頭郡北谷町美浜1-4-7",
        "lat": 26.312052,
        "lng": 127.760326
    },
    {
        "code": "D147232600018",
        "type": 16004,
        "name": "北谷高等学校",
        "address": "中頭郡北谷町字桑江414",
        "lat": 26.32233,
        "lng": 127.76513
    },
    {
        "code": "H147332600017",
        "type": 16016,
        "name": "沖縄中央学園",
        "address": "北谷町伊平204",
        "lat": 26.322311,
        "lng": 127.75838
    },
    {
        "code": "H147332600026",
        "type": 16016,
        "name": "沖縄ブライダルモード学園",
        "address": "北谷町伊平204",
        "lat": 26.322212,
        "lng": 127.758365
    },
    {
        "code": "H147332600035",
        "type": 16016,
        "name": "サイ・テク・カレッジ美浜",
        "address": "中頭郡北谷町美浜1-5-16",
        "lat": 26.313155,
        "lng": 127.761487
    },
    {
        "code": "H247332600016",
        "type": 16015,
        "name": "ＨｏｐｅＩｎｔｅｒｎａｔｉｏｎａｌＡｃａｄｅｍｙ",
        "address": "中頭郡北谷町宮城1-51",
        "lat": 26.328926,
        "lng": 127.744499
    }
]