[
    {
        "code": "A147235000013",
        "type": 16011,
        "name": "南風原幼稚園",
        "address": "南風原町字兼城684",
        "lat": 26.192552,
        "lng": 127.72892
    },
    {
        "code": "A147235000022",
        "type": 16011,
        "name": "津嘉山幼稚園",
        "address": "島尻郡南風原町字津嘉山684",
        "lat": 26.184539,
        "lng": 127.716544
    },
    {
        "code": "A147235000031",
        "type": 16011,
        "name": "北丘幼稚園",
        "address": "島尻郡南風原町字宮平336",
        "lat": 26.201545,
        "lng": 127.733259
    },
    {
        "code": "A147235000040",
        "type": 16011,
        "name": "翔南幼稚園",
        "address": "島尻郡南風原町喜屋武381",
        "lat": 26.184497,
        "lng": 127.730104
    },
    {
        "code": "A147335000011",
        "type": 16011,
        "name": "開邦幼稚園",
        "address": "南風原町宮城428-1",
        "lat": 26.2077,
        "lng": 127.73929
    },
    {
        "code": "B147235000011",
        "type": 16001,
        "name": "南風原小学校",
        "address": "島尻郡南風原町字兼城685",
        "lat": 26.192035,
        "lng": 127.729556
    },
    {
        "code": "B147235000020",
        "type": 16001,
        "name": "津嘉山小学校",
        "address": "島尻郡南風原町字津嘉山684",
        "lat": 26.183953,
        "lng": 127.717919
    },
    {
        "code": "B147235000039",
        "type": 16001,
        "name": "北丘小学校",
        "address": "島尻郡南風原町字宮平336",
        "lat": 26.202145,
        "lng": 127.732472
    },
    {
        "code": "B147235000048",
        "type": 16001,
        "name": "翔南小学校",
        "address": "島尻郡南風原町字喜屋武450",
        "lat": 26.183786,
        "lng": 127.729057
    },
    {
        "code": "C147235000019",
        "type": 16002,
        "name": "南風原中学校",
        "address": "島尻郡南風原町字兼城780",
        "lat": 26.192341,
        "lng": 127.731889
    },
    {
        "code": "C147235000028",
        "type": 16002,
        "name": "南星中学校",
        "address": "島尻郡南風原町字照屋200",
        "lat": 26.187258,
        "lng": 127.723196
    },
    {
        "code": "C147235000037",
        "type": 16002,
        "name": "開邦中学校",
        "address": "島尻郡南風原町字新川646",
        "lat": 26.217424,
        "lng": 127.732551
    },
    {
        "code": "D147235000017",
        "type": 16004,
        "name": "南風原高等学校",
        "address": "島尻郡南風原町字津嘉山1140",
        "lat": 26.195562,
        "lng": 127.715835
    },
    {
        "code": "D147235000026",
        "type": 16004,
        "name": "開邦高等学校",
        "address": "島尻郡南風原町字新川646",
        "lat": 26.217394,
        "lng": 127.732638
    },
    {
        "code": "E147235000014",
        "type": 16012,
        "name": "沖縄盲学校",
        "address": "島尻郡南風原町字兼城473",
        "lat": 26.197646,
        "lng": 127.721751
    },
    {
        "code": "E147235000023",
        "type": 16012,
        "name": "南風原高等支援学校",
        "address": "島尻郡南風原町字津嘉山1140",
        "lat": 26.19603,
        "lng": 127.715167
    }
]