[
    {
        "code": "A105320900014",
        "type": 16011,
        "name": "鹿角カトリック幼稚園",
        "address": "鹿角市十和田毛馬内字下小路59-1",
        "lat": 40.274335,
        "lng": 140.766581
    },
    {
        "code": "B105220910012",
        "type": 16001,
        "name": "花輪小学校",
        "address": "鹿角市花輪字中花輪88",
        "lat": 40.189414,
        "lng": 140.792331
    },
    {
        "code": "B105220910156",
        "type": 16001,
        "name": "大湯小学校",
        "address": "鹿角市十和田大湯字権現堂15-1",
        "lat": 40.297457,
        "lng": 140.828158
    },
    {
        "code": "B105220910218",
        "type": 16001,
        "name": "十和田小学校",
        "address": "鹿角市十和田毛馬内字上新田1-1",
        "lat": 40.261904,
        "lng": 140.772885
    },
    {
        "code": "B105220910414",
        "type": 16001,
        "name": "尾去沢小学校",
        "address": "鹿角市尾去沢字上山201-1",
        "lat": 40.182747,
        "lng": 140.773999
    },
    {
        "code": "B105220910584",
        "type": 16001,
        "name": "八幡平小学校",
        "address": "鹿角市八幡平字長嶺川原1",
        "lat": 40.137475,
        "lng": 140.797055
    },
    {
        "code": "B105220919521",
        "type": 16001,
        "name": "柴平小学校",
        "address": "鹿角市花輪字高市向35",
        "lat": 40.235453,
        "lng": 140.806778
    },
    {
        "code": "C105220940167",
        "type": 16002,
        "name": "十和田中学校",
        "address": "鹿角市十和田毛馬内字上土ヶ久保22-1",
        "lat": 40.265515,
        "lng": 140.779829
    },
    {
        "code": "C105220940318",
        "type": 16002,
        "name": "尾去沢中学校",
        "address": "鹿角市尾去沢字上山239-1",
        "lat": 40.184414,
        "lng": 140.776499
    },
    {
        "code": "C105220940416",
        "type": 16002,
        "name": "八幡平中学校",
        "address": "鹿角市八幡平字諸田4-1",
        "lat": 40.13692,
        "lng": 140.794
    },
    {
        "code": "C105220950020",
        "type": 16002,
        "name": "花輪中学校",
        "address": "鹿角市花輪字陣場125",
        "lat": 40.198709,
        "lng": 140.796147
    },
    {
        "code": "D105220955112",
        "type": 16004,
        "name": "花輪高等学校",
        "address": "鹿角市花輪字明堂長根12",
        "lat": 40.177749,
        "lng": 140.793165
    },
    {
        "code": "D105220955149",
        "type": 16004,
        "name": "十和田高等学校",
        "address": "鹿角市十和田毛馬内字下寄熊9",
        "lat": 40.266348,
        "lng": 140.770663
    },
    {
        "code": "E105220999162",
        "type": 16012,
        "name": "比内支援学校かづの校",
        "address": "鹿角市花輪字案内2",
        "lat": 40.191636,
        "lng": 140.807607
    }
]