[
    {
        "code": "A105221100012",
        "type": 16011,
        "name": "天王幼稚園",
        "address": "潟上市天王字宮の後20",
        "lat": 39.886942,
        "lng": 139.985285
    },
    {
        "code": "A105321100010",
        "type": 16011,
        "name": "追分幼稚園附属追分ベビー園",
        "address": "潟上市天王字長沼5",
        "lat": 39.81078,
        "lng": 140.052782
    },
    {
        "code": "A205221100011",
        "type": 16013,
        "name": "出戸こども園",
        "address": "潟上市天王字北野231-2",
        "lat": 39.841971,
        "lng": 140.023537
    },
    {
        "code": "A205221100020",
        "type": 16013,
        "name": "若竹幼児教育センター",
        "address": "潟上市飯田川下虻川字八ﾂ口80",
        "lat": 39.884137,
        "lng": 140.071328
    },
    {
        "code": "A205221100039",
        "type": 16013,
        "name": "昭和こども園",
        "address": "潟上市昭和大久保字堤の上1-3",
        "lat": 39.869923,
        "lng": 140.065929
    },
    {
        "code": "B105221113131",
        "type": 16001,
        "name": "大豊小学校",
        "address": "潟上市昭和大久保字高田22",
        "lat": 39.865566,
        "lng": 140.054587
    },
    {
        "code": "B105221113319",
        "type": 16001,
        "name": "飯田川小学校",
        "address": "潟上市飯田川和田妹川字岩崎12-12",
        "lat": 39.885312,
        "lng": 140.07236
    },
    {
        "code": "B105221113417",
        "type": 16001,
        "name": "天王小学校",
        "address": "潟上市天王字児玉82",
        "lat": 39.887481,
        "lng": 139.98714
    },
    {
        "code": "B105221113426",
        "type": 16001,
        "name": "出戸小学校",
        "address": "潟上市天王字北野231-2",
        "lat": 39.842209,
        "lng": 140.024359
    },
    {
        "code": "B105221113435",
        "type": 16001,
        "name": "東湖小学校",
        "address": "潟上市天王字宮の後303",
        "lat": 39.897201,
        "lng": 139.964364
    },
    {
        "code": "B105221113444",
        "type": 16001,
        "name": "追分小学校",
        "address": "潟上市天王字追分西26-7",
        "lat": 39.811102,
        "lng": 140.049638
    },
    {
        "code": "C105221143419",
        "type": 16002,
        "name": "天王中学校",
        "address": "潟上市天王字宮の後3",
        "lat": 39.886369,
        "lng": 139.98464
    },
    {
        "code": "C105221143428",
        "type": 16002,
        "name": "天王南中学校",
        "address": "潟上市天王字上北野4-38",
        "lat": 39.825267,
        "lng": 140.045471
    },
    {
        "code": "C105221143712",
        "type": 16002,
        "name": "羽城中学校",
        "address": "潟上市昭和大久保字元木田145",
        "lat": 39.867485,
        "lng": 140.069079
    },
    {
        "code": "D105221155519",
        "type": 16004,
        "name": "秋田西高等学校",
        "address": "潟上市天王字追分西26-1",
        "lat": 39.814434,
        "lng": 140.041583
    },
    {
        "code": "E105221199257",
        "type": 16012,
        "name": "天王みどり学園",
        "address": "潟上市天王字追分西27-18",
        "lat": 39.811371,
        "lng": 140.047086
    }
]