[
    {
        "code": "A205321220014",
        "type": 16013,
        "name": "幼保連携型認定こども園なかせんワイワイらんど",
        "address": "大仙市長野字新山131",
        "lat": 39.541481,
        "lng": 140.541994
    },
    {
        "code": "A205321220023",
        "type": 16013,
        "name": "すくすくだけっこ園",
        "address": "大仙市神宮寺字中瀬古川敷31-4",
        "lat": 39.493728,
        "lng": 140.416958
    },
    {
        "code": "A205321220032",
        "type": 16013,
        "name": "幼保連携型認定こども園せんぼくちびっこらんど",
        "address": "大仙市堀見内字藍野75-1",
        "lat": 39.463812,
        "lng": 140.511995
    },
    {
        "code": "A205321220041",
        "type": 16013,
        "name": "つきの木こども園",
        "address": "大仙市南外字梨木田96-1",
        "lat": 39.4607,
        "lng": 140.375282
    },
    {
        "code": "A205321220050",
        "type": 16013,
        "name": "幼保連携型認定こども園おおたわんぱくランド",
        "address": "大仙市太田町横沢字窪関南535-4",
        "lat": 39.51022,
        "lng": 140.594802
    },
    {
        "code": "A205321220069",
        "type": 16013,
        "name": "西仙あおぞらこども園",
        "address": "大仙市刈和野字川原田27-1",
        "lat": 39.548357,
        "lng": 140.370255
    },
    {
        "code": "A205321220078",
        "type": 16013,
        "name": "協和まほろばこども園",
        "address": "大仙市協和荒川字下谷地53",
        "lat": 39.610751,
        "lng": 140.340519
    },
    {
        "code": "A205321220087",
        "type": 16013,
        "name": "四ツ屋こども園",
        "address": "大仙市四ﾂ屋字西下瀬159",
        "lat": 39.492681,
        "lng": 140.500748
    },
    {
        "code": "A205321220096",
        "type": 16013,
        "name": "大曲中央こども園",
        "address": "大仙市大曲花園町4-88",
        "lat": 39.454137,
        "lng": 140.475071
    },
    {
        "code": "B105221204514",
        "type": 16001,
        "name": "大曲小学校",
        "address": "大仙市大曲花園町4-88",
        "lat": 39.454256,
        "lng": 140.474931
    },
    {
        "code": "B105221204532",
        "type": 16001,
        "name": "東大曲小学校",
        "address": "大仙市大曲字下高畑81",
        "lat": 39.447269,
        "lng": 140.494337
    },
    {
        "code": "B105221204541",
        "type": 16001,
        "name": "花館小学校",
        "address": "大仙市花館中町1-40",
        "lat": 39.472822,
        "lng": 140.464895
    },
    {
        "code": "B105221204550",
        "type": 16001,
        "name": "内小友小学校",
        "address": "大仙市内小友字四ﾂ村35",
        "lat": 39.419103,
        "lng": 140.450911
    },
    {
        "code": "B105221204578",
        "type": 16001,
        "name": "大川西根小学校",
        "address": "大仙市大曲西根字小館20",
        "lat": 39.448657,
        "lng": 140.452953
    },
    {
        "code": "B105221204587",
        "type": 16001,
        "name": "藤木小学校",
        "address": "大仙市藤木字街道下67",
        "lat": 39.412272,
        "lng": 140.494338
    },
    {
        "code": "B105221204596",
        "type": 16001,
        "name": "四ツ屋小学校",
        "address": "大仙市四ﾂ屋字下古道81",
        "lat": 39.493661,
        "lng": 140.500121
    },
    {
        "code": "B105221204612",
        "type": 16001,
        "name": "角間川小学校",
        "address": "大仙市角間川町字大浦町99",
        "lat": 39.403662,
        "lng": 140.484339
    },
    {
        "code": "B105221216547",
        "type": 16001,
        "name": "神岡小学校",
        "address": "大仙市神宮寺字神宮寺52",
        "lat": 39.490875,
        "lng": 140.429065
    },
    {
        "code": "B105221216716",
        "type": 16001,
        "name": "西仙北小学校",
        "address": "大仙市刈和野字上ﾉ台322",
        "lat": 39.550865,
        "lng": 140.379067
    },
    {
        "code": "B105221217047",
        "type": 16001,
        "name": "清水小学校",
        "address": "大仙市清水字上大蔵86",
        "lat": 39.518095,
        "lng": 140.55405
    },
    {
        "code": "B105221217074",
        "type": 16001,
        "name": "中仙小学校",
        "address": "大仙市長野字六日町215",
        "lat": 39.543091,
        "lng": 140.532385
    },
    {
        "code": "B105221217323",
        "type": 16001,
        "name": "協和小学校",
        "address": "大仙市協和境字岸館37",
        "lat": 39.609992,
        "lng": 140.32853
    },
    {
        "code": "B105221217458",
        "type": 16001,
        "name": "南外小学校",
        "address": "大仙市南外字田中田17",
        "lat": 39.474697,
        "lng": 140.389782
    },
    {
        "code": "B105221217519",
        "type": 16001,
        "name": "高梨小学校",
        "address": "大仙市高梨字新屋敷1",
        "lat": 39.456713,
        "lng": 140.522945
    },
    {
        "code": "B105221217528",
        "type": 16001,
        "name": "横堀小学校",
        "address": "大仙市福田字穴沢4",
        "lat": 39.487543,
        "lng": 140.538497
    },
    {
        "code": "B105221217715",
        "type": 16001,
        "name": "太田東小学校",
        "address": "大仙市太田町斉内字高野1-93",
        "lat": 39.526039,
        "lng": 140.629012
    },
    {
        "code": "B105221217724",
        "type": 16001,
        "name": "太田南小学校",
        "address": "大仙市太田町横沢字窪関南298",
        "lat": 39.508549,
        "lng": 140.59757
    },
    {
        "code": "B105221217733",
        "type": 16001,
        "name": "太田北小学校",
        "address": "大仙市太田町国見字国見田115",
        "lat": 39.528988,
        "lng": 140.583118
    },
    {
        "code": "B105221219544",
        "type": 16001,
        "name": "豊成小学校",
        "address": "大仙市豊川字下水無47",
        "lat": 39.557978,
        "lng": 140.586548
    },
    {
        "code": "C105221239511",
        "type": 16002,
        "name": "大曲中学校",
        "address": "大仙市若竹町7-17",
        "lat": 39.466989,
        "lng": 140.467395
    },
    {
        "code": "C105221239520",
        "type": 16002,
        "name": "大曲西中学校",
        "address": "大仙市内小友字中沢176-1",
        "lat": 39.437547,
        "lng": 140.442122
    },
    {
        "code": "C105221239557",
        "type": 16002,
        "name": "大曲南中学校",
        "address": "大仙市藤木字上野中70-2",
        "lat": 39.411161,
        "lng": 140.488783
    },
    {
        "code": "C105221246512",
        "type": 16002,
        "name": "平和中学校",
        "address": "大仙市神宮寺字荒屋20",
        "lat": 39.498652,
        "lng": 140.41851
    },
    {
        "code": "C105221246674",
        "type": 16002,
        "name": "西仙北中学校",
        "address": "大仙市刈和野字田中蟻塚12",
        "lat": 39.548921,
        "lng": 140.389067
    },
    {
        "code": "C105221247012",
        "type": 16002,
        "name": "中仙中学校",
        "address": "大仙市長野字新山5-1",
        "lat": 39.539759,
        "lng": 140.539051
    },
    {
        "code": "C105221247218",
        "type": 16002,
        "name": "協和中学校",
        "address": "大仙市協和境字岸館90",
        "lat": 39.610005,
        "lng": 140.330162
    },
    {
        "code": "C105221247441",
        "type": 16002,
        "name": "南外中学校",
        "address": "大仙市南外字赤平台野19-1",
        "lat": 39.46081,
        "lng": 140.370938
    },
    {
        "code": "C105221247511",
        "type": 16002,
        "name": "仙北中学校",
        "address": "大仙市堀見内字西福嶋29",
        "lat": 39.471156,
        "lng": 140.518222
    },
    {
        "code": "C105221247717",
        "type": 16002,
        "name": "太田中学校",
        "address": "大仙市太田町太田字新田田尻76",
        "lat": 39.514494,
        "lng": 140.599572
    },
    {
        "code": "D105221255661",
        "type": 16004,
        "name": "西仙北高等学校",
        "address": "大仙市刈和野字北ﾉ沢嶋山5-1",
        "lat": 39.556888,
        "lng": 140.37645
    },
    {
        "code": "D105221255689",
        "type": 16004,
        "name": "大曲高等学校",
        "address": "大仙市大曲栄町6-7",
        "lat": 39.453214,
        "lng": 140.47952
    },
    {
        "code": "D105221256232",
        "type": 16004,
        "name": "大曲農業高等学校",
        "address": "大仙市大曲金谷町26-9",
        "lat": 39.448614,
        "lng": 140.474443
    },
    {
        "code": "D105221256250",
        "type": 16004,
        "name": "大曲農業高等学校太田分校",
        "address": "大仙市太田町横沢字窪関南268-1",
        "lat": 39.508766,
        "lng": 140.598937
    },
    {
        "code": "D105221256447",
        "type": 16004,
        "name": "大曲工業高等学校",
        "address": "大仙市大曲若葉町3-17",
        "lat": 39.451392,
        "lng": 140.488894
    },
    {
        "code": "D105321259068",
        "type": 16004,
        "name": "秋田修英高等学校",
        "address": "大仙市大曲須和町1-1-30",
        "lat": 39.455297,
        "lng": 140.481863
    },
    {
        "code": "E105221299201",
        "type": 16012,
        "name": "大曲支援学校",
        "address": "大仙市大曲西根字下成沢122",
        "lat": 39.448935,
        "lng": 140.446287
    }
]