[
    {
        "code": "A105321400017",
        "type": 16011,
        "name": "きさかたひまわり幼稚園",
        "address": "にかほ市象潟町字1-塩越124",
        "lat": 39.212163,
        "lng": 139.895628
    },
    {
        "code": "A205321410014",
        "type": 16013,
        "name": "幼保連携型認定こども園仁賀保",
        "address": "にかほ市平沢字町田1",
        "lat": 39.290664,
        "lng": 139.969092
    },
    {
        "code": "A205321420012",
        "type": 16013,
        "name": "白百合こども園",
        "address": "にかほ市象潟町字上狐森123-3",
        "lat": 39.198388,
        "lng": 139.910319
    },
    {
        "code": "A205321420021",
        "type": 16013,
        "name": "明星こども園",
        "address": "にかほ市象潟町関字西大坂1-20",
        "lat": 39.180824,
        "lng": 139.907616
    },
    {
        "code": "A205321420030",
        "type": 16013,
        "name": "星城こども園",
        "address": "にかほ市象潟町小滝字舞台64-2",
        "lat": 39.191751,
        "lng": 139.947423
    },
    {
        "code": "B105221415010",
        "type": 16001,
        "name": "平沢小学校",
        "address": "にかほ市平沢字画書面37-1",
        "lat": 39.289772,
        "lng": 139.954943
    },
    {
        "code": "B105221415029",
        "type": 16001,
        "name": "院内小学校",
        "address": "にかほ市小国字郷ﾉ町85",
        "lat": 39.265331,
        "lng": 139.970498
    },
    {
        "code": "B105221415074",
        "type": 16001,
        "name": "金浦小学校",
        "address": "にかほ市金浦字背長森39",
        "lat": 39.251702,
        "lng": 139.92347
    },
    {
        "code": "B105221415118",
        "type": 16001,
        "name": "象潟小学校",
        "address": "にかほ市象潟町字妙見下77-2",
        "lat": 39.210171,
        "lng": 139.900916
    },
    {
        "code": "C105221445012",
        "type": 16002,
        "name": "仁賀保中学校",
        "address": "にかほ市院内字ﾋｼｶﾀ40",
        "lat": 39.272751,
        "lng": 139.95706
    },
    {
        "code": "C105221445076",
        "type": 16002,
        "name": "金浦中学校",
        "address": "にかほ市金浦字谷地中30-3",
        "lat": 39.25172,
        "lng": 139.921337
    },
    {
        "code": "C105221445110",
        "type": 16002,
        "name": "象潟中学校",
        "address": "にかほ市象潟町字屋敷田108",
        "lat": 39.203336,
        "lng": 139.909568
    },
    {
        "code": "D105221455641",
        "type": 16004,
        "name": "仁賀保高等学校",
        "address": "にかほ市象潟町字下浜山3-3",
        "lat": 39.232868,
        "lng": 139.91395
    }
]