[
    {
        "code": "A105334800016",
        "type": 16011,
        "name": "八竜幼稚園",
        "address": "山本郡三種町鵜川字内田18",
        "lat": 40.100011,
        "lng": 140.020289
    },
    {
        "code": "B105234812049",
        "type": 16001,
        "name": "琴丘小学校",
        "address": "山本郡三種町鹿渡字東二本柳23",
        "lat": 40.046354,
        "lng": 140.080738
    },
    {
        "code": "B105234812414",
        "type": 16001,
        "name": "下岩川小学校",
        "address": "山本郡三種町下岩川字長面向台50",
        "lat": 40.083851,
        "lng": 140.136007
    },
    {
        "code": "B105234812423",
        "type": 16001,
        "name": "森岳小学校",
        "address": "山本郡三種町森岳字東囲177",
        "lat": 40.094291,
        "lng": 140.07685
    },
    {
        "code": "B105234812432",
        "type": 16001,
        "name": "金岡小学校",
        "address": "山本郡三種町豊岡金田字茂呂沢78-2",
        "lat": 40.123289,
        "lng": 140.081289
    },
    {
        "code": "B105234812717",
        "type": 16001,
        "name": "浜口小学校",
        "address": "山本郡三種町浜田字福沢57",
        "lat": 40.102733,
        "lng": 139.983799
    },
    {
        "code": "B105234812735",
        "type": 16001,
        "name": "湖北小学校",
        "address": "山本郡三種町鵜川字上谷地28",
        "lat": 40.097736,
        "lng": 140.031296
    },
    {
        "code": "C105234842014",
        "type": 16002,
        "name": "琴丘中学校",
        "address": "山本郡三種町鹿渡字盤若台89",
        "lat": 40.035522,
        "lng": 140.092126
    },
    {
        "code": "C105234842345",
        "type": 16002,
        "name": "山本中学校",
        "address": "山本郡三種町森岳字関ﾉ台18",
        "lat": 40.099126,
        "lng": 140.086012
    },
    {
        "code": "C105234842531",
        "type": 16002,
        "name": "八竜中学校",
        "address": "山本郡三種町鵜川字西本田10",
        "lat": 40.099401,
        "lng": 140.004354
    }
]