[
    {
        "code": "A205243400012",
        "type": 16013,
        "name": "千畑なかよし園",
        "address": "仙北郡美郷町土崎字上野乙31",
        "lat": 39.462129,
        "lng": 140.584152
    },
    {
        "code": "A205243400021",
        "type": 16013,
        "name": "六郷わくわく園",
        "address": "仙北郡美郷町六郷字作山13-7",
        "lat": 39.41556,
        "lng": 140.558792
    },
    {
        "code": "A205243400030",
        "type": 16013,
        "name": "仙南すこやか園",
        "address": "仙北郡美郷町飯詰字糠渕4-1",
        "lat": 39.386924,
        "lng": 140.530173
    },
    {
        "code": "B105243416950",
        "type": 16001,
        "name": "六郷小学校",
        "address": "仙北郡美郷町六郷字赤城1",
        "lat": 39.417829,
        "lng": 140.546277
    },
    {
        "code": "B105243417879",
        "type": 16001,
        "name": "千畑小学校",
        "address": "仙北郡美郷町土崎字上野乙1-4",
        "lat": 39.466679,
        "lng": 140.594832
    },
    {
        "code": "B105243417940",
        "type": 16001,
        "name": "仙南小学校",
        "address": "仙北郡美郷町飯詰字轌町26-1",
        "lat": 39.387265,
        "lng": 140.535361
    },
    {
        "code": "C105243446925",
        "type": 16002,
        "name": "美郷中学校",
        "address": "仙北郡美郷町六郷字作山13-3",
        "lat": 39.41644,
        "lng": 140.558775
    },
    {
        "code": "D105243455707",
        "type": 16004,
        "name": "六郷高等学校",
        "address": "仙北郡美郷町六郷字馬場52",
        "lat": 39.418662,
        "lng": 140.554053
    }
]