[
    {
        "code": "A106110000017",
        "type": 16011,
        "name": "山形大学附属幼稚園",
        "address": "山形市松波2-7-1",
        "lat": 38.240474,
        "lng": 140.357686
    },
    {
        "code": "A106320101010",
        "type": 16011,
        "name": "鈴川幼稚園",
        "address": "山形市鈴川町2-10-30",
        "lat": 38.266127,
        "lng": 140.355566
    },
    {
        "code": "A106320101029",
        "type": 16011,
        "name": "竹田幼稚園",
        "address": "山形市城西町3-13-7",
        "lat": 38.25809,
        "lng": 140.317348
    },
    {
        "code": "A106320101038",
        "type": 16011,
        "name": "金井幼稚園",
        "address": "山形市江俣3-5-10",
        "lat": 38.274625,
        "lng": 140.319909
    },
    {
        "code": "A106320101047",
        "type": 16011,
        "name": "南山形幼稚園",
        "address": "山形市大字松原159-4",
        "lat": 38.202104,
        "lng": 140.307012
    },
    {
        "code": "A106320101056",
        "type": 16011,
        "name": "東北文教大学付属幼稚園",
        "address": "山形市片谷地515",
        "lat": 38.210454,
        "lng": 140.304149
    },
    {
        "code": "A106320101065",
        "type": 16011,
        "name": "東原幼稚園",
        "address": "山形市東原町2-3-26",
        "lat": 38.243218,
        "lng": 140.344924
    },
    {
        "code": "A106320101074",
        "type": 16011,
        "name": "さゆり幼稚園",
        "address": "山形市本町2-1-24",
        "lat": 38.249879,
        "lng": 140.338354
    },
    {
        "code": "A106320101083",
        "type": 16011,
        "name": "大谷幼稚園",
        "address": "山形市緑町3-7-67",
        "lat": 38.252151,
        "lng": 140.345938
    },
    {
        "code": "A106320101092",
        "type": 16011,
        "name": "南光幼稚園",
        "address": "山形市八日町2-3-45",
        "lat": 38.240834,
        "lng": 140.328106
    },
    {
        "code": "A106320101109",
        "type": 16011,
        "name": "月かげ幼稚園",
        "address": "山形市馬見ｹ崎1-1-10",
        "lat": 38.278966,
        "lng": 140.333924
    },
    {
        "code": "A106320101118",
        "type": 16011,
        "name": "出羽大谷幼稚園",
        "address": "山形市大字千手堂545-1",
        "lat": 38.312702,
        "lng": 140.339181
    },
    {
        "code": "A106320101127",
        "type": 16011,
        "name": "さくらんぼ幼稚園",
        "address": "山形市大字長谷堂1111-3",
        "lat": 38.216402,
        "lng": 140.279278
    },
    {
        "code": "A106320101136",
        "type": 16011,
        "name": "蔵王めぐみ幼稚園",
        "address": "山形市蔵王成沢45-1",
        "lat": 38.201307,
        "lng": 140.31815
    },
    {
        "code": "A106320101145",
        "type": 16011,
        "name": "竹田西部幼稚園",
        "address": "山形市飯塚町922-1",
        "lat": 38.260348,
        "lng": 140.280999
    },
    {
        "code": "A106320101154",
        "type": 16011,
        "name": "あおぞら幼稚園",
        "address": "山形市青田2-9-1",
        "lat": 38.226939,
        "lng": 140.334462
    },
    {
        "code": "A106320101163",
        "type": 16011,
        "name": "松波大谷幼稚園",
        "address": "山形市東山形2-10-5",
        "lat": 38.240325,
        "lng": 140.374715
    },
    {
        "code": "A106320101172",
        "type": 16011,
        "name": "星幼稚園",
        "address": "山形市南原町2-10-8",
        "lat": 38.234632,
        "lng": 140.343249
    },
    {
        "code": "A206320111017",
        "type": 16013,
        "name": "べにばなこども園",
        "address": "山形市伊達城2-9-7",
        "lat": 38.308603,
        "lng": 140.357555
    },
    {
        "code": "A206320111026",
        "type": 16013,
        "name": "諏訪幼稚園・諏訪の杜保育園",
        "address": "山形市諏訪町1-1-13",
        "lat": 38.245003,
        "lng": 140.340157
    },
    {
        "code": "A206320111035",
        "type": 16013,
        "name": "ひまわり幼稚園・ひまわり保育園",
        "address": "山形市片谷地59",
        "lat": 38.214534,
        "lng": 140.309518
    },
    {
        "code": "A206320111044",
        "type": 16013,
        "name": "羽陽学園短期大学附属鈴川第二幼稚園・このみ保育園",
        "address": "山形市花楯2-46-1",
        "lat": 38.278086,
        "lng": 140.352197
    },
    {
        "code": "A206320111053",
        "type": 16013,
        "name": "金井第二幼稚園・かない保育園",
        "address": "山形市陣場3-12-60",
        "lat": 38.280174,
        "lng": 140.304774
    },
    {
        "code": "A206320111062",
        "type": 16013,
        "name": "千歳認定こども園",
        "address": "山形市緑町1-4-20",
        "lat": 38.255344,
        "lng": 140.34697
    },
    {
        "code": "A206320111071",
        "type": 16013,
        "name": "認定こども園杉の子",
        "address": "山形市瀬波1-2-7",
        "lat": 38.27903,
        "lng": 140.311271
    },
    {
        "code": "A206320111080",
        "type": 16013,
        "name": "山形聖マリアこども園",
        "address": "山形市香澄町2-11-15",
        "lat": 38.249949,
        "lng": 140.331876
    },
    {
        "code": "A206320111099",
        "type": 16013,
        "name": "こども芸術大学認定こども園",
        "address": "山形市上桜田3-4-5",
        "lat": 38.217835,
        "lng": 140.34352
    },
    {
        "code": "A206320111106",
        "type": 16013,
        "name": "南沼原ひまわり幼保園",
        "address": "山形市高堂1-7-3",
        "lat": 38.238621,
        "lng": 140.309059
    },
    {
        "code": "A206320111115",
        "type": 16013,
        "name": "キンダーこども園",
        "address": "山形市宮町2-4-13",
        "lat": 38.26824,
        "lng": 140.336893
    },
    {
        "code": "A206320111124",
        "type": 16013,
        "name": "キンダー南館こども園",
        "address": "山形市南館5-7-50",
        "lat": 38.235617,
        "lng": 140.307875
    },
    {
        "code": "A206320111133",
        "type": 16013,
        "name": "出羽こども園",
        "address": "山形市大字千手堂字沢田203-5",
        "lat": 38.308527,
        "lng": 140.33404
    },
    {
        "code": "A206320111142",
        "type": 16013,
        "name": "こども園ちとせ",
        "address": "山形市落合町柿壇386-4",
        "lat": 38.283764,
        "lng": 140.353321
    },
    {
        "code": "A206320111151",
        "type": 16013,
        "name": "こども園ののはな",
        "address": "山形市花楯2-12-2",
        "lat": 38.274951,
        "lng": 140.349647
    },
    {
        "code": "A206320111160",
        "type": 16013,
        "name": "木の実こども園",
        "address": "山形市木の実町14-15",
        "lat": 38.253329,
        "lng": 140.335092
    },
    {
        "code": "A206320111179",
        "type": 16013,
        "name": "木の実北こども園",
        "address": "山形市旅籠町1-9-5",
        "lat": 38.255972,
        "lng": 140.335166
    },
    {
        "code": "A206320111188",
        "type": 16013,
        "name": "木の実西部こども園",
        "address": "山形市南石関30-1",
        "lat": 38.248905,
        "lng": 140.306818
    },
    {
        "code": "B106110000015",
        "type": 16001,
        "name": "山形大学附属小学校",
        "address": "山形市松波2-7-2",
        "lat": 38.240457,
        "lng": 140.358833
    },
    {
        "code": "B106220120017",
        "type": 16001,
        "name": "第一小学校",
        "address": "山形市本町1-5-24",
        "lat": 38.250091,
        "lng": 140.335822
    },
    {
        "code": "B106220120026",
        "type": 16001,
        "name": "第二小学校",
        "address": "山形市香澄町3-9-38",
        "lat": 38.245456,
        "lng": 140.329947
    },
    {
        "code": "B106220120035",
        "type": 16001,
        "name": "第三小学校",
        "address": "山形市宮町5-7-58",
        "lat": 38.262399,
        "lng": 140.338001
    },
    {
        "code": "B106220120044",
        "type": 16001,
        "name": "第四小学校",
        "address": "山形市相生町4-37",
        "lat": 38.258233,
        "lng": 140.336891
    },
    {
        "code": "B106220120053",
        "type": 16001,
        "name": "第五小学校",
        "address": "山形市東原町1-1-9",
        "lat": 38.247401,
        "lng": 140.345779
    },
    {
        "code": "B106220120062",
        "type": 16001,
        "name": "第六小学校",
        "address": "山形市鉄砲町2-9-55",
        "lat": 38.238512,
        "lng": 140.333003
    },
    {
        "code": "B106220120071",
        "type": 16001,
        "name": "第七小学校",
        "address": "山形市城北町2-9-37",
        "lat": 38.260732,
        "lng": 140.327447
    },
    {
        "code": "B106220120080",
        "type": 16001,
        "name": "第八小学校",
        "address": "山形市小白川町2-8-36",
        "lat": 38.248512,
        "lng": 140.353556
    },
    {
        "code": "B106220120099",
        "type": 16001,
        "name": "第九小学校",
        "address": "山形市馬見ヶ崎2-5-1",
        "lat": 38.279619,
        "lng": 140.330224
    },
    {
        "code": "B106220120106",
        "type": 16001,
        "name": "第十小学校",
        "address": "山形市やよい2-6-1",
        "lat": 38.256565,
        "lng": 140.309394
    },
    {
        "code": "B106220120115",
        "type": 16001,
        "name": "鈴川小学校",
        "address": "山形市鈴川町3-7-10",
        "lat": 38.268232,
        "lng": 140.358277
    },
    {
        "code": "B106220120124",
        "type": 16001,
        "name": "千歳小学校",
        "address": "山形市落合町1359",
        "lat": 38.285452,
        "lng": 140.344945
    },
    {
        "code": "B106220120133",
        "type": 16001,
        "name": "金井小学校",
        "address": "山形市陣場3-7-60",
        "lat": 38.278733,
        "lng": 140.301987
    },
    {
        "code": "B106220120142",
        "type": 16001,
        "name": "大郷小学校",
        "address": "山形市大字中野506",
        "lat": 38.306005,
        "lng": 140.30356
    },
    {
        "code": "B106220120151",
        "type": 16001,
        "name": "明治小学校",
        "address": "山形市大字灰塚454",
        "lat": 38.330447,
        "lng": 140.321058
    },
    {
        "code": "B106220120160",
        "type": 16001,
        "name": "出羽小学校",
        "address": "山形市大字漆山3169",
        "lat": 38.312671,
        "lng": 140.3405
    },
    {
        "code": "B106220120179",
        "type": 16001,
        "name": "楯山小学校",
        "address": "山形市青柳字一本木64",
        "lat": 38.302118,
        "lng": 140.365776
    },
    {
        "code": "B106220120188",
        "type": 16001,
        "name": "高瀬小学校",
        "address": "山形市大字下東山1264",
        "lat": 38.295453,
        "lng": 140.401606
    },
    {
        "code": "B106220120197",
        "type": 16001,
        "name": "山寺小学校",
        "address": "山形市山寺1650",
        "lat": 38.309707,
        "lng": 140.426881
    },
    {
        "code": "B106220120204",
        "type": 16001,
        "name": "東沢小学校",
        "address": "山形市防原町4-15",
        "lat": 38.239347,
        "lng": 140.394664
    },
    {
        "code": "B106220120213",
        "type": 16001,
        "name": "滝山小学校",
        "address": "山形市小立4-13-86",
        "lat": 38.227125,
        "lng": 140.345502
    },
    {
        "code": "B106220120222",
        "type": 16001,
        "name": "南沼原小学校",
        "address": "山形市富の中1-1-4",
        "lat": 38.237956,
        "lng": 140.305228
    },
    {
        "code": "B106220120231",
        "type": 16001,
        "name": "蔵王第一小学校",
        "address": "山形市成沢西4-3-17",
        "lat": 38.206692,
        "lng": 140.318101
    },
    {
        "code": "B106220120240",
        "type": 16001,
        "name": "蔵王第二小学校",
        "address": "山形市蔵王上野字南坂2116",
        "lat": 38.177962,
        "lng": 140.318284
    },
    {
        "code": "B106220120259",
        "type": 16001,
        "name": "蔵王第三小学校",
        "address": "山形市蔵王温泉字丈二田727",
        "lat": 38.170483,
        "lng": 140.392515
    },
    {
        "code": "B106220120268",
        "type": 16001,
        "name": "南山形小学校",
        "address": "山形市松原字東河原188",
        "lat": 38.200833,
        "lng": 140.307164
    },
    {
        "code": "B106220120277",
        "type": 16001,
        "name": "本沢小学校",
        "address": "山形市大字長谷堂1111-1",
        "lat": 38.216846,
        "lng": 140.280508
    },
    {
        "code": "B106220120286",
        "type": 16001,
        "name": "西山形小学校",
        "address": "山形市大字柏倉888",
        "lat": 38.235455,
        "lng": 140.266342
    },
    {
        "code": "B106220120295",
        "type": 16001,
        "name": "村木沢小学校",
        "address": "山形市大字村木沢6046",
        "lat": 38.252398,
        "lng": 140.26162
    },
    {
        "code": "B106220120302",
        "type": 16001,
        "name": "大曽根小学校",
        "address": "山形市大字上反田278",
        "lat": 38.269896,
        "lng": 140.257175
    },
    {
        "code": "B106220120311",
        "type": 16001,
        "name": "南小学校",
        "address": "山形市青田2-1-1",
        "lat": 38.225735,
        "lng": 140.332447
    },
    {
        "code": "B106220120320",
        "type": 16001,
        "name": "西小学校",
        "address": "山形市西田3-2-1",
        "lat": 38.265731,
        "lng": 140.316337
    },
    {
        "code": "B106220120339",
        "type": 16001,
        "name": "東小学校",
        "address": "山形市泉町19-31",
        "lat": 38.273509,
        "lng": 140.345778
    },
    {
        "code": "B106220120348",
        "type": 16001,
        "name": "宮浦小学校",
        "address": "山形市宮浦17-3",
        "lat": 38.25962,
        "lng": 140.295784
    },
    {
        "code": "B106220120357",
        "type": 16001,
        "name": "桜田小学校",
        "address": "山形市桜田東1-1-30",
        "lat": 38.221569,
        "lng": 140.321338
    },
    {
        "code": "B106220120366",
        "type": 16001,
        "name": "みはらしの丘小学校",
        "address": "山形市みはらしの丘3-4",
        "lat": 38.188238,
        "lng": 140.287662
    },
    {
        "code": "C106110000013",
        "type": 16002,
        "name": "山形大学附属中学校",
        "address": "山形市松波2-7-3",
        "lat": 38.24018,
        "lng": 140.361055
    },
    {
        "code": "C106220130013",
        "type": 16002,
        "name": "第一中学校",
        "address": "山形市松波3-1-15",
        "lat": 38.241291,
        "lng": 140.366333
    },
    {
        "code": "C106220130022",
        "type": 16002,
        "name": "第二中学校",
        "address": "山形市西崎62",
        "lat": 38.261843,
        "lng": 140.307727
    },
    {
        "code": "C106220130031",
        "type": 16002,
        "name": "第三中学校",
        "address": "山形市双葉町2-1-10",
        "lat": 38.249622,
        "lng": 140.321614
    },
    {
        "code": "C106220130040",
        "type": 16002,
        "name": "第四中学校",
        "address": "山形市花楯2-10-48",
        "lat": 38.273509,
        "lng": 140.350222
    },
    {
        "code": "C106220130059",
        "type": 16002,
        "name": "第五中学校",
        "address": "山形市薬師町1-14-10",
        "lat": 38.26351,
        "lng": 140.342723
    },
    {
        "code": "C106220130068",
        "type": 16002,
        "name": "第六中学校",
        "address": "山形市南原町2-3-55",
        "lat": 38.23629,
        "lng": 140.339946
    },
    {
        "code": "C106220130077",
        "type": 16002,
        "name": "第七中学校",
        "address": "山形市天神町2520",
        "lat": 38.310171,
        "lng": 140.326891
    },
    {
        "code": "C106220130086",
        "type": 16002,
        "name": "第八中学校",
        "address": "山形市村木沢字河原田1620-2",
        "lat": 38.249898,
        "lng": 140.268286
    },
    {
        "code": "C106220130095",
        "type": 16002,
        "name": "第九中学校",
        "address": "山形市津金沢字中谷地657",
        "lat": 38.209625,
        "lng": 140.297174
    },
    {
        "code": "C106220130102",
        "type": 16002,
        "name": "第十中学校",
        "address": "山形市若宮1-10-12",
        "lat": 38.226846,
        "lng": 140.30995
    },
    {
        "code": "C106220130111",
        "type": 16002,
        "name": "金井中学校",
        "address": "山形市陣場3-12-25",
        "lat": 38.279619,
        "lng": 140.304116
    },
    {
        "code": "C106220130120",
        "type": 16002,
        "name": "高楯中学校",
        "address": "山形市大字中里38",
        "lat": 38.302396,
        "lng": 140.381886
    },
    {
        "code": "C106220130139",
        "type": 16002,
        "name": "山寺中学校",
        "address": "山形市山寺1650",
        "lat": 38.309618,
        "lng": 140.426881
    },
    {
        "code": "C106220130148",
        "type": 16002,
        "name": "蔵王第一中学校",
        "address": "山形市蔵王南成沢34",
        "lat": 38.196571,
        "lng": 140.316617
    },
    {
        "code": "C106220130157",
        "type": 16002,
        "name": "蔵王第二中学校",
        "address": "山形市蔵王温泉字丈二田727",
        "lat": 38.170465,
        "lng": 140.392722
    },
    {
        "code": "D106220150016",
        "type": 16004,
        "name": "山形市立商業高等学校",
        "address": "山形市あかねヶ丘1-9-1",
        "lat": 38.250455,
        "lng": 140.311893
    },
    {
        "code": "D106220150025",
        "type": 16004,
        "name": "山形東高等学校",
        "address": "山形市緑町1-5-87",
        "lat": 38.257677,
        "lng": 140.345779
    },
    {
        "code": "D106220150034",
        "type": 16004,
        "name": "山形南高等学校",
        "address": "山形市東原町4-6-16",
        "lat": 38.241568,
        "lng": 140.346057
    },
    {
        "code": "D106220150043",
        "type": 16004,
        "name": "山形西高等学校",
        "address": "山形市鉄砲町1-15-64",
        "lat": 38.237679,
        "lng": 140.327725
    },
    {
        "code": "D106220150052",
        "type": 16004,
        "name": "山形北高等学校",
        "address": "山形市緑町2-2-7",
        "lat": 38.253789,
        "lng": 140.349389
    },
    {
        "code": "D106220150061",
        "type": 16004,
        "name": "山形工業高等学校",
        "address": "山形市緑町1-5-12",
        "lat": 38.258788,
        "lng": 140.347167
    },
    {
        "code": "D106220150070",
        "type": 16004,
        "name": "山形中央高等学校",
        "address": "山形市鉄砲町2-10-73",
        "lat": 38.237401,
        "lng": 140.334391
    },
    {
        "code": "D106220150089",
        "type": 16004,
        "name": "霞城学園高等学校",
        "address": "山形市城南町1-1-1",
        "lat": 38.250158,
        "lng": 140.32651
    },
    {
        "code": "D106320151013",
        "type": 16004,
        "name": "山形城北高等学校",
        "address": "山形市肴町1-13",
        "lat": 38.260732,
        "lng": 140.332169
    },
    {
        "code": "D106320151022",
        "type": 16004,
        "name": "山形学院高等学校",
        "address": "山形市香澄町3-10-8",
        "lat": 38.244623,
        "lng": 140.331058
    },
    {
        "code": "D106320151031",
        "type": 16004,
        "name": "日本大学山形高等学校",
        "address": "山形市鳥居ヶ丘4-55",
        "lat": 38.231013,
        "lng": 140.333281
    },
    {
        "code": "D106320151040",
        "type": 16004,
        "name": "山形明正高等学校",
        "address": "山形市飯田1-1-8",
        "lat": 38.217451,
        "lng": 140.325471
    },
    {
        "code": "D106320151059",
        "type": 16004,
        "name": "山本学園高等学校",
        "address": "山形市城西町3-13-7",
        "lat": 38.257399,
        "lng": 140.31717
    },
    {
        "code": "D106320151068",
        "type": 16004,
        "name": "東海大学山形高等学校",
        "address": "山形市成沢西3-4-5",
        "lat": 38.20756,
        "lng": 140.312974
    },
    {
        "code": "E106110000018",
        "type": 16012,
        "name": "山形大学附属特別支援学校",
        "address": "山形市飯田西3-2-55",
        "lat": 38.212958,
        "lng": 140.318005
    },
    {
        "code": "E106220160011",
        "type": 16012,
        "name": "山形聾学校",
        "address": "山形市谷柏20",
        "lat": 38.21268,
        "lng": 140.296063
    },
    {
        "code": "E106220160020",
        "type": 16012,
        "name": "山形養護学校",
        "address": "山形市行才116",
        "lat": 38.289618,
        "lng": 140.310226
    },
    {
        "code": "E106220160039",
        "type": 16012,
        "name": "村山特別支援学校",
        "address": "山形市大字谷柏元下谷柏43",
        "lat": 38.213334,
        "lng": 140.296454
    },
    {
        "code": "E106220160048",
        "type": 16012,
        "name": "村山特別支援学校山形校",
        "address": "山形市東原町1-1-9",
        "lat": 38.247064,
        "lng": 140.345636
    },
    {
        "code": "F106110101176",
        "type": 16007,
        "name": "山形大学",
        "address": "山形市小白川町1-4-12",
        "lat": 38.24629,
        "lng": 140.350778
    },
    {
        "code": "F106210101183",
        "type": 16007,
        "name": "保健医療大学",
        "address": "山形市上柳260",
        "lat": 38.29618,
        "lng": 140.346172
    },
    {
        "code": "F106310101207",
        "type": 16007,
        "name": "東北芸術工科大学",
        "address": "山形市上桜田3-4-5",
        "lat": 38.219674,
        "lng": 140.346126
    },
    {
        "code": "F106310101225",
        "type": 16007,
        "name": "東北文教大学",
        "address": "山形市片谷地515",
        "lat": 38.209458,
        "lng": 140.30238
    },
    {
        "code": "F206310101251",
        "type": 16006,
        "name": "東北文教大学短期大学部",
        "address": "山形市片谷地515",
        "lat": 38.209625,
        "lng": 140.303007
    },
    {
        "code": "H106220170013",
        "type": 16016,
        "name": "山形市立病院済生館高等看護学院",
        "address": "山形市七日町1-3-26",
        "lat": 38.252909,
        "lng": 140.336981
    },
    {
        "code": "H106320171010",
        "type": 16016,
        "name": "山形デザイン専門学校",
        "address": "山形市六日町5-26",
        "lat": 38.260269,
        "lng": 140.342979
    },
    {
        "code": "H106320171029",
        "type": 16016,
        "name": "山形歯科専門学校",
        "address": "山形市十日町2-4-35",
        "lat": 38.248189,
        "lng": 140.337405
    },
    {
        "code": "H106320171038",
        "type": 16016,
        "name": "山形調理師専門学校",
        "address": "山形市六日町7-42",
        "lat": 38.256919,
        "lng": 140.343009
    },
    {
        "code": "H106320171047",
        "type": 16016,
        "name": "山形美容専門学校",
        "address": "山形市薬師町1-4-25",
        "lat": 38.261227,
        "lng": 140.343476
    },
    {
        "code": "H106320171056",
        "type": 16016,
        "name": "山形Ｖ.カレッジ",
        "address": "山形市清住町1-4-41",
        "lat": 38.255027,
        "lng": 140.31682
    },
    {
        "code": "H106320171065",
        "type": 16016,
        "name": "篠田看護専門学校",
        "address": "山形市桜町2-68",
        "lat": 38.251128,
        "lng": 140.331053
    },
    {
        "code": "H106320171074",
        "type": 16016,
        "name": "山形厚生看護学校",
        "address": "山形市蔵王半郷字八森959",
        "lat": 38.194533,
        "lng": 140.320853
    },
    {
        "code": "H106320171083",
        "type": 16016,
        "name": "山形医療技術専門学校",
        "address": "山形市前明石字水下367",
        "lat": 38.228934,
        "lng": 140.296129
    },
    {
        "code": "H106320171092",
        "type": 16016,
        "name": "山形病院附属看護学校",
        "address": "山形市行才126-2",
        "lat": 38.289347,
        "lng": 140.310082
    },
    {
        "code": "H106320171109",
        "type": 16016,
        "name": "明徳福祉専門学校",
        "address": "山形市旅篭町3-2-14",
        "lat": 38.258825,
        "lng": 140.339788
    },
    {
        "code": "H106320171118",
        "type": 16016,
        "name": "大原簿記情報ビジネス医療福祉専門学校山形校",
        "address": "山形市城南町1-18-10",
        "lat": 38.250285,
        "lng": 140.324119
    },
    {
        "code": "H106320171127",
        "type": 16016,
        "name": "大原スポーツ公務員専門学校山形校",
        "address": "山形市城南町1-18-10",
        "lat": 38.250344,
        "lng": 140.324103
    },
    {
        "code": "H206320181017",
        "type": 16015,
        "name": "山形理容学校",
        "address": "山形市相生町8-52",
        "lat": 38.25963,
        "lng": 140.338418
    },
    {
        "code": "H206320181035",
        "type": 16015,
        "name": "明徳予備校",
        "address": "山形市旅篭町3-2-14",
        "lat": 38.258873,
        "lng": 140.339787
    }
]