[
    {
        "code": "A106320901012",
        "type": 16011,
        "name": "小桜幼稚園",
        "address": "長井市中道1-7-5",
        "lat": 38.107399,
        "lng": 140.029152
    },
    {
        "code": "A206320911019",
        "type": 16013,
        "name": "長井めぐみ幼稚園",
        "address": "長井市屋城町6-58",
        "lat": 38.109018,
        "lng": 140.044243
    },
    {
        "code": "A206320911028",
        "type": 16013,
        "name": "白山こども園",
        "address": "長井市館町南16-18",
        "lat": 38.094939,
        "lng": 140.038946
    },
    {
        "code": "B106220920019",
        "type": 16001,
        "name": "長井小学校",
        "address": "長井市ままの上5-2",
        "lat": 38.108518,
        "lng": 140.042201
    },
    {
        "code": "B106220920028",
        "type": 16001,
        "name": "致芳小学校",
        "address": "長井市五十川1091",
        "lat": 38.135182,
        "lng": 140.039978
    },
    {
        "code": "B106220920037",
        "type": 16001,
        "name": "西根小学校",
        "address": "長井市草岡375",
        "lat": 38.13407,
        "lng": 140.005814
    },
    {
        "code": "B106220920046",
        "type": 16001,
        "name": "平野小学校",
        "address": "長井市九野本3118",
        "lat": 38.09213,
        "lng": 140.006372
    },
    {
        "code": "B106220920055",
        "type": 16001,
        "name": "豊田小学校",
        "address": "長井市歌丸976",
        "lat": 38.069078,
        "lng": 140.041092
    },
    {
        "code": "B106220920064",
        "type": 16001,
        "name": "伊佐沢小学校",
        "address": "長井市上伊佐沢2027",
        "lat": 38.094631,
        "lng": 140.066644
    },
    {
        "code": "C106220930015",
        "type": 16002,
        "name": "長井南中学校",
        "address": "長井市泉1819-1",
        "lat": 38.087687,
        "lng": 140.034703
    },
    {
        "code": "C106220930024",
        "type": 16002,
        "name": "長井北中学校",
        "address": "長井市成田2883",
        "lat": 38.121016,
        "lng": 140.026924
    },
    {
        "code": "D106220950018",
        "type": 16004,
        "name": "長井高等学校",
        "address": "長井市四ﾂ谷2-5-1",
        "lat": 38.097408,
        "lng": 140.037757
    },
    {
        "code": "D106220950027",
        "type": 16004,
        "name": "長井工業高等学校",
        "address": "長井市幸町9-17",
        "lat": 38.114073,
        "lng": 140.02998
    },
    {
        "code": "E106220960013",
        "type": 16012,
        "name": "米沢養護学校長井校",
        "address": "長井市歌丸976",
        "lat": 38.069384,
        "lng": 140.042471
    },
    {
        "code": "E106220960022",
        "type": 16012,
        "name": "米沢養護学校西置賜校",
        "address": "長井市幸町9-17",
        "lat": 38.114335,
        "lng": 140.029628
    }
]