[
    {
        "code": "A106321001019",
        "type": 16011,
        "name": "天童幼稚園",
        "address": "天童市小路2-1-45",
        "lat": 38.35867,
        "lng": 140.373136
    },
    {
        "code": "A106321001028",
        "type": 16011,
        "name": "天童みくに幼稚園",
        "address": "天童市三日町2-6-29",
        "lat": 38.354809,
        "lng": 140.370567
    },
    {
        "code": "A106321001037",
        "type": 16011,
        "name": "天童東幼稚園",
        "address": "天童市大字奈良沢734",
        "lat": 38.335682,
        "lng": 140.398228
    },
    {
        "code": "A106321001046",
        "type": 16011,
        "name": "蔵増幼稚園",
        "address": "天童市大字蔵増甲1083",
        "lat": 38.372062,
        "lng": 140.336725
    },
    {
        "code": "A106321001055",
        "type": 16011,
        "name": "たかだま幼稚園",
        "address": "天童市大字清池1501",
        "lat": 38.329673,
        "lng": 140.354566
    },
    {
        "code": "A206321011016",
        "type": 16013,
        "name": "あけぼの幼稚園",
        "address": "天童市北久野本5-11-31",
        "lat": 38.381176,
        "lng": 140.38182
    },
    {
        "code": "A206321011025",
        "type": 16013,
        "name": "キンダー水木こども園",
        "address": "天童市大字成生930",
        "lat": 38.380146,
        "lng": 140.360456
    },
    {
        "code": "A206321011034",
        "type": 16013,
        "name": "天童しぜん幼稚園",
        "address": "天童市大字干布724",
        "lat": 38.335017,
        "lng": 140.399214
    },
    {
        "code": "B106221020016",
        "type": 16001,
        "name": "天童中部小学校",
        "address": "天童市老野森2-6-4",
        "lat": 38.364056,
        "lng": 140.374941
    },
    {
        "code": "B106221020025",
        "type": 16001,
        "name": "山口小学校",
        "address": "天童市山口1919",
        "lat": 38.387943,
        "lng": 140.408549
    },
    {
        "code": "B106221020034",
        "type": 16001,
        "name": "成生小学校",
        "address": "天童市高木836",
        "lat": 38.379054,
        "lng": 140.361886
    },
    {
        "code": "B106221020043",
        "type": 16001,
        "name": "蔵増小学校",
        "address": "天童市蔵増676",
        "lat": 38.367665,
        "lng": 140.34161
    },
    {
        "code": "B106221020052",
        "type": 16001,
        "name": "寺津小学校",
        "address": "天童市寺津1350",
        "lat": 38.348222,
        "lng": 140.314947
    },
    {
        "code": "B106221020061",
        "type": 16001,
        "name": "高擶小学校",
        "address": "天童市高擶北239",
        "lat": 38.334614,
        "lng": 140.348833
    },
    {
        "code": "B106221020070",
        "type": 16001,
        "name": "干布小学校",
        "address": "天童市大字干布580",
        "lat": 38.33517,
        "lng": 140.394384
    },
    {
        "code": "B106221020089",
        "type": 16001,
        "name": "津山小学校",
        "address": "天童市貫津591",
        "lat": 38.35489,
        "lng": 140.391606
    },
    {
        "code": "B106221020098",
        "type": 16001,
        "name": "荒谷小学校",
        "address": "天童市大字荒谷7857",
        "lat": 38.319061,
        "lng": 140.39244
    },
    {
        "code": "B106221020105",
        "type": 16001,
        "name": "天童南部小学校",
        "address": "天童市田鶴町4-2-10",
        "lat": 38.357389,
        "lng": 140.366608
    },
    {
        "code": "B106221020114",
        "type": 16001,
        "name": "天童北部小学校",
        "address": "天童市乱川4-2-25",
        "lat": 38.383498,
        "lng": 140.37994
    },
    {
        "code": "B106221020123",
        "type": 16001,
        "name": "長岡小学校",
        "address": "天童市東長岡3-3-1",
        "lat": 38.330726,
        "lng": 140.364943
    },
    {
        "code": "C106221030012",
        "type": 16002,
        "name": "第一中学校",
        "address": "天童市原町10-1",
        "lat": 38.344085,
        "lng": 140.383695
    },
    {
        "code": "C106221030021",
        "type": 16002,
        "name": "第二中学校",
        "address": "天童市久野本1674",
        "lat": 38.372944,
        "lng": 140.386606
    },
    {
        "code": "C106221030030",
        "type": 16002,
        "name": "第三中学校",
        "address": "天童市矢野目1285",
        "lat": 38.357111,
        "lng": 140.353832
    },
    {
        "code": "C106221030049",
        "type": 16002,
        "name": "第四中学校",
        "address": "天童市柏木町1-3-1",
        "lat": 38.367666,
        "lng": 140.369941
    },
    {
        "code": "D106221050015",
        "type": 16004,
        "name": "天童高等学校",
        "address": "天童市大字山元850",
        "lat": 38.371555,
        "lng": 140.387717
    },
    {
        "code": "D106321051012",
        "type": 16004,
        "name": "創学館高等学校",
        "address": "天童市清池東2-10-1",
        "lat": 38.321372,
        "lng": 140.359326
    },
    {
        "code": "E106221060010",
        "type": 16012,
        "name": "村山特別支援学校天童校",
        "address": "天童市貫津591",
        "lat": 38.354851,
        "lng": 140.391879
    },
    {
        "code": "F206310101242",
        "type": 16006,
        "name": "羽陽学園短期大学",
        "address": "天童市大字清池1559",
        "lat": 38.33017,
        "lng": 140.352999
    },
    {
        "code": "H206321081016",
        "type": 16015,
        "name": "第一貨物流通技能専門校",
        "address": "天童市芳賀895",
        "lat": 38.333628,
        "lng": 140.371303
    }
]