[
    {
        "code": "A106221300019",
        "type": 16011,
        "name": "赤湯幼稚園",
        "address": "南陽市赤湯363",
        "lat": 38.048717,
        "lng": 140.164571
    },
    {
        "code": "A106321301016",
        "type": 16011,
        "name": "つばめ幼稚園",
        "address": "南陽市郡山70-1",
        "lat": 38.040734,
        "lng": 140.149672
    },
    {
        "code": "A206321311013",
        "type": 16013,
        "name": "宮内認定こども園",
        "address": "南陽市宮内3106",
        "lat": 38.074485,
        "lng": 140.133144
    },
    {
        "code": "B106221320013",
        "type": 16001,
        "name": "沖郷小学校",
        "address": "南陽市高梨460",
        "lat": 38.040195,
        "lng": 140.138306
    },
    {
        "code": "B106221320022",
        "type": 16001,
        "name": "梨郷小学校",
        "address": "南陽市竹原139",
        "lat": 38.056859,
        "lng": 140.100809
    },
    {
        "code": "B106221320031",
        "type": 16001,
        "name": "赤湯小学校",
        "address": "南陽市長岡994",
        "lat": 38.041254,
        "lng": 140.158308
    },
    {
        "code": "B106221320040",
        "type": 16001,
        "name": "中川小学校",
        "address": "南陽市川樋25",
        "lat": 38.094913,
        "lng": 140.199133
    },
    {
        "code": "B106221320059",
        "type": 16001,
        "name": "荻小学校",
        "address": "南陽市荻1033",
        "lat": 38.145739,
        "lng": 140.16691
    },
    {
        "code": "B106221320068",
        "type": 16001,
        "name": "宮内小学校",
        "address": "南陽市宮内3415",
        "lat": 38.077135,
        "lng": 140.13636
    },
    {
        "code": "B106221320077",
        "type": 16001,
        "name": "漆山小学校",
        "address": "南陽市漆山1731",
        "lat": 38.067969,
        "lng": 140.117196
    },
    {
        "code": "C106221330019",
        "type": 16002,
        "name": "沖郷中学校",
        "address": "南陽市高梨594-3",
        "lat": 38.045195,
        "lng": 140.141084
    },
    {
        "code": "C106221330028",
        "type": 16002,
        "name": "赤湯中学校",
        "address": "南陽市椚塚1815",
        "lat": 38.046306,
        "lng": 140.16136
    },
    {
        "code": "C106221330037",
        "type": 16002,
        "name": "宮内中学校",
        "address": "南陽市宮内2303-2",
        "lat": 38.076302,
        "lng": 140.144693
    },
    {
        "code": "D106221350012",
        "type": 16004,
        "name": "南陽高等学校",
        "address": "南陽市宮内4600",
        "lat": 38.066859,
        "lng": 140.136083
    }
]