[
    {
        "code": "A106332101015",
        "type": 16011,
        "name": "河北幼稚園",
        "address": "西村山郡河北町谷地字所岡46-1",
        "lat": 38.428251,
        "lng": 140.311351
    },
    {
        "code": "A106332101024",
        "type": 16011,
        "name": "ひかり幼稚園　",
        "address": "西村山郡河北町谷地乙98",
        "lat": 38.42388,
        "lng": 140.317152
    },
    {
        "code": "A206332111012",
        "type": 16013,
        "name": "かほくあいこども園",
        "address": "西村山郡河北町谷地字霊堂399-1",
        "lat": 38.432462,
        "lng": 140.310479
    },
    {
        "code": "A206332111021",
        "type": 16013,
        "name": "ひなのこども園",
        "address": "西村山郡河北町谷地字月山堂1344",
        "lat": 38.411311,
        "lng": 140.30831
    },
    {
        "code": "B106232120012",
        "type": 16001,
        "name": "西里小学校",
        "address": "西村山郡河北町西里562",
        "lat": 38.414882,
        "lng": 140.285503
    },
    {
        "code": "B106232120021",
        "type": 16001,
        "name": "溝延小学校",
        "address": "西村山郡河北町溝延字小堤312-1",
        "lat": 38.396551,
        "lng": 140.316612
    },
    {
        "code": "B106232120030",
        "type": 16001,
        "name": "谷地中部小学校",
        "address": "西村山郡河北町谷地字所岡73",
        "lat": 38.42877,
        "lng": 140.309945
    },
    {
        "code": "B106232120049",
        "type": 16001,
        "name": "谷地南部小学校",
        "address": "西村山郡河北町谷地荒町東1-7-1",
        "lat": 38.421271,
        "lng": 140.318278
    },
    {
        "code": "B106232120058",
        "type": 16001,
        "name": "谷地西部小学校",
        "address": "西村山郡河北町谷地字布田55",
        "lat": 38.437875,
        "lng": 140.30169
    },
    {
        "code": "B106232120067",
        "type": 16001,
        "name": "北谷地小学校",
        "address": "西村山郡河北町大字吉田367",
        "lat": 38.444602,
        "lng": 140.3155
    },
    {
        "code": "C106232130018",
        "type": 16002,
        "name": "河北中学校",
        "address": "西村山郡河北町谷地中央4-12-1",
        "lat": 38.418493,
        "lng": 140.311057
    },
    {
        "code": "D106232150011",
        "type": 16004,
        "name": "谷地高等学校",
        "address": "西村山郡河北町谷地字田中170",
        "lat": 38.42266,
        "lng": 140.309668
    }
]