[
    {
        "code": "A106332401012",
        "type": 16011,
        "name": "大江幼稚園",
        "address": "西村山郡大江町左沢461",
        "lat": 38.381325,
        "lng": 140.205201
    },
    {
        "code": "B106232420019",
        "type": 16001,
        "name": "左沢小学校",
        "address": "西村山郡大江町大字左沢816-2",
        "lat": 38.382106,
        "lng": 140.205232
    },
    {
        "code": "B106232420028",
        "type": 16001,
        "name": "本郷東小学校",
        "address": "西村山郡大江町本郷丙275-2",
        "lat": 38.37405,
        "lng": 140.183288
    },
    {
        "code": "B106232420037",
        "type": 16001,
        "name": "左沢小学校藤田の丘分校",
        "address": "西村山郡大江町藤田837-4",
        "lat": 38.363424,
        "lng": 140.20684
    },
    {
        "code": "C106232430015",
        "type": 16002,
        "name": "大江中学校",
        "address": "西村山郡大江町本郷己605",
        "lat": 38.373773,
        "lng": 140.192732
    },
    {
        "code": "C106232430024",
        "type": 16002,
        "name": "大江中学校藤田の丘分校",
        "address": "西村山郡大江町藤田837-4",
        "lat": 38.363432,
        "lng": 140.206741
    },
    {
        "code": "D106232450018",
        "type": 16004,
        "name": "左沢高等学校",
        "address": "西村山郡大江町藤田字山中816-3",
        "lat": 38.365442,
        "lng": 140.208566
    },
    {
        "code": "E106232460013",
        "type": 16012,
        "name": "楯岡特別支援学校大江校",
        "address": "西村山郡大江町大字三郷丙1403-1",
        "lat": 38.352721,
        "lng": 140.210876
    }
]