[
    {
        "code": "A206336111013",
        "type": 16013,
        "name": "認定こども園めごたま",
        "address": "最上郡金山町大字金山2277",
        "lat": 38.877424,
        "lng": 140.324659
    },
    {
        "code": "B106236120013",
        "type": 16001,
        "name": "金山小学校",
        "address": "最上郡金山町金山108-2",
        "lat": 38.88344,
        "lng": 140.341034
    },
    {
        "code": "B106236120022",
        "type": 16001,
        "name": "明安小学校",
        "address": "最上郡金山町大字下野明1696-1",
        "lat": 38.862696,
        "lng": 140.350105
    },
    {
        "code": "B106236120031",
        "type": 16001,
        "name": "有屋小学校",
        "address": "最上郡金山町有屋484-11",
        "lat": 38.904549,
        "lng": 140.376585
    },
    {
        "code": "C106236130019",
        "type": 16002,
        "name": "金山中学校",
        "address": "最上郡金山町大字金山641",
        "lat": 38.883439,
        "lng": 140.335201
    },
    {
        "code": "D106236150012",
        "type": 16004,
        "name": "新庄南高等学校金山校",
        "address": "最上郡金山町大字金山248-2",
        "lat": 38.876496,
        "lng": 140.336312
    }
]