[
    {
        "code": "A106338101012",
        "type": 16011,
        "name": "まつかわ幼稚園",
        "address": "東置賜郡高畠町大字福沢613",
        "lat": 37.994377,
        "lng": 140.147881
    },
    {
        "code": "A206338111019",
        "type": 16013,
        "name": "たかはたこども園",
        "address": "東置賜郡高畠町大字高畠1077-1",
        "lat": 38.000353,
        "lng": 140.199223
    },
    {
        "code": "A206338111028",
        "type": 16013,
        "name": "なかよしこども園",
        "address": "東置賜郡高畠町大字亀岡2920-1",
        "lat": 37.978718,
        "lng": 140.173614
    },
    {
        "code": "A206338111037",
        "type": 16013,
        "name": "なごみこども園",
        "address": "東置賜郡高畠町大字元和田1337",
        "lat": 37.964184,
        "lng": 140.184154
    },
    {
        "code": "A206338111046",
        "type": 16013,
        "name": "にじいろこども園",
        "address": "東置賜郡高畠町大字二井宿2802-1",
        "lat": 38.019936,
        "lng": 140.257504
    },
    {
        "code": "B106238120019",
        "type": 16001,
        "name": "高畠小学校",
        "address": "東置賜郡高畠町高畠3547",
        "lat": 38.001033,
        "lng": 140.200803
    },
    {
        "code": "B106238120028",
        "type": 16001,
        "name": "二井宿小学校",
        "address": "東置賜郡高畠町二井宿2750",
        "lat": 38.019366,
        "lng": 140.257743
    },
    {
        "code": "B106238120037",
        "type": 16001,
        "name": "屋代小学校",
        "address": "東置賜郡高畠町大字深沼30",
        "lat": 38.012698,
        "lng": 140.17386
    },
    {
        "code": "B106238120046",
        "type": 16001,
        "name": "亀岡小学校",
        "address": "東置賜郡高畠町亀岡2916",
        "lat": 37.977979,
        "lng": 140.173861
    },
    {
        "code": "B106238120055",
        "type": 16001,
        "name": "和田小学校",
        "address": "東置賜郡高畠町元和田1306",
        "lat": 37.957704,
        "lng": 140.19275
    },
    {
        "code": "B106238120064",
        "type": 16001,
        "name": "糠野目小学校",
        "address": "東置賜郡高畠町上平柳2070",
        "lat": 37.992422,
        "lng": 140.143308
    },
    {
        "code": "C106238130015",
        "type": 16002,
        "name": "高畠中学校",
        "address": "東置賜郡高畠町大字相森550",
        "lat": 37.998078,
        "lng": 140.17909
    },
    {
        "code": "D106238150018",
        "type": 16004,
        "name": "高畠高等学校",
        "address": "東置賜郡高畠町大字一本柳2788",
        "lat": 37.99408,
        "lng": 140.157773
    }
]