[
    {
        "code": "A106242600012",
        "type": 16011,
        "name": "みかわ幼稚園",
        "address": "東田川郡三川町大字押切新田字豊秋100",
        "lat": 38.807432,
        "lng": 139.853417
    },
    {
        "code": "A206342611016",
        "type": 16013,
        "name": "三川りっしょう子ども園",
        "address": "東田川郡三川町大字横山字西田66-1",
        "lat": 38.795861,
        "lng": 139.848762
    },
    {
        "code": "B106242620016",
        "type": 16001,
        "name": "横山小学校",
        "address": "東田川郡三川町横山字大正140",
        "lat": 38.776971,
        "lng": 139.852887
    },
    {
        "code": "B106242620025",
        "type": 16001,
        "name": "東郷小学校",
        "address": "東田川郡三川町神花字六瀬297-1",
        "lat": 38.802228,
        "lng": 139.841901
    },
    {
        "code": "B106242620034",
        "type": 16001,
        "name": "押切小学校",
        "address": "東田川郡三川町押切新田字高前1",
        "lat": 38.806212,
        "lng": 139.855247
    },
    {
        "code": "C106242630012",
        "type": 16002,
        "name": "三川中学校",
        "address": "東田川郡三川町横山字堤105",
        "lat": 38.785937,
        "lng": 139.845805
    }
]