[
    {
        "code": "A106242800010",
        "type": 16011,
        "name": "余目第一幼稚園",
        "address": "東田川郡庄内町高田麦字北裏8",
        "lat": 38.840923,
        "lng": 139.884646
    },
    {
        "code": "A106242800029",
        "type": 16011,
        "name": "余目第二幼稚園",
        "address": "東田川郡庄内町余目字矢口35-1",
        "lat": 38.837741,
        "lng": 139.909124
    },
    {
        "code": "A106242800038",
        "type": 16011,
        "name": "余目第三幼稚園",
        "address": "東田川郡庄内町廿六木字三百地6-1",
        "lat": 38.854456,
        "lng": 139.912413
    },
    {
        "code": "A106242800047",
        "type": 16011,
        "name": "余目第四幼稚園",
        "address": "東田川郡庄内町主殿新田字赤渕21-1",
        "lat": 38.809765,
        "lng": 139.937364
    },
    {
        "code": "A106242800056",
        "type": 16011,
        "name": "狩川幼稚園",
        "address": "東田川郡庄内町狩川字松葉20-1",
        "lat": 38.788153,
        "lng": 139.96392
    },
    {
        "code": "B106242820014",
        "type": 16001,
        "name": "立川小学校",
        "address": "東田川郡庄内町狩川字松葉5-1",
        "lat": 38.788161,
        "lng": 139.964961
    },
    {
        "code": "B106242820023",
        "type": 16001,
        "name": "余目第一小学校",
        "address": "東田川郡庄内町余目字南田105-1",
        "lat": 38.841764,
        "lng": 139.88441
    },
    {
        "code": "B106242820032",
        "type": 16001,
        "name": "余目第二小学校",
        "address": "東田川郡庄内町払田字村東68",
        "lat": 38.838432,
        "lng": 139.908576
    },
    {
        "code": "B106242820041",
        "type": 16001,
        "name": "余目第三小学校",
        "address": "東田川郡庄内町廿六木字三百地6-1",
        "lat": 38.854264,
        "lng": 139.913296
    },
    {
        "code": "B106242820050",
        "type": 16001,
        "name": "余目第四小学校",
        "address": "東田川郡庄内町主殿新田字赤渕21-1",
        "lat": 38.810103,
        "lng": 139.938573
    },
    {
        "code": "C106242830010",
        "type": 16002,
        "name": "立川中学校",
        "address": "東田川郡庄内町狩川字松葉1-1",
        "lat": 38.78804,
        "lng": 139.966745
    },
    {
        "code": "C106242830029",
        "type": 16002,
        "name": "余目中学校",
        "address": "東田川郡庄内町余目字猿田30",
        "lat": 38.846764,
        "lng": 139.90302
    },
    {
        "code": "D106242850013",
        "type": 16004,
        "name": "庄内総合高等学校",
        "address": "東田川郡庄内町廿六木三ﾂ車8",
        "lat": 38.855097,
        "lng": 139.909963
    }
]