[
    {
        "code": "A107220210019",
        "type": 16011,
        "name": "河東第三幼稚園",
        "address": "会津若松市河東町大字熊野堂字高舘175",
        "lat": 37.56343,
        "lng": 139.91823
    },
    {
        "code": "A107320210026",
        "type": 16011,
        "name": "若松聖愛幼稚園",
        "address": "会津若松市馬場町3-8",
        "lat": 37.498607,
        "lng": 139.932229
    },
    {
        "code": "A207320221013",
        "type": 16013,
        "name": "認定こども園子どもの森",
        "address": "会津若松市一箕町大字亀賀字北柳原42-1",
        "lat": 37.521446,
        "lng": 139.934661
    },
    {
        "code": "A207320221022",
        "type": 16013,
        "name": "会津慈光こども園",
        "address": "会津若松市宝町2-16",
        "lat": 37.487312,
        "lng": 139.940131
    },
    {
        "code": "A207320221031",
        "type": 16013,
        "name": "みなみ若葉こども園",
        "address": "会津若松市門田町大字日吉小金井63",
        "lat": 37.476742,
        "lng": 139.916932
    },
    {
        "code": "A207320221040",
        "type": 16013,
        "name": "若松第二幼稚園",
        "address": "会津若松市日新町8-26",
        "lat": 37.497913,
        "lng": 139.917499
    },
    {
        "code": "A207320221059",
        "type": 16013,
        "name": "認定こども園こばとらんど",
        "address": "会津若松市町北町上荒久田石尻107",
        "lat": 37.514175,
        "lng": 139.92634
    },
    {
        "code": "A207320221068",
        "type": 16013,
        "name": "北会津こどもの村幼保園",
        "address": "会津若松市北会津町中荒井字山道4-1",
        "lat": 37.498248,
        "lng": 139.872771
    },
    {
        "code": "A207320221077",
        "type": 16013,
        "name": "菅原若葉こども園",
        "address": "会津若松市柳原町4-5-20",
        "lat": 37.493917,
        "lng": 139.904068
    },
    {
        "code": "A207320221086",
        "type": 16013,
        "name": "榎の木",
        "address": "会津若松市千石町8-16",
        "lat": 37.496663,
        "lng": 139.939631
    },
    {
        "code": "A207320221095",
        "type": 16013,
        "name": "とうみょう子ども園",
        "address": "会津若松市大町2-1-45",
        "lat": 37.501812,
        "lng": 139.928162
    },
    {
        "code": "A207320221102",
        "type": 16013,
        "name": "若松第一幼稚園",
        "address": "会津若松市中央1-1-5",
        "lat": 37.497383,
        "lng": 139.929937
    },
    {
        "code": "A207320221111",
        "type": 16013,
        "name": "どんぐり山こども園",
        "address": "会津若松市門田町大字黒岩字大坪68-1",
        "lat": 37.475467,
        "lng": 139.931854
    },
    {
        "code": "A207320221120",
        "type": 16013,
        "name": "会津若葉幼稚園",
        "address": "会津若松市湯川町3-74",
        "lat": 37.489556,
        "lng": 139.920419
    },
    {
        "code": "A207320221139",
        "type": 16013,
        "name": "慈光第二こども園",
        "address": "会津若松市東年貢2-7-3",
        "lat": 37.474138,
        "lng": 139.927923
    },
    {
        "code": "A207320221148",
        "type": 16013,
        "name": "若松第三幼稚園",
        "address": "会津若松市湯川町3-53",
        "lat": 37.48934,
        "lng": 139.918984
    },
    {
        "code": "A207320221157",
        "type": 16013,
        "name": "ザベリオ学園こども園",
        "address": "会津若松市西栄町1-52",
        "lat": 37.493152,
        "lng": 139.924752
    },
    {
        "code": "A207320221166",
        "type": 16013,
        "name": "南町こども園",
        "address": "会津若松市南花畑2-7",
        "lat": 37.484776,
        "lng": 139.925197
    },
    {
        "code": "A207320221175",
        "type": 16013,
        "name": "やまがみらいこども園",
        "address": "会津若松市山鹿町4-37",
        "lat": 37.49183,
        "lng": 139.922677
    },
    {
        "code": "B107220230013",
        "type": 16001,
        "name": "鶴城小学校",
        "address": "会津若松市栄町7-7",
        "lat": 37.493027,
        "lng": 139.931407
    },
    {
        "code": "B107220230022",
        "type": 16001,
        "name": "城北小学校",
        "address": "会津若松市城北町2-1",
        "lat": 37.504137,
        "lng": 139.926129
    },
    {
        "code": "B107220230031",
        "type": 16001,
        "name": "行仁小学校",
        "address": "会津若松市行仁町6-1",
        "lat": 37.498027,
        "lng": 139.937517
    },
    {
        "code": "B107220230040",
        "type": 16001,
        "name": "城西小学校",
        "address": "会津若松市川原町4-1",
        "lat": 37.488583,
        "lng": 139.91613
    },
    {
        "code": "B107220230059",
        "type": 16001,
        "name": "謹教小学校",
        "address": "会津若松市米代1-5-33",
        "lat": 37.489417,
        "lng": 139.923074
    },
    {
        "code": "B107220230068",
        "type": 16001,
        "name": "日新小学校",
        "address": "会津若松市日新町7-40",
        "lat": 37.496916,
        "lng": 139.917519
    },
    {
        "code": "B107220230077",
        "type": 16001,
        "name": "湊小学校",
        "address": "会津若松市湊町大字共和字上馬渡171",
        "lat": 37.469419,
        "lng": 140.011401
    },
    {
        "code": "B107220230086",
        "type": 16001,
        "name": "一箕小学校",
        "address": "会津若松市山見町220",
        "lat": 37.506359,
        "lng": 139.940294
    },
    {
        "code": "B107220230095",
        "type": 16001,
        "name": "松長小学校",
        "address": "会津若松市一箕町松長4-9-2",
        "lat": 37.52608,
        "lng": 139.957237
    },
    {
        "code": "B107220230102",
        "type": 16001,
        "name": "永和小学校",
        "address": "会津若松市高野町大字上高野字村内43-1",
        "lat": 37.525245,
        "lng": 139.909463
    },
    {
        "code": "B107220230111",
        "type": 16001,
        "name": "神指小学校",
        "address": "会津若松市神指町大字高瀬字大道東108-3",
        "lat": 37.518579,
        "lng": 139.899742
    },
    {
        "code": "B107220230120",
        "type": 16001,
        "name": "門田小学校",
        "address": "会津若松市門田町大字中野字村前1-1",
        "lat": 37.468586,
        "lng": 139.922242
    },
    {
        "code": "B107220230139",
        "type": 16001,
        "name": "城南小学校",
        "address": "会津若松市門田町大字黒岩字大坪25-1",
        "lat": 37.475529,
        "lng": 139.933074
    },
    {
        "code": "B107220230148",
        "type": 16001,
        "name": "大戸小学校",
        "address": "会津若松市大戸町上三寄大豆田116",
        "lat": 37.392762,
        "lng": 139.934743
    },
    {
        "code": "B107220230157",
        "type": 16001,
        "name": "東山小学校",
        "address": "会津若松市慶山1-2-1",
        "lat": 37.494139,
        "lng": 139.946127
    },
    {
        "code": "B107220230166",
        "type": 16001,
        "name": "小金井小学校",
        "address": "会津若松市門田町大字日吉字小金井48",
        "lat": 37.477248,
        "lng": 139.918805
    },
    {
        "code": "B107220230175",
        "type": 16001,
        "name": "荒舘小学校",
        "address": "会津若松市北会津町下荒井字八幡前13",
        "lat": 37.507408,
        "lng": 139.867442
    },
    {
        "code": "B107220230184",
        "type": 16001,
        "name": "川南小学校",
        "address": "会津若松市北会津町小松490-2",
        "lat": 37.465052,
        "lng": 139.880968
    },
    {
        "code": "B107320231010",
        "type": 16001,
        "name": "会津若松ザベリオ学園小学校",
        "address": "会津若松市西栄町1-18",
        "lat": 37.492452,
        "lng": 139.924986
    },
    {
        "code": "C107220240019",
        "type": 16002,
        "name": "第一中学校",
        "address": "会津若松市蚕養町11-1",
        "lat": 37.505526,
        "lng": 139.935017
    },
    {
        "code": "C107220240028",
        "type": 16002,
        "name": "第二中学校",
        "address": "会津若松市城前1-7",
        "lat": 37.491083,
        "lng": 139.933907
    },
    {
        "code": "C107220240037",
        "type": 16002,
        "name": "第三中学校",
        "address": "会津若松市湯川町4-20",
        "lat": 37.488028,
        "lng": 139.918908
    },
    {
        "code": "C107220240046",
        "type": 16002,
        "name": "第四中学校",
        "address": "会津若松市桜町110",
        "lat": 37.481362,
        "lng": 139.912798
    },
    {
        "code": "C107220240055",
        "type": 16002,
        "name": "第五中学校",
        "address": "会津若松市門田町大字御山字村下314",
        "lat": 37.469974,
        "lng": 139.925575
    },
    {
        "code": "C107220240064",
        "type": 16002,
        "name": "第六中学校",
        "address": "会津若松市神指町大字黒川字湯川東296",
        "lat": 37.511358,
        "lng": 139.910852
    },
    {
        "code": "C107220240073",
        "type": 16002,
        "name": "湊中学校",
        "address": "会津若松市湊町大字共和字上馬渡266-1",
        "lat": 37.469142,
        "lng": 140.010012
    },
    {
        "code": "C107220240082",
        "type": 16002,
        "name": "一箕中学校",
        "address": "会津若松市一箕町大字八幡字堰下70",
        "lat": 37.516914,
        "lng": 139.953904
    },
    {
        "code": "C107220240091",
        "type": 16002,
        "name": "大戸中学校",
        "address": "会津若松市大戸町上三寄香塩211-1",
        "lat": 37.395817,
        "lng": 139.93641
    },
    {
        "code": "C107220240108",
        "type": 16002,
        "name": "北会津中学校",
        "address": "会津若松市北会津町中荒井2107-1",
        "lat": 37.496602,
        "lng": 139.872862
    },
    {
        "code": "C107220240126",
        "type": 16002,
        "name": "会津学鳳中学校",
        "address": "会津若松市一箕町大字八幡字八幡1-1",
        "lat": 37.511102,
        "lng": 139.942623
    },
    {
        "code": "C107320241016",
        "type": 16002,
        "name": "会津若松ザベリオ学園中学校",
        "address": "会津若松市西栄町1-18",
        "lat": 37.492393,
        "lng": 139.925867
    },
    {
        "code": "C207220250015",
        "type": 16014,
        "name": "河東学園",
        "address": "会津若松市河東町南高野字金剛田1",
        "lat": 37.555123,
        "lng": 139.928435
    },
    {
        "code": "D107220260012",
        "type": 16004,
        "name": "会津高等学校",
        "address": "会津若松市表町3-1",
        "lat": 37.480529,
        "lng": 139.929463
    },
    {
        "code": "D107220260021",
        "type": 16004,
        "name": "葵高等学校",
        "address": "会津若松市西栄町4-61",
        "lat": 37.493861,
        "lng": 139.926129
    },
    {
        "code": "D107220260030",
        "type": 16004,
        "name": "会津学鳳高等学校",
        "address": "会津若松市一箕町大字八幡字八幡1-1",
        "lat": 37.510977,
        "lng": 139.943733
    },
    {
        "code": "D107220260049",
        "type": 16004,
        "name": "若松商業高等学校",
        "address": "会津若松市米代1-3-31",
        "lat": 37.487472,
        "lng": 139.924185
    },
    {
        "code": "D107220260058",
        "type": 16004,
        "name": "会津工業高等学校",
        "address": "会津若松市徒之町1-37",
        "lat": 37.492674,
        "lng": 139.935065
    },
    {
        "code": "D107220260067",
        "type": 16004,
        "name": "会津第二高等学校",
        "address": "会津若松市徒之町1-37",
        "lat": 37.49275,
        "lng": 139.93474
    },
    {
        "code": "D107320261019",
        "type": 16004,
        "name": "会津北嶺高等学校",
        "address": "会津若松市相生町3-2",
        "lat": 37.502193,
        "lng": 139.935295
    },
    {
        "code": "D107320261028",
        "type": 16004,
        "name": "会津若松ザベリオ学園高等学校",
        "address": "会津若松市西栄町1-18",
        "lat": 37.492194,
        "lng": 139.925296
    },
    {
        "code": "D107320261037",
        "type": 16004,
        "name": "仁愛高等学校",
        "address": "会津若松市鶴賀町1-5",
        "lat": 37.52108,
        "lng": 139.946126
    },
    {
        "code": "E107220270017",
        "type": 16012,
        "name": "聴覚支援学校会津校",
        "address": "会津若松市一箕町鶴賀字下柳原102",
        "lat": 37.524223,
        "lng": 139.934675
    },
    {
        "code": "E107220270026",
        "type": 16012,
        "name": "会津支援学校",
        "address": "会津若松市一箕町大字鶴賀字下柳原102",
        "lat": 37.523857,
        "lng": 139.934739
    },
    {
        "code": "E107220270035",
        "type": 16012,
        "name": "会津支援学校竹田校",
        "address": "会津若松市山鹿町3-27",
        "lat": 37.490545,
        "lng": 139.922038
    },
    {
        "code": "F107210101299",
        "type": 16007,
        "name": "会津大学",
        "address": "会津若松市一箕町大字鶴賀字上居合90",
        "lat": 37.523684,
        "lng": 139.93804
    },
    {
        "code": "F207210101350",
        "type": 16006,
        "name": "会津大学短期大学部",
        "address": "会津若松市一箕町大字八幡字門田1-1",
        "lat": 37.506915,
        "lng": 139.946127
    },
    {
        "code": "H107320281016",
        "type": 16016,
        "name": "会津服装専門学校",
        "address": "会津若松市栄町5-23",
        "lat": 37.496375,
        "lng": 139.930768
    },
    {
        "code": "H107320281025",
        "type": 16016,
        "name": "シークドレスメーカー専門学校",
        "address": "会津若松市宮町4-45",
        "lat": 37.49542,
        "lng": 139.935025
    },
    {
        "code": "H107320281034",
        "type": 16016,
        "name": "竹田看護専門学校",
        "address": "会津若松市本町2-58",
        "lat": 37.491969,
        "lng": 139.919877
    },
    {
        "code": "H107320281043",
        "type": 16016,
        "name": "ＡＩＺＵビューティーカレッジ",
        "address": "会津若松市駅前町4-3",
        "lat": 37.505098,
        "lng": 139.929573
    },
    {
        "code": "H107320281052",
        "type": 16016,
        "name": "仁愛看護福祉専門学校",
        "address": "会津若松市鶴賀町1-6",
        "lat": 37.520905,
        "lng": 139.947125
    },
    {
        "code": "H107320281061",
        "type": 16016,
        "name": "会津准看護高等専修学校",
        "address": "会津若松市ｲﾝﾀｰ西33-5",
        "lat": 37.524407,
        "lng": 139.915918
    },
    {
        "code": "H107320281070",
        "type": 16016,
        "name": "城南スクール",
        "address": "会津若松市城南町1-36",
        "lat": 37.486792,
        "lng": 139.927297
    }
]