[
    {
        "code": "A107220410017",
        "type": 16011,
        "name": "すずかけ幼稚園",
        "address": "いわき市平字五色町26",
        "lat": 37.054588,
        "lng": 140.903524
    },
    {
        "code": "A107220410026",
        "type": 16011,
        "name": "湯本第一幼稚園",
        "address": "いわき市常磐湯本町吹谷113-2",
        "lat": 37.005144,
        "lng": 140.843713
    },
    {
        "code": "A107220410035",
        "type": 16011,
        "name": "湯本第三幼稚園",
        "address": "いわき市常磐湯本町上浅貝12-1",
        "lat": 37.009248,
        "lng": 140.85808
    },
    {
        "code": "A107220410044",
        "type": 16011,
        "name": "磐崎幼稚園",
        "address": "いわき市常磐西郷町金山160-2",
        "lat": 36.984377,
        "lng": 140.855148
    },
    {
        "code": "A107220410053",
        "type": 16011,
        "name": "藤原幼稚園",
        "address": "いわき市常磐藤原町大畑81",
        "lat": 36.998186,
        "lng": 140.819244
    },
    {
        "code": "A107220410062",
        "type": 16011,
        "name": "江名幼稚園",
        "address": "いわき市江名字上代8-4",
        "lat": 36.972837,
        "lng": 140.958002
    },
    {
        "code": "A107220410071",
        "type": 16011,
        "name": "四倉第一幼稚園",
        "address": "いわき市四倉町字西4-3-3",
        "lat": 37.109239,
        "lng": 140.98689
    },
    {
        "code": "A107220410080",
        "type": 16011,
        "name": "四倉第二幼稚園",
        "address": "いわき市四倉町狐塚字松橋65",
        "lat": 37.093532,
        "lng": 140.966286
    },
    {
        "code": "A107220410099",
        "type": 16011,
        "name": "四倉第四幼稚園",
        "address": "いわき市四倉町駒込字広畑20-2",
        "lat": 37.113412,
        "lng": 140.903349
    },
    {
        "code": "A107220410106",
        "type": 16011,
        "name": "高坂幼稚園",
        "address": "いわき市内郷高坂町桜井76",
        "lat": 37.043796,
        "lng": 140.852602
    },
    {
        "code": "A107220410115",
        "type": 16011,
        "name": "宮幼稚園",
        "address": "いわき市内郷宮町滝12-1",
        "lat": 37.045641,
        "lng": 140.835673
    },
    {
        "code": "A107220410124",
        "type": 16011,
        "name": "西小名浜幼稚園",
        "address": "いわき市小名浜愛宕町3-2",
        "lat": 36.951468,
        "lng": 140.895474
    },
    {
        "code": "A107220410133",
        "type": 16011,
        "name": "玉川幼稚園",
        "address": "いわき市小名浜玉川町東11-1",
        "lat": 36.982944,
        "lng": 140.888903
    },
    {
        "code": "A107220410151",
        "type": 16011,
        "name": "汐見が丘幼稚園",
        "address": "いわき市小浜町西ﾉ作347",
        "lat": 36.923216,
        "lng": 140.829324
    },
    {
        "code": "A107320411014",
        "type": 16011,
        "name": "平みどり幼稚園",
        "address": "いわき市平下平窪字八木内11-1",
        "lat": 37.078954,
        "lng": 140.880575
    },
    {
        "code": "A107320411023",
        "type": 16011,
        "name": "志賀学園平第一幼稚園",
        "address": "いわき市平山崎字熊ﾉ宮39",
        "lat": 37.056601,
        "lng": 140.940013
    },
    {
        "code": "A107320411032",
        "type": 16011,
        "name": "明徳舘幼稚園",
        "address": "いわき市常磐関船町諏訪下7",
        "lat": 36.998938,
        "lng": 140.851561
    },
    {
        "code": "A107320411041",
        "type": 16011,
        "name": "まこと学園まこと幼稚園",
        "address": "いわき市常盤湯本町宝海133-7",
        "lat": 37.050318,
        "lng": 140.887684
    },
    {
        "code": "A107320411050",
        "type": 16011,
        "name": "さかえ学園さかえ幼稚園",
        "address": "いわき市内郷御台境町前田18-3",
        "lat": 37.053476,
        "lng": 140.871719
    },
    {
        "code": "A107320411069",
        "type": 16011,
        "name": "福島聖心学園小名浜白百合幼稚園",
        "address": "いわき市小名浜花畑町13-1",
        "lat": 36.955757,
        "lng": 140.902999
    },
    {
        "code": "A107320411078",
        "type": 16011,
        "name": "聖テモテ幼稚園",
        "address": "いわき市小名浜愛宕町16-2",
        "lat": 36.952141,
        "lng": 140.893669
    },
    {
        "code": "A107320411087",
        "type": 16011,
        "name": "宝徳学園ほうとく幼稚園",
        "address": "いわき市後田町石田34",
        "lat": 36.923533,
        "lng": 140.791661
    },
    {
        "code": "A107320411096",
        "type": 16011,
        "name": "福島聖心学園勿来カトリック幼稚園",
        "address": "いわき市錦町竹の花76-1",
        "lat": 36.903241,
        "lng": 140.789135
    },
    {
        "code": "A107320411103",
        "type": 16011,
        "name": "勿来中野学園勿来幼稚園",
        "address": "いわき市勿来町窪田伊賀屋敷58-2",
        "lat": 36.894941,
        "lng": 140.760502
    },
    {
        "code": "A107320411112",
        "type": 16011,
        "name": "白ばら幼稚園",
        "address": "いわき市山田町林崎前15",
        "lat": 36.929493,
        "lng": 140.772634
    },
    {
        "code": "A107320411121",
        "type": 16011,
        "name": "あざみ野学園あざみ野幼稚園",
        "address": "いわき市川部町赤坂110",
        "lat": 36.904167,
        "lng": 140.729173
    },
    {
        "code": "A107320411130",
        "type": 16011,
        "name": "千鳥学園千鳥幼稚園",
        "address": "いわき市勿来町関田須賀1-32",
        "lat": 36.876745,
        "lng": 140.790032
    },
    {
        "code": "A107320411149",
        "type": 16011,
        "name": "まこと学園遠野町まこと幼稚園",
        "address": "いわき市遠野町上遠野字風呂脇32",
        "lat": 37.009519,
        "lng": 140.749674
    },
    {
        "code": "A107320411158",
        "type": 16011,
        "name": "寿幼稚園",
        "address": "いわき市好間町北好間字塊坪10-3",
        "lat": 37.06982,
        "lng": 140.834943
    },
    {
        "code": "A107320411167",
        "type": 16011,
        "name": "志向学園かなや幼稚園",
        "address": "いわき市内郷高坂町四方木田153",
        "lat": 37.044301,
        "lng": 140.865296
    },
    {
        "code": "A107320411176",
        "type": 16011,
        "name": "いわき幼稚園",
        "address": "いわき市平下荒川字川前12-1",
        "lat": 37.039144,
        "lng": 140.905793
    },
    {
        "code": "A107320411185",
        "type": 16011,
        "name": "あかい幼稚園",
        "address": "いわき市平赤井字田中5",
        "lat": 37.081731,
        "lng": 140.866491
    },
    {
        "code": "A107320411194",
        "type": 16011,
        "name": "はな幼稚園",
        "address": "いわき市平中神谷字北出口18",
        "lat": 37.063405,
        "lng": 140.930217
    },
    {
        "code": "A107320411201",
        "type": 16011,
        "name": "新妻学園かしま幼稚園",
        "address": "いわき市鹿島町走熊字渡折19-1",
        "lat": 36.996224,
        "lng": 140.912194
    },
    {
        "code": "A107320411229",
        "type": 16011,
        "name": "昌平黌いわき短期大学附属幼稚園",
        "address": "いわき市平鎌田字石名坂6",
        "lat": 37.060923,
        "lng": 140.910242
    },
    {
        "code": "A107320411238",
        "type": 16011,
        "name": "明照学園九品寺附属平窪幼稚園",
        "address": "いわき市平中平窪字杉内27-2",
        "lat": 37.083975,
        "lng": 140.879667
    },
    {
        "code": "A107320411247",
        "type": 16011,
        "name": "吉田学園はるな幼稚園",
        "address": "いわき市好間町今新田字畑合8",
        "lat": 37.065233,
        "lng": 140.874921
    },
    {
        "code": "A107320411256",
        "type": 16011,
        "name": "まこと学園入遠野まこと幼稚園",
        "address": "いわき市遠野町上根本字上原田10-2",
        "lat": 37.033128,
        "lng": 140.717838
    },
    {
        "code": "A107320411265",
        "type": 16011,
        "name": "小川幼稚園",
        "address": "いわき市小川町西小川字滝ﾉ作5",
        "lat": 37.103562,
        "lng": 140.861243
    },
    {
        "code": "A107320411274",
        "type": 16011,
        "name": "ありす幼稚園",
        "address": "いわき市中央台鹿島1-50-1",
        "lat": 37.003904,
        "lng": 140.9157
    },
    {
        "code": "A207320421011",
        "type": 16013,
        "name": "星学園錦星",
        "address": "いわき市錦町花ﾉ井18",
        "lat": 36.91182,
        "lng": 140.776483
    },
    {
        "code": "A207320421020",
        "type": 16013,
        "name": "あそびの森こども園船戸幼稚園",
        "address": "いわき市鹿島町船戸字堤7",
        "lat": 36.982868,
        "lng": 140.905586
    },
    {
        "code": "A207320421039",
        "type": 16013,
        "name": "認定こども園りんごの木",
        "address": "いわき市平谷川瀬字仲山町25",
        "lat": 37.04725,
        "lng": 140.895946
    },
    {
        "code": "A207320421048",
        "type": 16013,
        "name": "久之浜こども園",
        "address": "いわき市大久町小久字連郷15-1",
        "lat": 37.14343,
        "lng": 140.991698
    },
    {
        "code": "A207320421057",
        "type": 16013,
        "name": "平幼稚園",
        "address": "いわき市明治団地80-5",
        "lat": 37.042863,
        "lng": 140.884742
    },
    {
        "code": "A207320421066",
        "type": 16013,
        "name": "神谷こども園",
        "address": "いわき市平中神谷字南鳥沼26",
        "lat": 37.063725,
        "lng": 140.934718
    },
    {
        "code": "A207320421075",
        "type": 16013,
        "name": "九品寺こども園",
        "address": "いわき市平九品寺町3-2",
        "lat": 37.063217,
        "lng": 140.896183
    },
    {
        "code": "A207320421084",
        "type": 16013,
        "name": "わかぎ幼稚園",
        "address": "いわき市小名浜字下明神町33-1",
        "lat": 36.950811,
        "lng": 140.908432
    },
    {
        "code": "A207320421093",
        "type": 16013,
        "name": "さとがおかキンダーガーデン",
        "address": "いわき市郷ヶ丘3-18-3",
        "lat": 37.028664,
        "lng": 140.911373
    },
    {
        "code": "A207320421100",
        "type": 16013,
        "name": "松の実こども園",
        "address": "いわき市常磐松久須根町内田1-1",
        "lat": 37.011286,
        "lng": 140.904833
    },
    {
        "code": "A207320421119",
        "type": 16013,
        "name": "リズムの丘こども園",
        "address": "いわき市勿来町関田北昨115",
        "lat": 36.882972,
        "lng": 140.783671
    },
    {
        "code": "A207320421128",
        "type": 16013,
        "name": "泉幼稚園",
        "address": "いわき市泉町4-5-3",
        "lat": 36.950022,
        "lng": 140.852106
    },
    {
        "code": "B107220430011",
        "type": 16001,
        "name": "平第一小学校",
        "address": "いわき市平字揚土5",
        "lat": 37.058378,
        "lng": 140.885226
    },
    {
        "code": "B107220430020",
        "type": 16001,
        "name": "平第二小学校",
        "address": "いわき市平梅香町7-1",
        "lat": 37.063656,
        "lng": 140.893002
    },
    {
        "code": "B107220430039",
        "type": 16001,
        "name": "平第三小学校",
        "address": "いわき市平字作町3-4-2",
        "lat": 37.048103,
        "lng": 140.902168
    },
    {
        "code": "B107220430048",
        "type": 16001,
        "name": "平第四小学校",
        "address": "いわき市平下平窪字諸荷59-1",
        "lat": 37.082419,
        "lng": 140.880316
    },
    {
        "code": "B107220430057",
        "type": 16001,
        "name": "平第五小学校",
        "address": "いわき市平下荒川字川前54-1",
        "lat": 37.040322,
        "lng": 140.907435
    },
    {
        "code": "B107220430066",
        "type": 16001,
        "name": "平第六小学校",
        "address": "いわき市平中神谷字石脇22",
        "lat": 37.068101,
        "lng": 140.931886
    },
    {
        "code": "B107220430075",
        "type": 16001,
        "name": "郷ケ丘小学校",
        "address": "いわき市郷ヶ丘3-50-18",
        "lat": 37.028939,
        "lng": 140.913001
    },
    {
        "code": "B107220430084",
        "type": 16001,
        "name": "中央台北小学校",
        "address": "いわき市中央台飯野3-2-1",
        "lat": 37.016441,
        "lng": 140.91078
    },
    {
        "code": "B107220430093",
        "type": 16001,
        "name": "中央台南小学校",
        "address": "いわき市中央台鹿島2-1-1",
        "lat": 37.002554,
        "lng": 140.922447
    },
    {
        "code": "B107220430100",
        "type": 16001,
        "name": "中央台東小学校",
        "address": "いわき市中央台高久2-24",
        "lat": 37.007797,
        "lng": 140.928889
    },
    {
        "code": "B107220430119",
        "type": 16001,
        "name": "豊間小学校",
        "address": "いわき市平薄磯字南作358-1",
        "lat": 37.001461,
        "lng": 140.974493
    },
    {
        "code": "B107220430128",
        "type": 16001,
        "name": "高久小学校",
        "address": "いわき市平下高久字原極46-1",
        "lat": 37.029612,
        "lng": 140.958166
    },
    {
        "code": "B107220430137",
        "type": 16001,
        "name": "夏井小学校",
        "address": "いわき市平上大越字塚越1",
        "lat": 37.052549,
        "lng": 140.952995
    },
    {
        "code": "B107220430146",
        "type": 16001,
        "name": "草野小学校",
        "address": "いわき市平下神谷字宿25",
        "lat": 37.071435,
        "lng": 140.947995
    },
    {
        "code": "B107220430155",
        "type": 16001,
        "name": "草野小学校絹谷分校",
        "address": "いわき市平絹谷字四反田30",
        "lat": 37.091584,
        "lng": 140.940132
    },
    {
        "code": "B107220430164",
        "type": 16001,
        "name": "赤井小学校",
        "address": "いわき市平赤井字田町49",
        "lat": 37.087541,
        "lng": 140.865226
    },
    {
        "code": "B107220430173",
        "type": 16001,
        "name": "四倉小学校",
        "address": "いわき市四倉町字西4-3-3",
        "lat": 37.109209,
        "lng": 140.987156
    },
    {
        "code": "B107220430182",
        "type": 16001,
        "name": "大浦小学校",
        "address": "いわき市四倉町狐塚字松橋27",
        "lat": 37.094885,
        "lng": 140.966016
    },
    {
        "code": "B107220430208",
        "type": 16001,
        "name": "久之浜第一小学校",
        "address": "いわき市久之浜町久之浜字糠塚3-1",
        "lat": 37.143402,
        "lng": 140.992929
    },
    {
        "code": "B107220430217",
        "type": 16001,
        "name": "久之浜第二小学校",
        "address": "いわき市大久町大久字矢ﾉ目沢2-1",
        "lat": 37.17678,
        "lng": 140.954645
    },
    {
        "code": "B107220430226",
        "type": 16001,
        "name": "小川小学校",
        "address": "いわき市小川町上平字田之尻4",
        "lat": 37.134559,
        "lng": 140.862481
    },
    {
        "code": "B107220430235",
        "type": 16001,
        "name": "小玉小学校",
        "address": "いわき市小川町西小川字小玉2-1",
        "lat": 37.122688,
        "lng": 140.861967
    },
    {
        "code": "B107220430244",
        "type": 16001,
        "name": "川前小学校",
        "address": "いわき市川前町川前字中ﾉ萱25-1",
        "lat": 37.205694,
        "lng": 140.752726
    },
    {
        "code": "B107220430253",
        "type": 16001,
        "name": "桶売小学校",
        "address": "いわき市川前町下桶売字久保田96-2",
        "lat": 37.248353,
        "lng": 140.724955
    },
    {
        "code": "B107220430262",
        "type": 16001,
        "name": "小白井小学校",
        "address": "いわき市川前町小白井字将監小屋94-1",
        "lat": 37.298954,
        "lng": 140.708392
    },
    {
        "code": "B107220430271",
        "type": 16001,
        "name": "内町小学校",
        "address": "いわき市内郷内町水之出37",
        "lat": 37.035326,
        "lng": 140.850469
    },
    {
        "code": "B107220430280",
        "type": 16001,
        "name": "綴小学校",
        "address": "いわき市内郷綴町秋山88",
        "lat": 37.030881,
        "lng": 140.856063
    },
    {
        "code": "B107220430299",
        "type": 16001,
        "name": "御厩小学校",
        "address": "いわき市内郷御厩町2-121",
        "lat": 37.046435,
        "lng": 140.869672
    },
    {
        "code": "B107220430306",
        "type": 16001,
        "name": "高坂小学校",
        "address": "いわき市内郷高坂町台35",
        "lat": 37.041093,
        "lng": 140.857299
    },
    {
        "code": "B107220430315",
        "type": 16001,
        "name": "宮小学校",
        "address": "いわき市内郷宮町滝12-4",
        "lat": 37.045708,
        "lng": 140.835073
    },
    {
        "code": "B107220430324",
        "type": 16001,
        "name": "高野小学校",
        "address": "いわき市内郷高野町中倉82-3",
        "lat": 37.053732,
        "lng": 140.795507
    },
    {
        "code": "B107220430333",
        "type": 16001,
        "name": "好間第一小学校",
        "address": "いわき市好間町上好間字馬場前14",
        "lat": 37.067204,
        "lng": 140.851073
    },
    {
        "code": "B107220430342",
        "type": 16001,
        "name": "好間第二小学校",
        "address": "いわき市好間町今新田字手倉2",
        "lat": 37.066988,
        "lng": 140.87606
    },
    {
        "code": "B107220430351",
        "type": 16001,
        "name": "好間第四小学校",
        "address": "いわき市好間町大利字戸作田65",
        "lat": 37.075229,
        "lng": 140.804163
    },
    {
        "code": "B107220430379",
        "type": 16001,
        "name": "小名浜第一小学校",
        "address": "いわき市小名浜岡小名字台ﾉ上1-1",
        "lat": 36.963115,
        "lng": 140.901337
    },
    {
        "code": "B107220430388",
        "type": 16001,
        "name": "小名浜第二小学校",
        "address": "いわき市小名浜愛宕町3-2",
        "lat": 36.952004,
        "lng": 140.896061
    },
    {
        "code": "B107220430397",
        "type": 16001,
        "name": "小名浜第三小学校",
        "address": "いわき市小名浜住吉字搦町7-1",
        "lat": 36.977923,
        "lng": 140.885705
    },
    {
        "code": "B107220430404",
        "type": 16001,
        "name": "小名浜東小学校",
        "address": "いわき市小名浜諏訪町37-1",
        "lat": 36.954505,
        "lng": 140.911615
    },
    {
        "code": "B107220430413",
        "type": 16001,
        "name": "小名浜西小学校",
        "address": "いわき市小名浜大原小滝山3",
        "lat": 36.96617,
        "lng": 140.897449
    },
    {
        "code": "B107220430422",
        "type": 16001,
        "name": "鹿島小学校",
        "address": "いわき市鹿島町走熊字中島1-1",
        "lat": 36.995888,
        "lng": 140.909391
    },
    {
        "code": "B107220430431",
        "type": 16001,
        "name": "江名小学校",
        "address": "いわき市江名字天ｹ作154",
        "lat": 36.971571,
        "lng": 140.953999
    },
    {
        "code": "B107220430440",
        "type": 16001,
        "name": "永崎小学校",
        "address": "いわき市永崎字川畑159-5",
        "lat": 36.955394,
        "lng": 140.937215
    },
    {
        "code": "B107220430459",
        "type": 16001,
        "name": "泉小学校",
        "address": "いわき市泉町字小山48-2",
        "lat": 36.950613,
        "lng": 140.847734
    },
    {
        "code": "B107220430468",
        "type": 16001,
        "name": "泉北小学校",
        "address": "いわき市泉町玉露字定田69",
        "lat": 36.962278,
        "lng": 140.847455
    },
    {
        "code": "B107220430477",
        "type": 16001,
        "name": "渡辺小学校",
        "address": "いわき市渡辺町田部字岸17-1",
        "lat": 36.958906,
        "lng": 140.830064
    },
    {
        "code": "B107220430486",
        "type": 16001,
        "name": "湯本第一小学校",
        "address": "いわき市常磐湯本町栄田11-10",
        "lat": 37.003661,
        "lng": 140.848287
    },
    {
        "code": "B107220430495",
        "type": 16001,
        "name": "湯本第二小学校",
        "address": "いわき市常磐湯本町日渡35",
        "lat": 37.018757,
        "lng": 140.841661
    },
    {
        "code": "B107220430501",
        "type": 16001,
        "name": "湯本第三小学校",
        "address": "いわき市常磐水野谷町竜ヶ沢36",
        "lat": 37.008365,
        "lng": 140.863142
    },
    {
        "code": "B107220430510",
        "type": 16001,
        "name": "長倉小学校",
        "address": "いわき市常磐上湯長谷町上ﾉ台99-2",
        "lat": 37.002453,
        "lng": 140.837161
    },
    {
        "code": "B107220430529",
        "type": 16001,
        "name": "磐崎小学校",
        "address": "いわき市常磐下湯長谷町勝善14-13",
        "lat": 36.988051,
        "lng": 140.851004
    },
    {
        "code": "B107220430538",
        "type": 16001,
        "name": "藤原小学校",
        "address": "いわき市常磐藤原町斑堂115-2",
        "lat": 37.001439,
        "lng": 140.822457
    },
    {
        "code": "B107220430547",
        "type": 16001,
        "name": "植田小学校",
        "address": "いわき市東田町向山1",
        "lat": 36.92427,
        "lng": 140.804598
    },
    {
        "code": "B107220430556",
        "type": 16001,
        "name": "汐見が丘小学校",
        "address": "いわき市小浜町西ﾉ作358",
        "lat": 36.922875,
        "lng": 140.830215
    },
    {
        "code": "B107220430565",
        "type": 16001,
        "name": "錦小学校",
        "address": "いわき市錦町鳥居東1-1",
        "lat": 36.910892,
        "lng": 140.787743
    },
    {
        "code": "B107220430574",
        "type": 16001,
        "name": "錦東小学校",
        "address": "いわき市錦町鷺内64-5",
        "lat": 36.901727,
        "lng": 140.79802
    },
    {
        "code": "B107220430583",
        "type": 16001,
        "name": "菊田小学校",
        "address": "いわき市山田町林崎前56",
        "lat": 36.928523,
        "lng": 140.773925
    },
    {
        "code": "B107220430592",
        "type": 16001,
        "name": "勿来第一小学校",
        "address": "いわき市勿来町窪田伊賀屋敷1-1",
        "lat": 36.893116,
        "lng": 140.76219
    },
    {
        "code": "B107220430609",
        "type": 16001,
        "name": "勿来第二小学校",
        "address": "いわき市勿来町関田和久75",
        "lat": 36.885566,
        "lng": 140.788135
    },
    {
        "code": "B107220430618",
        "type": 16001,
        "name": "勿来第三小学校",
        "address": "いわき市勿来町酒井北ﾉ内1",
        "lat": 36.885895,
        "lng": 140.742192
    },
    {
        "code": "B107220430627",
        "type": 16001,
        "name": "川部小学校",
        "address": "いわき市川部町川原65-1",
        "lat": 36.906447,
        "lng": 140.731637
    },
    {
        "code": "B107220430636",
        "type": 16001,
        "name": "上遠野小学校",
        "address": "いわき市遠野町上遠野字本町68",
        "lat": 37.009214,
        "lng": 140.747186
    },
    {
        "code": "B107220430645",
        "type": 16001,
        "name": "入遠野小学校",
        "address": "いわき市遠野町入遠野字前田142",
        "lat": 37.036781,
        "lng": 140.708107
    },
    {
        "code": "B107220430654",
        "type": 16001,
        "name": "田人小学校",
        "address": "いわき市田人町黒田字中野18-1",
        "lat": 36.963546,
        "lng": 140.704113
    },
    {
        "code": "B107320431018",
        "type": 16001,
        "name": "いわき秀英小学校",
        "address": "いわき市泉町字滝ﾉ沢3-1",
        "lat": 36.949242,
        "lng": 140.840471
    },
    {
        "code": "C107220440017",
        "type": 16002,
        "name": "平第一中学校",
        "address": "いわき市平字揚土1",
        "lat": 37.058656,
        "lng": 140.883282
    },
    {
        "code": "C107220440026",
        "type": 16002,
        "name": "平第二中学校",
        "address": "いわき市平鎌田字味噌能2",
        "lat": 37.060045,
        "lng": 140.90689
    },
    {
        "code": "C107220440035",
        "type": 16002,
        "name": "平第三中学校",
        "address": "いわき市平谷川瀬字吉野作56-2",
        "lat": 37.041992,
        "lng": 140.895225
    },
    {
        "code": "C107220440044",
        "type": 16002,
        "name": "中央台北中学校",
        "address": "いわき市中央台飯野5-2-1",
        "lat": 37.019774,
        "lng": 140.91078
    },
    {
        "code": "C107220440053",
        "type": 16002,
        "name": "中央台南中学校",
        "address": "いわき市中央台鹿島2-42-1",
        "lat": 37.003153,
        "lng": 140.926301
    },
    {
        "code": "C107220440062",
        "type": 16002,
        "name": "豊間中学校",
        "address": "いわき市平薄磯字南作62",
        "lat": 37.001419,
        "lng": 140.974268
    },
    {
        "code": "C107220440071",
        "type": 16002,
        "name": "藤間中学校",
        "address": "いわき市平藤間字千ヶ久保76-6",
        "lat": 37.035885,
        "lng": 140.964384
    },
    {
        "code": "C107220440080",
        "type": 16002,
        "name": "草野中学校",
        "address": "いわき市平下神谷字宿25",
        "lat": 37.070602,
        "lng": 140.946884
    },
    {
        "code": "C107220440099",
        "type": 16002,
        "name": "赤井中学校",
        "address": "いわき市平赤井字大門13",
        "lat": 37.085041,
        "lng": 140.853283
    },
    {
        "code": "C107220440106",
        "type": 16002,
        "name": "四倉中学校",
        "address": "いわき市四倉町字東1-65",
        "lat": 37.09921,
        "lng": 140.984656
    },
    {
        "code": "C107220440115",
        "type": 16002,
        "name": "大野中学校",
        "address": "いわき市四倉町玉山字御城204",
        "lat": 37.117262,
        "lng": 140.937439
    },
    {
        "code": "C107220440124",
        "type": 16002,
        "name": "久之浜中学校",
        "address": "いわき市久之浜町久之浜字大場72-1",
        "lat": 37.145108,
        "lng": 140.987533
    },
    {
        "code": "C107220440133",
        "type": 16002,
        "name": "小川中学校",
        "address": "いわき市小川町上平字竹ﾉ内63",
        "lat": 37.129203,
        "lng": 140.857446
    },
    {
        "code": "C107220440142",
        "type": 16002,
        "name": "川前中学校",
        "address": "いわき市川前町川前字中ﾉ萱25-1",
        "lat": 37.205581,
        "lng": 140.752732
    },
    {
        "code": "C107220440151",
        "type": 16002,
        "name": "桶売中学校",
        "address": "いわき市川前町下桶売字久保田96-2",
        "lat": 37.247242,
        "lng": 140.723567
    },
    {
        "code": "C107220440160",
        "type": 16002,
        "name": "小白井中学校",
        "address": "いわき市川前町小白井字将監小屋94-1",
        "lat": 37.299053,
        "lng": 140.707925
    },
    {
        "code": "C107220440179",
        "type": 16002,
        "name": "内郷第一中学校",
        "address": "いわき市内郷高坂町立野129-1",
        "lat": 37.043101,
        "lng": 140.851063
    },
    {
        "code": "C107220440188",
        "type": 16002,
        "name": "内郷第二中学校",
        "address": "いわき市内郷宮町金坂114",
        "lat": 37.043524,
        "lng": 140.843032
    },
    {
        "code": "C107220440197",
        "type": 16002,
        "name": "内郷第三中学校",
        "address": "いわき市内郷高野町中倉82-3",
        "lat": 37.053654,
        "lng": 140.795513
    },
    {
        "code": "C107220440204",
        "type": 16002,
        "name": "好間中学校",
        "address": "いわき市好間町小谷作字竹ﾉ内1-1",
        "lat": 37.068099,
        "lng": 140.861617
    },
    {
        "code": "C107220440213",
        "type": 16002,
        "name": "三和中学校",
        "address": "いわき市三和町中寺字桶ﾉ口4-2",
        "lat": 37.125034,
        "lng": 140.722182
    },
    {
        "code": "C107220440222",
        "type": 16002,
        "name": "小名浜第一中学校",
        "address": "いわき市小名浜岡小名字山田作9-1",
        "lat": 36.966942,
        "lng": 140.897194
    },
    {
        "code": "C107220440231",
        "type": 16002,
        "name": "小名浜第二中学校",
        "address": "いわき市小名浜岡小名字池袋11",
        "lat": 36.955894,
        "lng": 140.91217
    },
    {
        "code": "C107220440240",
        "type": 16002,
        "name": "玉川中学校",
        "address": "いわき市小名浜玉川町西24",
        "lat": 36.983111,
        "lng": 140.882449
    },
    {
        "code": "C107220440259",
        "type": 16002,
        "name": "江名中学校",
        "address": "いわき市永崎字館1",
        "lat": 36.958585,
        "lng": 140.941241
    },
    {
        "code": "C107220440268",
        "type": 16002,
        "name": "泉中学校",
        "address": "いわき市泉町玉露字吉野作42",
        "lat": 36.96259,
        "lng": 140.852544
    },
    {
        "code": "C107220440277",
        "type": 16002,
        "name": "湯本第一中学校",
        "address": "いわき市常磐湯本町吹谷11-1",
        "lat": 37.00616,
        "lng": 140.84301
    },
    {
        "code": "C107220440286",
        "type": 16002,
        "name": "湯本第二中学校",
        "address": "いわき市常磐湯本町上浅貝103-2",
        "lat": 37.0155,
        "lng": 140.857959
    },
    {
        "code": "C107220440295",
        "type": 16002,
        "name": "湯本第三中学校",
        "address": "いわき市常磐湯本町高倉3-3",
        "lat": 37.013968,
        "lng": 140.832514
    },
    {
        "code": "C107220440302",
        "type": 16002,
        "name": "磐崎中学校",
        "address": "いわき市常磐下湯長谷町家中跡28-5",
        "lat": 36.990317,
        "lng": 140.844295
    },
    {
        "code": "C107220440311",
        "type": 16002,
        "name": "植田中学校",
        "address": "いわき市植田町根小屋25-4",
        "lat": 36.918947,
        "lng": 140.787187
    },
    {
        "code": "C107220440320",
        "type": 16002,
        "name": "植田東中学校",
        "address": "いわき市石塚町国分175-2",
        "lat": 36.928948,
        "lng": 140.814683
    },
    {
        "code": "C107220440339",
        "type": 16002,
        "name": "錦中学校",
        "address": "いわき市錦町飯盛町1-1",
        "lat": 36.90256,
        "lng": 140.788299
    },
    {
        "code": "C107220440348",
        "type": 16002,
        "name": "勿来第一中学校",
        "address": "いわき市勿来町窪田伊賀屋敷102-2",
        "lat": 36.894556,
        "lng": 140.762623
    },
    {
        "code": "C107220440357",
        "type": 16002,
        "name": "勿来第二中学校",
        "address": "いわき市勿来町関田北作6",
        "lat": 36.880897,
        "lng": 140.783856
    },
    {
        "code": "C107220440366",
        "type": 16002,
        "name": "川部中学校",
        "address": "いわき市川部町坂下18-1",
        "lat": 36.903777,
        "lng": 140.726453
    },
    {
        "code": "C107220440375",
        "type": 16002,
        "name": "上遠野中学校",
        "address": "いわき市遠野町上遠野字根小屋30",
        "lat": 37.010603,
        "lng": 140.750241
    },
    {
        "code": "C107220440384",
        "type": 16002,
        "name": "入遠野中学校",
        "address": "いわき市遠野町上根本字荒神平20",
        "lat": 37.032267,
        "lng": 140.716631
    },
    {
        "code": "C107220440393",
        "type": 16002,
        "name": "田人中学校",
        "address": "いわき市田人町黒田字中野18-1",
        "lat": 36.964373,
        "lng": 140.702491
    },
    {
        "code": "C107320441014",
        "type": 16002,
        "name": "東日本国際大学附属昌平中学校",
        "address": "いわき市平上片寄字上ﾉ内152",
        "lat": 37.08146,
        "lng": 140.913184
    },
    {
        "code": "C107320441023",
        "type": 16002,
        "name": "磐城緑蔭中学校",
        "address": "いわき市平南白土字勝負田11",
        "lat": 37.044233,
        "lng": 140.909942
    },
    {
        "code": "C107320441032",
        "type": 16002,
        "name": "いわき秀英中学校",
        "address": "いわき市泉町字滝ﾉ沢3-1",
        "lat": 36.949249,
        "lng": 140.84035
    },
    {
        "code": "D107220460010",
        "type": 16004,
        "name": "磐城高等学校",
        "address": "いわき市平字高月7",
        "lat": 37.0631,
        "lng": 140.879671
    },
    {
        "code": "D107220460029",
        "type": 16004,
        "name": "磐城桜が丘高等学校",
        "address": "いわき市平字桜町5",
        "lat": 37.0631,
        "lng": 140.88717
    },
    {
        "code": "D107220460038",
        "type": 16004,
        "name": "平工業高等学校",
        "address": "いわき市平下荒川字中剃1-3",
        "lat": 37.036716,
        "lng": 140.903835
    },
    {
        "code": "D107220460047",
        "type": 16004,
        "name": "平商業高等学校",
        "address": "いわき市平中塩字一水口37-1",
        "lat": 37.069723,
        "lng": 140.900519
    },
    {
        "code": "D107220460056",
        "type": 16004,
        "name": "いわき総合高等学校",
        "address": "いわき市内郷内町駒谷3-1",
        "lat": 37.039769,
        "lng": 140.854674
    },
    {
        "code": "D107220460074",
        "type": 16004,
        "name": "湯本高等学校",
        "address": "いわき市常磐上湯長谷町五反田55",
        "lat": 36.996439,
        "lng": 140.841621
    },
    {
        "code": "D107220460109",
        "type": 16004,
        "name": "磐城農業高等学校",
        "address": "いわき市植田町小名田60",
        "lat": 36.925891,
        "lng": 140.790242
    },
    {
        "code": "D107220460118",
        "type": 16004,
        "name": "勿来高等学校",
        "address": "いわき市勿来町窪田町通2-1",
        "lat": 36.888673,
        "lng": 140.767746
    },
    {
        "code": "D107220460127",
        "type": 16004,
        "name": "勿来工業高等学校",
        "address": "いわき市植田町堂の作10",
        "lat": 36.928113,
        "lng": 140.792741
    },
    {
        "code": "D107220460136",
        "type": 16004,
        "name": "好間高等学校",
        "address": "いわき市好間町上好間字上川原25",
        "lat": 37.070321,
        "lng": 140.84995
    },
    {
        "code": "D107220460145",
        "type": 16004,
        "name": "遠野高等学校",
        "address": "いわき市遠野町上遠野字赤坂10-1",
        "lat": 37.004557,
        "lng": 140.740604
    },
    {
        "code": "D107220460154",
        "type": 16004,
        "name": "四倉高等学校",
        "address": "いわき市四倉町字5-4",
        "lat": 37.112542,
        "lng": 140.987989
    },
    {
        "code": "D107220460163",
        "type": 16004,
        "name": "小名浜海星高等学校",
        "address": "いわき市小名浜下神白字武城23",
        "lat": 36.946953,
        "lng": 140.921808
    },
    {
        "code": "D107220461037",
        "type": 16004,
        "name": "いわき光洋高等学校",
        "address": "いわき市中央台高久4-1",
        "lat": 37.017258,
        "lng": 140.927667
    },
    {
        "code": "D107220461064",
        "type": 16004,
        "name": "いわき翠の杜高等学校",
        "address": "いわき市内郷綴町板宮2",
        "lat": 37.033381,
        "lng": 140.859118
    },
    {
        "code": "D107320461017",
        "type": 16004,
        "name": "福島県磐城第一高等学校",
        "address": "いわき市内郷御厩町上宿11",
        "lat": 37.046713,
        "lng": 140.874949
    },
    {
        "code": "D107320461026",
        "type": 16004,
        "name": "磐城緑蔭高等学校",
        "address": "いわき市平南白土字勝負田11",
        "lat": 37.043659,
        "lng": 140.909668
    },
    {
        "code": "D107320461044",
        "type": 16004,
        "name": "東日本国際大学附属昌平高等学校",
        "address": "いわき市平上片寄字上ﾉ内152",
        "lat": 37.08126,
        "lng": 140.913161
    },
    {
        "code": "D107320461053",
        "type": 16004,
        "name": "いわき秀英高等学校",
        "address": "いわき市泉町字滝ﾉ沢3-1",
        "lat": 36.947891,
        "lng": 140.839319
    },
    {
        "code": "E107220470015",
        "type": 16012,
        "name": "聴覚支援学校平校",
        "address": "いわき市平馬目字馬目崎61",
        "lat": 37.080878,
        "lng": 140.952161
    },
    {
        "code": "E107220470024",
        "type": 16012,
        "name": "平支援学校",
        "address": "いわき市平上平窪字羽黒40-45",
        "lat": 37.093652,
        "lng": 140.889946
    },
    {
        "code": "E107220470033",
        "type": 16012,
        "name": "いわき支援学校",
        "address": "いわき市平上神谷字石ﾉ町13-1",
        "lat": 37.067267,
        "lng": 140.916611
    },
    {
        "code": "E107220470042",
        "type": 16012,
        "name": "いわき支援学校くぼた校",
        "address": "いわき市勿来町窪田町通2-1",
        "lat": 36.88858,
        "lng": 140.768211
    },
    {
        "code": "E107254370015",
        "type": 16012,
        "name": "富岡支援学校",
        "address": "いわき市平馬目字馬目崎61",
        "lat": 37.080822,
        "lng": 140.952304
    },
    {
        "code": "F107310101322",
        "type": 16007,
        "name": "医療創生大学",
        "address": "いわき市中央台飯野5-5-1",
        "lat": 37.018941,
        "lng": 140.916613
    },
    {
        "code": "F107310101331",
        "type": 16007,
        "name": "東日本国際大学",
        "address": "いわき市平鎌田字寿金沢37",
        "lat": 37.057546,
        "lng": 140.907168
    },
    {
        "code": "F207310101385",
        "type": 16006,
        "name": "いわき短期大学",
        "address": "いわき市平鎌田字寿金沢37",
        "lat": 37.05699,
        "lng": 140.90689
    },
    {
        "code": "G107110101404",
        "type": 16005,
        "name": "福島工業高等専門学校",
        "address": "いわき市平上荒川字長尾30",
        "lat": 37.032549,
        "lng": 140.889115
    },
    {
        "code": "H107220480017",
        "type": 16016,
        "name": "いわき市医療センター看護専門学校",
        "address": "いわき市内郷御厩町3-91-1",
        "lat": 37.048423,
        "lng": 140.871391
    },
    {
        "code": "H107320481014",
        "type": 16016,
        "name": "磐城学芸専門学校",
        "address": "いわき市好間町下好間字浦田154-1",
        "lat": 37.06231,
        "lng": 140.875544
    },
    {
        "code": "H107320481023",
        "type": 16016,
        "name": "いわき文化服飾専門学校",
        "address": "いわき市平2-8",
        "lat": 37.055571,
        "lng": 140.890452
    },
    {
        "code": "H107320481032",
        "type": 16016,
        "name": "磐城高等芸術商科総合学園",
        "address": "いわき市平下神谷字立田帯5",
        "lat": 37.064454,
        "lng": 140.937598
    },
    {
        "code": "H107320481041",
        "type": 16016,
        "name": "いわき和裁専修学校",
        "address": "いわき市平字東町15-5",
        "lat": 37.055564,
        "lng": 140.890513
    },
    {
        "code": "H107320481050",
        "type": 16016,
        "name": "松村看護専門学校",
        "address": "いわき市平字小太郎町1-8",
        "lat": 37.052237,
        "lng": 140.891699
    },
    {
        "code": "H107320481069",
        "type": 16016,
        "name": "ｉｗａｋｉヘアメイクアカデミー",
        "address": "いわき市平谷川瀬1-11-2",
        "lat": 37.048611,
        "lng": 140.890717
    },
    {
        "code": "H207320491011",
        "type": 16015,
        "name": "平成人学校",
        "address": "いわき市平字白銀町3-1",
        "lat": 37.057138,
        "lng": 140.894564
    },
    {
        "code": "H207320491020",
        "type": 16015,
        "name": "いわき准看護学校",
        "address": "いわき市中央台飯野4-171-1",
        "lat": 37.016947,
        "lng": 140.920755
    },
    {
        "code": "H207320491039",
        "type": 16015,
        "name": "日本太平自動車学校",
        "address": "いわき市平塩字古川1-1",
        "lat": 37.06041,
        "lng": 140.91948
    },
    {
        "code": "H207320491048",
        "type": 16015,
        "name": "常磐音楽舞踊学院",
        "address": "いわき市常磐藤原町蕨平50",
        "lat": 37.050421,
        "lng": 140.887684
    },
    {
        "code": "H207320491057",
        "type": 16015,
        "name": "いわき高等タイピスト学校",
        "address": "いわき市平字鍛冶町26-4",
        "lat": 37.054195,
        "lng": 140.888695
    }
]