[
    {
        "code": "A107221010019",
        "type": 16011,
        "name": "大平幼稚園",
        "address": "二本松市太子堂282",
        "lat": 37.578562,
        "lng": 140.474041
    },
    {
        "code": "A107221010028",
        "type": 16011,
        "name": "塩沢幼稚園",
        "address": "二本松市塩沢町1-238-1",
        "lat": 37.614649,
        "lng": 140.425575
    },
    {
        "code": "A107221010037",
        "type": 16011,
        "name": "油井幼稚園",
        "address": "二本松市油井字台5",
        "lat": 37.606208,
        "lng": 140.457663
    },
    {
        "code": "A107221010046",
        "type": 16011,
        "name": "小浜幼稚園",
        "address": "二本松市小浜字藤町100",
        "lat": 37.56047,
        "lng": 140.512399
    },
    {
        "code": "A107221010055",
        "type": 16011,
        "name": "渋川幼稚園",
        "address": "二本松市渋川字神明森27",
        "lat": 37.634537,
        "lng": 140.463162
    },
    {
        "code": "A107221010064",
        "type": 16011,
        "name": "杉田幼稚園",
        "address": "二本松市中江195-1",
        "lat": 37.561323,
        "lng": 140.416876
    },
    {
        "code": "A107221010073",
        "type": 16011,
        "name": "石井幼稚園",
        "address": "二本松市平石町365-1",
        "lat": 37.558436,
        "lng": 140.459918
    },
    {
        "code": "A107221010082",
        "type": 16011,
        "name": "はらせ幼稚園",
        "address": "二本松市原ｾ才木380",
        "lat": 37.584705,
        "lng": 140.385247
    },
    {
        "code": "A107221010091",
        "type": 16011,
        "name": "川崎幼稚園",
        "address": "二本松市上川崎字上種田1",
        "lat": 37.610325,
        "lng": 140.491061
    },
    {
        "code": "A107321011016",
        "type": 16011,
        "name": "同朋学園同朋幼稚園",
        "address": "二本松市竹田1-193",
        "lat": 37.598445,
        "lng": 140.444224
    },
    {
        "code": "A107321011025",
        "type": 16011,
        "name": "福島聖心学園二本松カトリック幼稚園",
        "address": "二本松市若宮1-361",
        "lat": 37.590932,
        "lng": 140.429406
    },
    {
        "code": "A107321011034",
        "type": 16011,
        "name": "二本松学園",
        "address": "二本松市亀谷1-28",
        "lat": 37.593324,
        "lng": 140.440322
    },
    {
        "code": "A107321011043",
        "type": 16011,
        "name": "岩代学園岩代幼稚園",
        "address": "二本松市小浜字新町387",
        "lat": 37.562309,
        "lng": 140.507032
    },
    {
        "code": "A207221020016",
        "type": 16013,
        "name": "とうわこども園",
        "address": "二本松市針道字大町西46-7",
        "lat": 37.591246,
        "lng": 140.568453
    },
    {
        "code": "A207221020025",
        "type": 16013,
        "name": "いわしろさくらこども園",
        "address": "二本松市西新殿字永作10",
        "lat": 37.534003,
        "lng": 140.563043
    },
    {
        "code": "A207321021013",
        "type": 16013,
        "name": "認定こども園まゆみ",
        "address": "二本松市竹田2-133",
        "lat": 37.601556,
        "lng": 140.447724
    },
    {
        "code": "A207321021022",
        "type": 16013,
        "name": "認定こども園子どもの館",
        "address": "二本松市中里49-12",
        "lat": 37.577439,
        "lng": 140.422505
    },
    {
        "code": "A207321021031",
        "type": 16013,
        "name": "認定こども園まゆみぷらす",
        "address": "二本松市油井字石倉80-1",
        "lat": 37.615127,
        "lng": 140.458719
    },
    {
        "code": "B107221030013",
        "type": 16001,
        "name": "二本松南小学校",
        "address": "二本松市亀谷2-123",
        "lat": 37.594418,
        "lng": 140.446077
    },
    {
        "code": "B107221030022",
        "type": 16001,
        "name": "二本松北小学校",
        "address": "二本松市郭内1-1",
        "lat": 37.596917,
        "lng": 140.434967
    },
    {
        "code": "B107221030031",
        "type": 16001,
        "name": "塩沢小学校",
        "address": "二本松市塩沢町1-238-1",
        "lat": 37.614693,
        "lng": 140.426634
    },
    {
        "code": "B107221030040",
        "type": 16001,
        "name": "岳下小学校",
        "address": "二本松市大壇175-1",
        "lat": 37.586085,
        "lng": 140.423302
    },
    {
        "code": "B107221030059",
        "type": 16001,
        "name": "安達太良小学校",
        "address": "二本松市岳温泉1-177-1",
        "lat": 37.606081,
        "lng": 140.353585
    },
    {
        "code": "B107221030068",
        "type": 16001,
        "name": "原瀬小学校",
        "address": "二本松市原ｾ才木380",
        "lat": 37.585251,
        "lng": 140.384972
    },
    {
        "code": "B107221030077",
        "type": 16001,
        "name": "杉田小学校",
        "address": "二本松市中江195-1",
        "lat": 37.561409,
        "lng": 140.416314
    },
    {
        "code": "B107221030086",
        "type": 16001,
        "name": "石井小学校",
        "address": "二本松市小高内3",
        "lat": 37.561236,
        "lng": 140.457424
    },
    {
        "code": "B107221030095",
        "type": 16001,
        "name": "大平小学校",
        "address": "二本松市竹ﾉ内22-1",
        "lat": 37.580332,
        "lng": 140.475634
    },
    {
        "code": "B107221030102",
        "type": 16001,
        "name": "油井小学校",
        "address": "二本松市油井字台5",
        "lat": 37.605806,
        "lng": 140.457742
    },
    {
        "code": "B107221030111",
        "type": 16001,
        "name": "渋川小学校",
        "address": "二本松市渋川字神明森27",
        "lat": 37.634691,
        "lng": 140.462185
    },
    {
        "code": "B107221030120",
        "type": 16001,
        "name": "川崎小学校",
        "address": "二本松市上川崎字上種田1",
        "lat": 37.61025,
        "lng": 140.491349
    },
    {
        "code": "B107221030139",
        "type": 16001,
        "name": "小浜小学校",
        "address": "二本松市小浜字藤町100",
        "lat": 37.561089,
        "lng": 140.51246
    },
    {
        "code": "B107221030148",
        "type": 16001,
        "name": "新殿小学校",
        "address": "二本松市西新殿字永作10",
        "lat": 37.534149,
        "lng": 140.563013
    },
    {
        "code": "B107221030157",
        "type": 16001,
        "name": "旭小学校",
        "address": "二本松市田沢字鳥上44",
        "lat": 37.548307,
        "lng": 140.634509
    },
    {
        "code": "B107221030166",
        "type": 16001,
        "name": "東和小学校",
        "address": "二本松市針道字大町西46",
        "lat": 37.590536,
        "lng": 140.568754
    },
    {
        "code": "C107221040019",
        "type": 16002,
        "name": "二本松第一中学校",
        "address": "二本松市郭内2-56-1",
        "lat": 37.601917,
        "lng": 140.440244
    },
    {
        "code": "C107221040028",
        "type": 16002,
        "name": "二本松第二中学校",
        "address": "二本松市沖3-301",
        "lat": 37.568588,
        "lng": 140.466631
    },
    {
        "code": "C107221040037",
        "type": 16002,
        "name": "二本松第三中学校",
        "address": "二本松市大作165",
        "lat": 37.57192,
        "lng": 140.411359
    },
    {
        "code": "C107221040046",
        "type": 16002,
        "name": "安達中学校",
        "address": "二本松市油井字田向100",
        "lat": 37.617133,
        "lng": 140.465027
    },
    {
        "code": "C107221040055",
        "type": 16002,
        "name": "小浜中学校",
        "address": "二本松市小浜字反町411",
        "lat": 37.553312,
        "lng": 140.504684
    },
    {
        "code": "C107221040064",
        "type": 16002,
        "name": "岩代中学校",
        "address": "二本松市西新殿字一本木188",
        "lat": 37.526927,
        "lng": 140.563847
    },
    {
        "code": "C107221040073",
        "type": 16002,
        "name": "東和中学校",
        "address": "二本松市針道字大町西1",
        "lat": 37.591087,
        "lng": 140.571065
    },
    {
        "code": "D107221060012",
        "type": 16004,
        "name": "安達高等学校",
        "address": "二本松市郭内2-347",
        "lat": 37.60025,
        "lng": 140.4408
    },
    {
        "code": "D107221060021",
        "type": 16004,
        "name": "二本松工業高等学校",
        "address": "二本松市榎戸1-58-2",
        "lat": 37.593307,
        "lng": 140.450799
    },
    {
        "code": "D107221060030",
        "type": 16004,
        "name": "安達東高等学校",
        "address": "二本松市下長折字真角13",
        "lat": 37.578587,
        "lng": 140.509404
    },
    {
        "code": "H107321081016",
        "type": 16016,
        "name": "福島介護福祉専門学校",
        "address": "二本松市若宮1-125-1",
        "lat": 37.593046,
        "lng": 140.428065
    },
    {
        "code": "H207321091013",
        "type": 16015,
        "name": "修学館",
        "address": "二本松市竹田1-90-6",
        "lat": 37.59872,
        "lng": 140.442767
    }
]