[
    {
        "code": "B107236730014",
        "type": 16001,
        "name": "只見小学校",
        "address": "南会津郡只見町大字只見字上ﾉ原1735-1",
        "lat": 37.351639,
        "lng": 139.317582
    },
    {
        "code": "B107236730023",
        "type": 16001,
        "name": "朝日小学校",
        "address": "南会津郡只見町大字黒谷字九日田230-1",
        "lat": 37.303425,
        "lng": 139.362615
    },
    {
        "code": "B107236730032",
        "type": 16001,
        "name": "明和小学校",
        "address": "南会津郡只見町大字小林字上照岡1336",
        "lat": 37.30943,
        "lng": 139.455263
    },
    {
        "code": "C107236740010",
        "type": 16002,
        "name": "只見中学校",
        "address": "南会津郡只見町大字黒谷字上野300",
        "lat": 37.30241,
        "lng": 139.363042
    },
    {
        "code": "D107236760013",
        "type": 16004,
        "name": "只見高等学校",
        "address": "南会津郡只見町大字只見字根岸2358",
        "lat": 37.358027,
        "lng": 139.320081
    }
]