[
    {
        "code": "A107240210017",
        "type": 16011,
        "name": "裏磐梯幼稚園",
        "address": "耶麻郡北塩原村大字桧原字剣ヶ峯1093-732",
        "lat": 37.658381,
        "lng": 140.084728
    },
    {
        "code": "A107240210026",
        "type": 16011,
        "name": "さくら幼稚園",
        "address": "耶麻郡北塩原村大字北山字北畑4293",
        "lat": 37.657853,
        "lng": 139.92552
    },
    {
        "code": "B107240230011",
        "type": 16001,
        "name": "さくら小学校",
        "address": "耶麻郡北塩原村大字北山字北畑4275",
        "lat": 37.657081,
        "lng": 139.925975
    },
    {
        "code": "B107240230020",
        "type": 16001,
        "name": "裏磐悌小学校",
        "address": "耶麻郡北塩原村大字桧原字剣ヶ峯1093-732",
        "lat": 37.659132,
        "lng": 140.083528
    },
    {
        "code": "C107240240017",
        "type": 16002,
        "name": "第一中学校",
        "address": "耶麻郡北塩原村大字北山字上ﾉ台2850",
        "lat": 37.656342,
        "lng": 139.939177
    },
    {
        "code": "C107240240026",
        "type": 16002,
        "name": "裏磐梯中学校",
        "address": "耶麻郡北塩原村大字桧原字剣ヶ峯1093-732",
        "lat": 37.659401,
        "lng": 140.083608
    }
]