[
    {
        "code": "A207254120016",
        "type": 16013,
        "name": "広野こども園",
        "address": "双葉郡広野町中央台1-8",
        "lat": 37.212019,
        "lng": 140.991385
    },
    {
        "code": "B107254130013",
        "type": 16001,
        "name": "広野小学校",
        "address": "双葉郡広野町中央台3-1",
        "lat": 37.214753,
        "lng": 140.992152
    },
    {
        "code": "C107254140019",
        "type": 16002,
        "name": "広野中学校",
        "address": "双葉郡広野町大字下浅見川字築地12",
        "lat": 37.213086,
        "lng": 140.996041
    },
    {
        "code": "C107254140028",
        "type": 16002,
        "name": "ふたば未来学園中学校",
        "address": "双葉郡広野町中央台1-6-3",
        "lat": 37.21256,
        "lng": 140.988606
    },
    {
        "code": "D107254160012",
        "type": 16004,
        "name": "ふたば未来学園高等学校",
        "address": "双葉郡広野町中央台1-6-3",
        "lat": 37.212467,
        "lng": 140.988925
    }
]