[
    {
        "code": "A108110000015",
        "type": 16011,
        "name": "茨城大学教育学部附属幼稚園",
        "address": "水戸市三の丸2-6-8",
        "lat": 36.374558,
        "lng": 140.479565
    },
    {
        "code": "A108220100011",
        "type": 16011,
        "name": "常磐幼稚園",
        "address": "水戸市西原1-3-65",
        "lat": 36.388147,
        "lng": 140.444172
    },
    {
        "code": "A108220100020",
        "type": 16011,
        "name": "浜田幼稚園",
        "address": "水戸市浜田1-1-2",
        "lat": 36.362975,
        "lng": 140.494703
    },
    {
        "code": "A108220100039",
        "type": 16011,
        "name": "城東幼稚園",
        "address": "水戸市城東2-7-11",
        "lat": 36.372919,
        "lng": 140.492347
    },
    {
        "code": "A108220100048",
        "type": 16011,
        "name": "緑岡幼稚園",
        "address": "水戸市見川町2563",
        "lat": 36.355027,
        "lng": 140.443719
    },
    {
        "code": "A108220100057",
        "type": 16011,
        "name": "見川幼稚園",
        "address": "水戸市見川2-96-18",
        "lat": 36.373456,
        "lng": 140.438976
    },
    {
        "code": "A108220100066",
        "type": 16011,
        "name": "寿幼稚園",
        "address": "水戸市平須町1761",
        "lat": 36.328037,
        "lng": 140.429557
    },
    {
        "code": "A108220100075",
        "type": 16011,
        "name": "石川幼稚園",
        "address": "水戸市石川4-4037-6",
        "lat": 36.390637,
        "lng": 140.42178
    },
    {
        "code": "A108220100084",
        "type": 16011,
        "name": "千波幼稚園",
        "address": "水戸市千波町1443-2",
        "lat": 36.355973,
        "lng": 140.465644
    },
    {
        "code": "A108220100093",
        "type": 16011,
        "name": "国田幼稚園",
        "address": "水戸市下国井町2595-1",
        "lat": 36.425997,
        "lng": 140.433233
    },
    {
        "code": "A108220100100",
        "type": 16011,
        "name": "酒門幼稚園",
        "address": "水戸市酒門町1245-3",
        "lat": 36.345647,
        "lng": 140.491295
    },
    {
        "code": "A108220100128",
        "type": 16011,
        "name": "梅が丘幼稚園",
        "address": "水戸市姫子1-823-14",
        "lat": 36.380983,
        "lng": 140.431712
    },
    {
        "code": "A108220100137",
        "type": 16011,
        "name": "吉田が丘幼稚園",
        "address": "水戸市元吉田町1736-9",
        "lat": 36.345963,
        "lng": 140.476407
    },
    {
        "code": "A108220100146",
        "type": 16011,
        "name": "笠原幼稚園",
        "address": "水戸市笠原町92-1",
        "lat": 36.342205,
        "lng": 140.457759
    },
    {
        "code": "A108220100164",
        "type": 16011,
        "name": "妻里幼稚園",
        "address": "水戸市有賀町2249-2",
        "lat": 36.381182,
        "lng": 140.361266
    },
    {
        "code": "A108320100019",
        "type": 16011,
        "name": "水戸幼稚園",
        "address": "水戸市緑町3-9-36",
        "lat": 36.383114,
        "lng": 140.443872
    },
    {
        "code": "A108320100028",
        "type": 16011,
        "name": "聖母幼稚園",
        "address": "水戸市五軒町2-4-32",
        "lat": 36.381631,
        "lng": 140.462912
    },
    {
        "code": "A108320100037",
        "type": 16011,
        "name": "愛恩幼稚園",
        "address": "水戸市南町3-4-44",
        "lat": 36.378071,
        "lng": 140.468088
    },
    {
        "code": "A108320100046",
        "type": 16011,
        "name": "少友幼稚園",
        "address": "水戸市備前町5-36",
        "lat": 36.376977,
        "lng": 140.46436
    },
    {
        "code": "A108320100055",
        "type": 16011,
        "name": "赤塚幼稚園",
        "address": "水戸市赤塚1-1997",
        "lat": 36.384762,
        "lng": 140.416936
    },
    {
        "code": "A108320100064",
        "type": 16011,
        "name": "愛宕幼稚園",
        "address": "水戸市愛宕町10-5",
        "lat": 36.395824,
        "lng": 140.451727
    },
    {
        "code": "A108320100073",
        "type": 16011,
        "name": "渡里幼稚園",
        "address": "水戸市堀町958-4",
        "lat": 36.403154,
        "lng": 140.431765
    },
    {
        "code": "A108320100082",
        "type": 16011,
        "name": "みどり幼稚園",
        "address": "水戸市元吉田町2649-2",
        "lat": 36.352388,
        "lng": 140.487156
    },
    {
        "code": "A108320100091",
        "type": 16011,
        "name": "大塚ひのまる幼稚園",
        "address": "水戸市大塚町1583",
        "lat": 36.386839,
        "lng": 140.395474
    },
    {
        "code": "A108320100108",
        "type": 16011,
        "name": "吉田幼稚園",
        "address": "水戸市元吉田町一里塚東1977-34",
        "lat": 36.346794,
        "lng": 140.479386
    },
    {
        "code": "A108320100117",
        "type": 16011,
        "name": "河和田幼稚園",
        "address": "水戸市河和田町1183",
        "lat": 36.369763,
        "lng": 140.418271
    },
    {
        "code": "A108320100126",
        "type": 16011,
        "name": "常磐大学幼稚園",
        "address": "水戸市見和1-425",
        "lat": 36.38175,
        "lng": 140.441239
    },
    {
        "code": "A108320100135",
        "type": 16011,
        "name": "あさひ幼稚園",
        "address": "水戸市渋井町254",
        "lat": 36.359526,
        "lng": 140.510585
    },
    {
        "code": "A108320100144",
        "type": 16011,
        "name": "水戸英宏平須幼稚園",
        "address": "水戸市平須町字東皿久保1820-116",
        "lat": 36.330559,
        "lng": 140.438886
    },
    {
        "code": "A208220100010",
        "type": 16013,
        "name": "常澄認定こども園",
        "address": "水戸市大串町789-2",
        "lat": 36.336388,
        "lng": 140.538891
    },
    {
        "code": "A208220100029",
        "type": 16013,
        "name": "内原認定こども園",
        "address": "水戸市内原町720-1",
        "lat": 36.369214,
        "lng": 140.358994
    },
    {
        "code": "A208320100018",
        "type": 16013,
        "name": "プリンセスリリーリリー幼稚園",
        "address": "水戸市中丸町2052-17",
        "lat": 36.385848,
        "lng": 140.409503
    },
    {
        "code": "A208320100027",
        "type": 16013,
        "name": "フォレストリリーリリーの森幼稚園",
        "address": "水戸市内原町1397-3",
        "lat": 36.360707,
        "lng": 140.357333
    },
    {
        "code": "A208320100036",
        "type": 16013,
        "name": "プリンセスリリーリリー幼稚園分園チャイルドランドナーサリー",
        "address": "水戸市大塚町1863-186",
        "lat": 36.385412,
        "lng": 140.409395
    },
    {
        "code": "A208320100045",
        "type": 16013,
        "name": "グレイスリリーヴィクトリアナーサリー",
        "address": "水戸市姫子2-751-17",
        "lat": 36.37886,
        "lng": 140.424384
    },
    {
        "code": "B108110000013",
        "type": 16001,
        "name": "茨城大学教育学部附属小学校",
        "address": "水戸市三の丸2-6-8",
        "lat": 36.37378,
        "lng": 140.478815
    },
    {
        "code": "B108220100019",
        "type": 16001,
        "name": "三の丸小学校",
        "address": "水戸市三の丸1-6-51",
        "lat": 36.374946,
        "lng": 140.476509
    },
    {
        "code": "B108220100028",
        "type": 16001,
        "name": "五軒小学校",
        "address": "水戸市金町3-2-25",
        "lat": 36.384334,
        "lng": 140.463371
    },
    {
        "code": "B108220100037",
        "type": 16001,
        "name": "新荘小学校",
        "address": "水戸市新荘2-11-1",
        "lat": 36.385306,
        "lng": 140.452261
    },
    {
        "code": "B108220100046",
        "type": 16001,
        "name": "城東小学校",
        "address": "水戸市城東2-7-62",
        "lat": 36.373113,
        "lng": 140.493369
    },
    {
        "code": "B108220100055",
        "type": 16001,
        "name": "浜田小学校",
        "address": "水戸市浜田1-1-1",
        "lat": 36.363697,
        "lng": 140.494647
    },
    {
        "code": "B108220100064",
        "type": 16001,
        "name": "常磐小学校",
        "address": "水戸市西原1-3-12",
        "lat": 36.387667,
        "lng": 140.443956
    },
    {
        "code": "B108220100073",
        "type": 16001,
        "name": "緑岡小学校",
        "address": "水戸市見川町2563",
        "lat": 36.356142,
        "lng": 140.443818
    },
    {
        "code": "B108220100082",
        "type": 16001,
        "name": "見川小学校",
        "address": "水戸市見川2-96-3",
        "lat": 36.372973,
        "lng": 140.43879
    },
    {
        "code": "B108220100091",
        "type": 16001,
        "name": "寿小学校",
        "address": "水戸市平須町1809-1",
        "lat": 36.328812,
        "lng": 140.43182
    },
    {
        "code": "B108220100108",
        "type": 16001,
        "name": "上大野小学校",
        "address": "水戸市東大野106-1",
        "lat": 36.363782,
        "lng": 140.526089
    },
    {
        "code": "B108220100117",
        "type": 16001,
        "name": "酒門小学校",
        "address": "水戸市酒門町1445-1",
        "lat": 36.341034,
        "lng": 140.493314
    },
    {
        "code": "B108220100126",
        "type": 16001,
        "name": "吉田小学校",
        "address": "水戸市元吉田町1757-1",
        "lat": 36.344665,
        "lng": 140.475681
    },
    {
        "code": "B108220100135",
        "type": 16001,
        "name": "渡里小学校",
        "address": "水戸市堀町468-1",
        "lat": 36.405508,
        "lng": 140.427294
    },
    {
        "code": "B108220100144",
        "type": 16001,
        "name": "柳河小学校",
        "address": "水戸市柳河町318-1",
        "lat": 36.397046,
        "lng": 140.469772
    },
    {
        "code": "B108220100153",
        "type": 16001,
        "name": "石川小学校",
        "address": "水戸市石川4-4035",
        "lat": 36.389537,
        "lng": 140.422705
    },
    {
        "code": "B108220100162",
        "type": 16001,
        "name": "飯富小学校",
        "address": "水戸市飯富町4420-1",
        "lat": 36.437632,
        "lng": 140.41468
    },
    {
        "code": "B108220100171",
        "type": 16001,
        "name": "河和田小学校",
        "address": "水戸市河和田町1019",
        "lat": 36.368473,
        "lng": 140.412876
    },
    {
        "code": "B108220100180",
        "type": 16001,
        "name": "上中妻小学校",
        "address": "水戸市大塚町1086-2",
        "lat": 36.383359,
        "lng": 140.392238
    },
    {
        "code": "B108220100199",
        "type": 16001,
        "name": "千波小学校",
        "address": "水戸市千波町1538-1",
        "lat": 36.354893,
        "lng": 140.465344
    },
    {
        "code": "B108220100206",
        "type": 16001,
        "name": "梅が丘小学校",
        "address": "水戸市姫子1-827-2",
        "lat": 36.380472,
        "lng": 140.432818
    },
    {
        "code": "B108220100215",
        "type": 16001,
        "name": "双葉台小学校",
        "address": "水戸市双葉台5-26",
        "lat": 36.395438,
        "lng": 140.406691
    },
    {
        "code": "B108220100224",
        "type": 16001,
        "name": "笠原小学校",
        "address": "水戸市笠原347-17",
        "lat": 36.34406,
        "lng": 140.454595
    },
    {
        "code": "B108220100233",
        "type": 16001,
        "name": "赤塚小学校",
        "address": "水戸市河和田2-2116-1",
        "lat": 36.378832,
        "lng": 140.405043
    },
    {
        "code": "B108220100242",
        "type": 16001,
        "name": "吉沢小学校",
        "address": "水戸市吉沢町169-1",
        "lat": 36.33384,
        "lng": 140.461928
    },
    {
        "code": "B108220100251",
        "type": 16001,
        "name": "堀原小学校",
        "address": "水戸市新原1-7-1",
        "lat": 36.393249,
        "lng": 140.430846
    },
    {
        "code": "B108220100260",
        "type": 16001,
        "name": "下大野小学校",
        "address": "水戸市塩崎町666",
        "lat": 36.339025,
        "lng": 140.552676
    },
    {
        "code": "B108220100279",
        "type": 16001,
        "name": "稲荷第一小学校",
        "address": "水戸市大串町142-1",
        "lat": 36.337202,
        "lng": 140.53759
    },
    {
        "code": "B108220100288",
        "type": 16001,
        "name": "稲荷第二小学校",
        "address": "水戸市百合が丘町997-204",
        "lat": 36.345283,
        "lng": 140.509952
    },
    {
        "code": "B108220100297",
        "type": 16001,
        "name": "大場小学校",
        "address": "水戸市大場町2489",
        "lat": 36.32236,
        "lng": 140.520941
    },
    {
        "code": "B108220100304",
        "type": 16001,
        "name": "鯉淵小学校",
        "address": "水戸市鯉淵町3000",
        "lat": 36.344793,
        "lng": 140.370953
    },
    {
        "code": "B108220100313",
        "type": 16001,
        "name": "妻里小学校",
        "address": "水戸市中原町682",
        "lat": 36.3809,
        "lng": 140.360406
    },
    {
        "code": "B108220100322",
        "type": 16001,
        "name": "内原小学校",
        "address": "水戸市内原町1451",
        "lat": 36.361892,
        "lng": 140.359088
    },
    {
        "code": "B108320100017",
        "type": 16001,
        "name": "リリーベール小学校",
        "address": "水戸市藤が原3-1117-1288",
        "lat": 36.461013,
        "lng": 140.39297
    },
    {
        "code": "B108320100026",
        "type": 16001,
        "name": "水戸英宏小学校",
        "address": "水戸市千波町2369-1",
        "lat": 36.36142,
        "lng": 140.447029
    },
    {
        "code": "C108110000011",
        "type": 16002,
        "name": "茨城大学教育学部附属中学校",
        "address": "水戸市文京1-3-32",
        "lat": 36.397916,
        "lng": 140.44815
    },
    {
        "code": "C108220100017",
        "type": 16002,
        "name": "第一中学校",
        "address": "水戸市東原3-1-1",
        "lat": 36.385222,
        "lng": 140.448594
    },
    {
        "code": "C108220100026",
        "type": 16002,
        "name": "第二中学校",
        "address": "水戸市三の丸2-9-22",
        "lat": 36.374974,
        "lng": 140.480037
    },
    {
        "code": "C108220100035",
        "type": 16002,
        "name": "第三中学校",
        "address": "水戸市朝日町2882-1",
        "lat": 36.360896,
        "lng": 140.489449
    },
    {
        "code": "C108220100044",
        "type": 16002,
        "name": "第四中学校",
        "address": "水戸市元吉田町1987-3",
        "lat": 36.345422,
        "lng": 140.481371
    },
    {
        "code": "C108220100053",
        "type": 16002,
        "name": "第五中学校",
        "address": "水戸市堀町1166-1",
        "lat": 36.398915,
        "lng": 140.428485
    },
    {
        "code": "C108220100062",
        "type": 16002,
        "name": "緑岡中学校",
        "address": "水戸市見川町2563-81",
        "lat": 36.357531,
        "lng": 140.44479
    },
    {
        "code": "C108220100071",
        "type": 16002,
        "name": "飯富中学校",
        "address": "水戸市飯富町4479-1",
        "lat": 36.438604,
        "lng": 140.413514
    },
    {
        "code": "C108220100080",
        "type": 16002,
        "name": "赤塚中学校",
        "address": "水戸市河和田1-1708-4",
        "lat": 36.37661,
        "lng": 140.410542
    },
    {
        "code": "C108220100099",
        "type": 16002,
        "name": "見川中学校",
        "address": "水戸市見川2-98",
        "lat": 36.37348,
        "lng": 140.437841
    },
    {
        "code": "C108220100106",
        "type": 16002,
        "name": "双葉台中学校",
        "address": "水戸市双葉台5-27",
        "lat": 36.396783,
        "lng": 140.406593
    },
    {
        "code": "C108220100115",
        "type": 16002,
        "name": "笠原中学校",
        "address": "水戸市笠原町417-3",
        "lat": 36.337395,
        "lng": 140.452179
    },
    {
        "code": "C108220100124",
        "type": 16002,
        "name": "石川中学校",
        "address": "水戸市堀町2304-2",
        "lat": 36.396692,
        "lng": 140.421097
    },
    {
        "code": "C108220100133",
        "type": 16002,
        "name": "千波中学校",
        "address": "水戸市元吉田町599-2",
        "lat": 36.358003,
        "lng": 140.47701
    },
    {
        "code": "C108220100142",
        "type": 16002,
        "name": "常澄中学校",
        "address": "水戸市塩崎町1016",
        "lat": 36.333774,
        "lng": 140.547891
    },
    {
        "code": "C108220100151",
        "type": 16002,
        "name": "内原中学校",
        "address": "水戸市内原町1463-29",
        "lat": 36.364148,
        "lng": 140.360651
    },
    {
        "code": "C108220190018",
        "type": 16002,
        "name": "水戸第一高等学校附属中学校",
        "address": "水戸市三の丸3-10-1",
        "lat": 36.371472,
        "lng": 140.484055
    },
    {
        "code": "C108320100015",
        "type": 16002,
        "name": "茨城中学校",
        "address": "水戸市八幡町16-1",
        "lat": 36.389153,
        "lng": 140.457488
    },
    {
        "code": "C108320100024",
        "type": 16002,
        "name": "水戸英宏中学校",
        "address": "水戸市見川町字手負山2582-15",
        "lat": 36.361676,
        "lng": 140.444481
    },
    {
        "code": "C208220100016",
        "type": 16014,
        "name": "国田義務教育学校",
        "address": "水戸市下国井町2595-1",
        "lat": 36.427354,
        "lng": 140.433931
    },
    {
        "code": "D108220100015",
        "type": 16004,
        "name": "水戸第一高等学校",
        "address": "水戸市三の丸3-10-1",
        "lat": 36.372224,
        "lng": 140.482815
    },
    {
        "code": "D108220100024",
        "type": 16004,
        "name": "水戸第二高等学校",
        "address": "水戸市大町2-2-14",
        "lat": 36.378362,
        "lng": 140.472371
    },
    {
        "code": "D108220100033",
        "type": 16004,
        "name": "水戸第三高等学校",
        "address": "水戸市三の丸2-7-27",
        "lat": 36.373474,
        "lng": 140.480592
    },
    {
        "code": "D108220100042",
        "type": 16004,
        "name": "緑岡高等学校",
        "address": "水戸市笠原町1284",
        "lat": 36.351143,
        "lng": 140.449457
    },
    {
        "code": "D108220100051",
        "type": 16004,
        "name": "水戸工業高等学校",
        "address": "水戸市元吉田町1101",
        "lat": 36.347671,
        "lng": 140.468483
    },
    {
        "code": "D108220100060",
        "type": 16004,
        "name": "水戸商業高等学校",
        "address": "水戸市新荘3-7-2",
        "lat": 36.387195,
        "lng": 140.453983
    },
    {
        "code": "D108220100079",
        "type": 16004,
        "name": "水戸南高等学校",
        "address": "水戸市白梅2-10-10",
        "lat": 36.362336,
        "lng": 140.478676
    },
    {
        "code": "D108220100088",
        "type": 16004,
        "name": "水戸桜ノ牧高等学校",
        "address": "水戸市小吹町2070",
        "lat": 36.352225,
        "lng": 140.424348
    },
    {
        "code": "D108320100013",
        "type": 16004,
        "name": "茨城高等学校",
        "address": "水戸市八幡町16-1",
        "lat": 36.388833,
        "lng": 140.457399
    },
    {
        "code": "D108320100022",
        "type": 16004,
        "name": "常磐大学高等学校",
        "address": "水戸市新荘3-2-28",
        "lat": 36.385167,
        "lng": 140.456121
    },
    {
        "code": "D108320100031",
        "type": 16004,
        "name": "大成女子高等学校",
        "address": "水戸市五軒町3-2-61",
        "lat": 36.382362,
        "lng": 140.462316
    },
    {
        "code": "D108320100040",
        "type": 16004,
        "name": "水戸女子高等学校",
        "address": "水戸市上水戸1-2-1",
        "lat": 36.388278,
        "lng": 140.452594
    },
    {
        "code": "D108320100059",
        "type": 16004,
        "name": "水戸啓明高等学校",
        "address": "水戸市千波町464-10",
        "lat": 36.363197,
        "lng": 140.452345
    },
    {
        "code": "D108320100068",
        "type": 16004,
        "name": "水城高等学校",
        "address": "水戸市白梅2-1-45",
        "lat": 36.363142,
        "lng": 140.475482
    },
    {
        "code": "D108320100077",
        "type": 16004,
        "name": "水戸葵陵高等学校",
        "address": "水戸市千波町中山2369-3",
        "lat": 36.360437,
        "lng": 140.447298
    },
    {
        "code": "D108320100086",
        "type": 16004,
        "name": "水戸平成学園高等学校",
        "address": "水戸市根本2-545",
        "lat": 36.383957,
        "lng": 140.468739
    },
    {
        "code": "D208320100012",
        "type": 16003,
        "name": "智学館中等教育学校",
        "address": "水戸市小吹町2092",
        "lat": 36.351856,
        "lng": 140.427342
    },
    {
        "code": "E108220100012",
        "type": 16012,
        "name": "茨城県立盲学校",
        "address": "水戸市袴塚1-3-1",
        "lat": 36.394861,
        "lng": 140.450316
    },
    {
        "code": "E108220100021",
        "type": 16012,
        "name": "水戸聾学校",
        "address": "水戸市千波町2863-1",
        "lat": 36.356559,
        "lng": 140.457067
    },
    {
        "code": "E108220100030",
        "type": 16012,
        "name": "水戸特別支援学校",
        "address": "水戸市吉沢町3979",
        "lat": 36.337117,
        "lng": 140.474982
    },
    {
        "code": "E108220100049",
        "type": 16012,
        "name": "水戸飯富特別支援学校",
        "address": "水戸市飯富町3436-20",
        "lat": 36.418134,
        "lng": 140.416847
    },
    {
        "code": "E108220100058",
        "type": 16012,
        "name": "水戸高等特別支援学校",
        "address": "水戸市下大野町6212",
        "lat": 36.344979,
        "lng": 140.557308
    },
    {
        "code": "E108220100067",
        "type": 16012,
        "name": "内原特別支援学校",
        "address": "水戸市鯉淵町2570",
        "lat": 36.352808,
        "lng": 140.361936
    },
    {
        "code": "F108110101414",
        "type": 16007,
        "name": "茨城大学",
        "address": "水戸市文京2-1-1",
        "lat": 36.401277,
        "lng": 140.442503
    },
    {
        "code": "F108310101474",
        "type": 16007,
        "name": "常磐大学",
        "address": "水戸市見和1-430-1",
        "lat": 36.381611,
        "lng": 140.438928
    },
    {
        "code": "F208310101534",
        "type": 16006,
        "name": "常磐短期大学",
        "address": "水戸市見和1-430-1",
        "lat": 36.382336,
        "lng": 140.438917
    },
    {
        "code": "H108320100014",
        "type": 16016,
        "name": "文化デザイナー学院",
        "address": "水戸市泉町1-3-22",
        "lat": 36.377931,
        "lng": 140.465596
    },
    {
        "code": "H108320100023",
        "type": 16016,
        "name": "茨城歯科専門学校",
        "address": "水戸市見和2-292-1",
        "lat": 36.375523,
        "lng": 140.434832
    },
    {
        "code": "H108320100032",
        "type": 16016,
        "name": "中川学園調理技術専門学校",
        "address": "水戸市見和3-663-10",
        "lat": 36.37723,
        "lng": 140.417795
    },
    {
        "code": "H108320100041",
        "type": 16016,
        "name": "水戸美容専門学校",
        "address": "水戸市新荘2-14-3",
        "lat": 36.386242,
        "lng": 140.451581
    },
    {
        "code": "H108320100050",
        "type": 16016,
        "name": "茨城県中央理容美容専門学校",
        "address": "水戸市常磐町2-3-37",
        "lat": 36.377907,
        "lng": 140.458338
    },
    {
        "code": "H108320100069",
        "type": 16016,
        "name": "水戸経理専門学校",
        "address": "水戸市浜田2-11-18",
        "lat": 36.366981,
        "lng": 140.501663
    },
    {
        "code": "H108320100078",
        "type": 16016,
        "name": "茨城音楽専門学校",
        "address": "水戸市住吉町269-3",
        "lat": 36.329651,
        "lng": 140.468861
    },
    {
        "code": "H108320100087",
        "type": 16016,
        "name": "リリーこども＆スポーツ専門学校",
        "address": "水戸市梅香2-1-44",
        "lat": 36.375271,
        "lng": 140.468096
    },
    {
        "code": "H108320100096",
        "type": 16016,
        "name": "水戸日建工科専門学校",
        "address": "水戸市城東3-5-10",
        "lat": 36.372111,
        "lng": 140.500139
    },
    {
        "code": "H108320100103",
        "type": 16016,
        "name": "水戸電子専門学校",
        "address": "水戸市浜田2-11-20",
        "lat": 36.366695,
        "lng": 140.501796
    },
    {
        "code": "H108320100112",
        "type": 16016,
        "name": "水戸市医師会看護専門学院",
        "address": "水戸市河和田町107-2",
        "lat": 36.365384,
        "lng": 140.426361
    },
    {
        "code": "H108320100121",
        "type": 16016,
        "name": "水戸自動車大学校",
        "address": "水戸市浜田2-14-22",
        "lat": 36.3653,
        "lng": 140.501999
    },
    {
        "code": "H108320100130",
        "type": 16016,
        "name": "水戸ビューティカレッジ",
        "address": "水戸市浜田2-14-14",
        "lat": 36.365933,
        "lng": 140.501502
    },
    {
        "code": "H108320100149",
        "type": 16016,
        "name": "水戸メディカルカレッジ",
        "address": "水戸市東原3-2-5",
        "lat": 36.386245,
        "lng": 140.448744
    },
    {
        "code": "H108320100158",
        "type": 16016,
        "name": "水戸看護福祉専門学校",
        "address": "水戸市浜田町2-16-12",
        "lat": 36.364468,
        "lng": 140.501994
    },
    {
        "code": "H108320100167",
        "type": 16016,
        "name": "大原簿記情報公務員専門学校水戸校",
        "address": "水戸市宮町1-9-18",
        "lat": 36.370027,
        "lng": 140.47964
    },
    {
        "code": "H108320100176",
        "type": 16016,
        "name": "大原医療ホテル観光専門学校水戸校",
        "address": "水戸市宮町1-9-18",
        "lat": 36.370113,
        "lng": 140.47965
    },
    {
        "code": "H108320100185",
        "type": 16016,
        "name": "河合塾水戸校",
        "address": "水戸市宮町1-2-22",
        "lat": 36.371411,
        "lng": 140.478442
    },
    {
        "code": "H108320100194",
        "type": 16016,
        "name": "駿優国際医療ビジネス専門学校",
        "address": "水戸市三の丸2-5-36",
        "lat": 36.37303,
        "lng": 140.477359
    },
    {
        "code": "H108320100201",
        "type": 16016,
        "name": "日本農業実践学園",
        "address": "水戸市内原町1496",
        "lat": 36.362353,
        "lng": 140.362031
    },
    {
        "code": "H108320100210",
        "type": 16016,
        "name": "農業栄養専門学校",
        "address": "水戸市鯉淵町5965",
        "lat": 36.332507,
        "lng": 140.344474
    },
    {
        "code": "H108320100229",
        "type": 16016,
        "name": "いばらき中央福祉専門学校",
        "address": "水戸市鯉淵町2222-2",
        "lat": 36.356763,
        "lng": 140.369185
    },
    {
        "code": "H208320100013",
        "type": 16015,
        "name": "茨城朝鮮初中高級学校",
        "address": "水戸市千波町2846",
        "lat": 36.356573,
        "lng": 140.457345
    },
    {
        "code": "H208320100022",
        "type": 16015,
        "name": "杉山編物技芸学院",
        "address": "水戸市栄町2-3-16",
        "lat": 36.385159,
        "lng": 140.458313
    },
    {
        "code": "H208320100031",
        "type": 16015,
        "name": "水戸駿優予備学校",
        "address": "水戸市三の丸1-1-42",
        "lat": 36.372541,
        "lng": 140.476743
    },
    {
        "code": "H208320100040",
        "type": 16015,
        "name": "水戸筑波ゼミナール",
        "address": "水戸市桜川2-5-3",
        "lat": 36.368972,
        "lng": 140.47934
    }
]