[
    {
        "code": "A108321600012",
        "type": 16011,
        "name": "こじか幼稚園",
        "address": "笠間市箱田6-4",
        "lat": 36.390245,
        "lng": 140.236779
    },
    {
        "code": "A108321600021",
        "type": 16011,
        "name": "ともべ幼稚園",
        "address": "笠間市東平2-11-7",
        "lat": 36.348501,
        "lng": 140.310056
    },
    {
        "code": "A108321600030",
        "type": 16011,
        "name": "さくら幼稚園",
        "address": "笠間市平町字原1811-4",
        "lat": 36.336928,
        "lng": 140.30218
    },
    {
        "code": "A108321600049",
        "type": 16011,
        "name": "岩間第一幼稚園",
        "address": "笠間市吉岡156-26",
        "lat": 36.298349,
        "lng": 140.29188
    },
    {
        "code": "A108321600058",
        "type": 16011,
        "name": "ドレミ幼稚園",
        "address": "笠間市市野谷1542-12",
        "lat": 36.284998,
        "lng": 140.285617
    },
    {
        "code": "A208321600011",
        "type": 16013,
        "name": "かさまこども園",
        "address": "笠間市金井83-1",
        "lat": 36.396179,
        "lng": 140.262682
    },
    {
        "code": "A208321600020",
        "type": 16013,
        "name": "いなだこども園",
        "address": "笠間市稲田2151-1",
        "lat": 36.35899,
        "lng": 140.201545
    },
    {
        "code": "A208321600039",
        "type": 16013,
        "name": "すみれこども園",
        "address": "笠間市旭町345-1",
        "lat": 36.32804,
        "lng": 140.314051
    },
    {
        "code": "A208321600048",
        "type": 16013,
        "name": "めぐみこども園",
        "address": "笠間市下郷4425-31",
        "lat": 36.292852,
        "lng": 140.273882
    },
    {
        "code": "B108221600012",
        "type": 16001,
        "name": "笠間小学校",
        "address": "笠間市笠間2689-1",
        "lat": 36.381857,
        "lng": 140.256613
    },
    {
        "code": "B108221600021",
        "type": 16001,
        "name": "稲田小学校",
        "address": "笠間市稲田2151-2",
        "lat": 36.357886,
        "lng": 140.202369
    },
    {
        "code": "B108221600030",
        "type": 16001,
        "name": "宍戸小学校",
        "address": "笠間市平町22",
        "lat": 36.339447,
        "lng": 140.288611
    },
    {
        "code": "B108221600049",
        "type": 16001,
        "name": "友部小学校",
        "address": "笠間市美原3-3-1",
        "lat": 36.343419,
        "lng": 140.315913
    },
    {
        "code": "B108221600058",
        "type": 16001,
        "name": "北川根小学校",
        "address": "笠間市湯崎1085-1",
        "lat": 36.310867,
        "lng": 140.327942
    },
    {
        "code": "B108221600067",
        "type": 16001,
        "name": "大原小学校",
        "address": "笠間市小原3522-1",
        "lat": 36.369666,
        "lng": 140.313385
    },
    {
        "code": "B108221600076",
        "type": 16001,
        "name": "友部第二小学校",
        "address": "笠間市平町1718-93",
        "lat": 36.335549,
        "lng": 140.311145
    },
    {
        "code": "B108221600085",
        "type": 16001,
        "name": "岩間第一小学校",
        "address": "笠間市下郷4140-1",
        "lat": 36.298708,
        "lng": 140.275552
    },
    {
        "code": "B108221600094",
        "type": 16001,
        "name": "岩間第二小学校",
        "address": "笠間市押辺529-1",
        "lat": 36.298313,
        "lng": 140.325062
    },
    {
        "code": "B108221600101",
        "type": 16001,
        "name": "岩間第三小学校",
        "address": "笠間市市野谷1542-19",
        "lat": 36.28537,
        "lng": 140.284865
    },
    {
        "code": "C108221600010",
        "type": 16002,
        "name": "笠間中学校",
        "address": "笠間市笠間2702",
        "lat": 36.380358,
        "lng": 140.257946
    },
    {
        "code": "C108221600029",
        "type": 16002,
        "name": "稲田中学校",
        "address": "笠間市稲田2145-3",
        "lat": 36.360553,
        "lng": 140.20398
    },
    {
        "code": "C108221600038",
        "type": 16002,
        "name": "友部中学校",
        "address": "笠間市中央4-1-1",
        "lat": 36.343086,
        "lng": 140.300471
    },
    {
        "code": "C108221600047",
        "type": 16002,
        "name": "友部第二中学校",
        "address": "笠間市旭町510-1",
        "lat": 36.325894,
        "lng": 140.330523
    },
    {
        "code": "C108221600056",
        "type": 16002,
        "name": "岩間中学校",
        "address": "笠間市下郷4997-1",
        "lat": 36.300889,
        "lng": 140.288735
    },
    {
        "code": "C208221600019",
        "type": 16014,
        "name": "みなみ学園義務教育学校",
        "address": "笠間市北吉原15",
        "lat": 36.36214,
        "lng": 140.242896
    },
    {
        "code": "D108221600018",
        "type": 16004,
        "name": "笠間高等学校",
        "address": "笠間市笠間1668",
        "lat": 36.380163,
        "lng": 140.246975
    },
    {
        "code": "D108221600027",
        "type": 16004,
        "name": "友部高等学校",
        "address": "笠間市大田町352-15",
        "lat": 36.350946,
        "lng": 140.287999
    },
    {
        "code": "E108221600015",
        "type": 16012,
        "name": "友部特別支援学校",
        "address": "笠間市鯉淵6558-1",
        "lat": 36.352309,
        "lng": 140.324254
    },
    {
        "code": "E108221600024",
        "type": 16012,
        "name": "友部東特別支援学校",
        "address": "笠間市鯉淵6528-1",
        "lat": 36.351029,
        "lng": 140.322162
    },
    {
        "code": "H108221600019",
        "type": 16016,
        "name": "中央看護専門学校",
        "address": "笠間市鯉渕6528",
        "lat": 36.350768,
        "lng": 140.320229
    }
]