[
    {
        "code": "A108221700013",
        "type": 16011,
        "name": "藤代幼稚園",
        "address": "取手市藤代53",
        "lat": 35.927816,
        "lng": 140.109021
    },
    {
        "code": "A108321700011",
        "type": 16011,
        "name": "チューリップ幼稚園",
        "address": "取手市取手3-6-27",
        "lat": 35.893925,
        "lng": 140.066159
    },
    {
        "code": "A108321700020",
        "type": 16011,
        "name": "白山幼稚園",
        "address": "取手市白山2-9-7",
        "lat": 35.902059,
        "lng": 140.060662
    },
    {
        "code": "A108321700039",
        "type": 16011,
        "name": "あづま幼稚園",
        "address": "取手市ゆめみ野4-22-1",
        "lat": 35.920832,
        "lng": 140.042595
    },
    {
        "code": "A108321700048",
        "type": 16011,
        "name": "チューリップ第二幼稚園",
        "address": "取手市吉田13-1",
        "lat": 35.8899,
        "lng": 140.081027
    },
    {
        "code": "A108321700057",
        "type": 16011,
        "name": "光風台幼稚園",
        "address": "取手市光風台1-2-1",
        "lat": 35.909187,
        "lng": 140.091895
    },
    {
        "code": "A208321700010",
        "type": 16013,
        "name": "取手ふたば文化",
        "address": "取手市西1-21-18",
        "lat": 35.900276,
        "lng": 140.046797
    },
    {
        "code": "A208321700029",
        "type": 16013,
        "name": "めぐみ幼稚園",
        "address": "取手市戸頭3-4",
        "lat": 35.919986,
        "lng": 140.013078
    },
    {
        "code": "A208321700038",
        "type": 16013,
        "name": "戸頭さくらの森",
        "address": "取手市戸頭4-5-7",
        "lat": 35.926433,
        "lng": 140.015224
    },
    {
        "code": "A208321700047",
        "type": 16013,
        "name": "みどりが丘幼稚園",
        "address": "取手市本郷4-10-7",
        "lat": 35.914437,
        "lng": 140.057028
    },
    {
        "code": "A208321700056",
        "type": 16013,
        "name": "認定こども園たかさごスクール取手",
        "address": "取手市井野3-16-1",
        "lat": 35.896169,
        "lng": 140.076803
    },
    {
        "code": "A208321700065",
        "type": 16013,
        "name": "認定こども園たかさごスクール取手アネックス",
        "address": "取手市中央町2-25",
        "lat": 35.897666,
        "lng": 140.063565
    },
    {
        "code": "A208321700074",
        "type": 16013,
        "name": "取手幼稚園",
        "address": "取手市小文間中妻4188",
        "lat": 35.885982,
        "lng": 140.106694
    },
    {
        "code": "A208321700083",
        "type": 16013,
        "name": "つつみ幼稚園",
        "address": "取手市双葉3-7-1",
        "lat": 35.939303,
        "lng": 140.121346
    },
    {
        "code": "B108221700011",
        "type": 16001,
        "name": "取手小学校",
        "address": "取手市東5-3-1",
        "lat": 35.890522,
        "lng": 140.071231
    },
    {
        "code": "B108221700020",
        "type": 16001,
        "name": "白山小学校",
        "address": "取手市白山2-3-18",
        "lat": 35.900798,
        "lng": 140.061148
    },
    {
        "code": "B108221700039",
        "type": 16001,
        "name": "永山小学校",
        "address": "取手市下高井2340",
        "lat": 35.926878,
        "lng": 140.028594
    },
    {
        "code": "B108221700048",
        "type": 16001,
        "name": "寺原小学校",
        "address": "取手市井野台5-14-1",
        "lat": 35.910436,
        "lng": 140.063481
    },
    {
        "code": "B108221700057",
        "type": 16001,
        "name": "高井小学校",
        "address": "取手市ゆめみ野3-22-1",
        "lat": 35.925065,
        "lng": 140.043433
    },
    {
        "code": "B108221700066",
        "type": 16001,
        "name": "取手東小学校",
        "address": "取手市吉田400",
        "lat": 35.891472,
        "lng": 140.083063
    },
    {
        "code": "B108221700075",
        "type": 16001,
        "name": "戸頭小学校",
        "address": "取手市戸頭3-21-1",
        "lat": 35.921977,
        "lng": 140.015347
    },
    {
        "code": "B108221700084",
        "type": 16001,
        "name": "取手西小学校",
        "address": "取手市稲70",
        "lat": 35.909757,
        "lng": 140.046363
    },
    {
        "code": "B108221700093",
        "type": 16001,
        "name": "藤代小学校",
        "address": "取手市藤代53",
        "lat": 35.92763,
        "lng": 140.109171
    },
    {
        "code": "B108221700100",
        "type": 16001,
        "name": "山王小学校",
        "address": "取手市山王380",
        "lat": 35.933933,
        "lng": 140.066368
    },
    {
        "code": "B108221700119",
        "type": 16001,
        "name": "六郷小学校",
        "address": "取手市清水373-1",
        "lat": 35.912639,
        "lng": 140.093547
    },
    {
        "code": "B108221700128",
        "type": 16001,
        "name": "久賀小学校",
        "address": "取手市萱場60",
        "lat": 35.930657,
        "lng": 140.112615
    },
    {
        "code": "B108221700137",
        "type": 16001,
        "name": "宮和田小学校",
        "address": "取手市藤代南3-11-1",
        "lat": 35.914805,
        "lng": 140.121973
    },
    {
        "code": "B108221700146",
        "type": 16001,
        "name": "桜が丘小学校",
        "address": "取手市桜が丘2-17-1",
        "lat": 35.90305,
        "lng": 140.126514
    },
    {
        "code": "B108321700019",
        "type": 16001,
        "name": "江戸川学園取手小学校",
        "address": "取手市野々井1567-3",
        "lat": 35.912785,
        "lng": 140.034464
    },
    {
        "code": "C108221700019",
        "type": 16002,
        "name": "取手第一中学校",
        "address": "取手市吉田470",
        "lat": 35.893231,
        "lng": 140.086222
    },
    {
        "code": "C108221700028",
        "type": 16002,
        "name": "取手第二中学校",
        "address": "取手市寺田5147",
        "lat": 35.910963,
        "lng": 140.051982
    },
    {
        "code": "C108221700037",
        "type": 16002,
        "name": "永山中学校",
        "address": "取手市下高井2311",
        "lat": 35.925461,
        "lng": 140.0299
    },
    {
        "code": "C108221700046",
        "type": 16002,
        "name": "戸頭中学校",
        "address": "取手市戸頭7-1-1",
        "lat": 35.920683,
        "lng": 140.011736
    },
    {
        "code": "C108221700055",
        "type": 16002,
        "name": "藤代中学校",
        "address": "取手市椚木1343",
        "lat": 35.925241,
        "lng": 140.092644
    },
    {
        "code": "C108221700064",
        "type": 16002,
        "name": "藤代南中学校",
        "address": "取手市中田880",
        "lat": 35.906577,
        "lng": 140.117948
    },
    {
        "code": "C108321700017",
        "type": 16002,
        "name": "聖徳大学附属取手聖徳女子中学校",
        "address": "取手市山王1000",
        "lat": 35.92942,
        "lng": 140.075042
    },
    {
        "code": "C108321700026",
        "type": 16002,
        "name": "江戸川学園取手中学校",
        "address": "取手市西1-37-1",
        "lat": 35.904436,
        "lng": 140.04065
    },
    {
        "code": "D108221700017",
        "type": 16004,
        "name": "取手第一高等学校",
        "address": "取手市台宿2-4-1",
        "lat": 35.897716,
        "lng": 140.066231
    },
    {
        "code": "D108221700026",
        "type": 16004,
        "name": "取手第二高等学校",
        "address": "取手市東2-5-1",
        "lat": 35.891439,
        "lng": 140.068703
    },
    {
        "code": "D108221700035",
        "type": 16004,
        "name": "取手松陽高等学校",
        "address": "取手市小文間4770",
        "lat": 35.879358,
        "lng": 140.122503
    },
    {
        "code": "D108221700044",
        "type": 16004,
        "name": "藤代高等学校",
        "address": "取手市毛有640",
        "lat": 35.910659,
        "lng": 140.085868
    },
    {
        "code": "D108221700053",
        "type": 16004,
        "name": "藤代紫水高等学校",
        "address": "取手市紫水1-660",
        "lat": 35.938476,
        "lng": 140.093447
    },
    {
        "code": "D108321700015",
        "type": 16004,
        "name": "江戸川学園取手高等学校",
        "address": "取手市西1-37-1",
        "lat": 35.903186,
        "lng": 140.041261
    },
    {
        "code": "D108321700024",
        "type": 16004,
        "name": "聖徳大学附属取手聖徳女子高等学校",
        "address": "取手市山王1000",
        "lat": 35.929323,
        "lng": 140.074979
    },
    {
        "code": "H108321700016",
        "type": 16016,
        "name": "やよいファッション専修学校",
        "address": "取手市取手1-11-10",
        "lat": 35.890661,
        "lng": 140.06572
    },
    {
        "code": "H108321700025",
        "type": 16016,
        "name": "成田つくば航空専門学校",
        "address": "取手市取手西野1842",
        "lat": 35.880214,
        "lng": 140.072288
    },
    {
        "code": "H108321700034",
        "type": 16016,
        "name": "東海学院文化教養専門学校",
        "address": "取手市井野台1-22-14",
        "lat": 35.90149,
        "lng": 140.069875
    },
    {
        "code": "H108321700043",
        "type": 16016,
        "name": "取手歯科衛生専門学校",
        "address": "取手市台宿2-3136-8",
        "lat": 35.899032,
        "lng": 140.06765
    }
]