[
    {
        "code": "A108222600012",
        "type": 16011,
        "name": "ひまわり幼稚園",
        "address": "那珂市菅谷174-1",
        "lat": 36.46016,
        "lng": 140.488098
    },
    {
        "code": "A108322600010",
        "type": 16011,
        "name": "さいせい幼稚園",
        "address": "那珂市瓜連1085-15",
        "lat": 36.502047,
        "lng": 140.453671
    },
    {
        "code": "A108322600029",
        "type": 16011,
        "name": "ナザレ幼稚園",
        "address": "那珂市中里356-1",
        "lat": 36.48404,
        "lng": 140.458896
    },
    {
        "code": "A208322600019",
        "type": 16013,
        "name": "大成学園幼稚園",
        "address": "那珂市東木倉960-2",
        "lat": 36.423652,
        "lng": 140.472576
    },
    {
        "code": "A208322600028",
        "type": 16013,
        "name": "瓜連認定こども園",
        "address": "那珂市瓜連1222",
        "lat": 36.503459,
        "lng": 140.451535
    },
    {
        "code": "B108222600010",
        "type": 16001,
        "name": "横堀小学校",
        "address": "那珂市横堀1502-1",
        "lat": 36.466326,
        "lng": 140.518836
    },
    {
        "code": "B108222600029",
        "type": 16001,
        "name": "額田小学校",
        "address": "那珂市額田北郷311",
        "lat": 36.492157,
        "lng": 140.51889
    },
    {
        "code": "B108222600038",
        "type": 16001,
        "name": "菅谷小学校",
        "address": "那珂市菅谷2378-1",
        "lat": 36.444523,
        "lng": 140.499061
    },
    {
        "code": "B108222600047",
        "type": 16001,
        "name": "五台小学校",
        "address": "那珂市東木倉960-1",
        "lat": 36.424719,
        "lng": 140.473036
    },
    {
        "code": "B108222600056",
        "type": 16001,
        "name": "芳野小学校",
        "address": "那珂市飯田3992",
        "lat": 36.468519,
        "lng": 140.457814
    },
    {
        "code": "B108222600065",
        "type": 16001,
        "name": "木崎小学校",
        "address": "那珂市門部2765",
        "lat": 36.488545,
        "lng": 140.483505
    },
    {
        "code": "B108222600074",
        "type": 16001,
        "name": "菅谷西小学校",
        "address": "那珂市菅谷4542-1",
        "lat": 36.4528,
        "lng": 140.486839
    },
    {
        "code": "B108222600083",
        "type": 16001,
        "name": "菅谷東小学校",
        "address": "那珂市菅谷891-2",
        "lat": 36.44744,
        "lng": 140.507866
    },
    {
        "code": "B108222600092",
        "type": 16001,
        "name": "瓜連小学校",
        "address": "那珂市瓜連1296",
        "lat": 36.500593,
        "lng": 140.444185
    },
    {
        "code": "C108222600018",
        "type": 16002,
        "name": "第一中学校",
        "address": "那珂市後台2547",
        "lat": 36.437301,
        "lng": 140.490479
    },
    {
        "code": "C108222600027",
        "type": 16002,
        "name": "第二中学校",
        "address": "那珂市額田南郷2386-4",
        "lat": 36.479547,
        "lng": 140.520474
    },
    {
        "code": "C108222600036",
        "type": 16002,
        "name": "第三中学校",
        "address": "那珂市飯田3645",
        "lat": 36.468963,
        "lng": 140.462119
    },
    {
        "code": "C108222600045",
        "type": 16002,
        "name": "第四中学校",
        "address": "那珂市菅谷2476",
        "lat": 36.447217,
        "lng": 140.50556
    },
    {
        "code": "C108222600054",
        "type": 16002,
        "name": "瓜連中学校",
        "address": "那珂市瓜連1015",
        "lat": 36.50071,
        "lng": 140.456229
    },
    {
        "code": "D108222600016",
        "type": 16004,
        "name": "水戸農業高等学校",
        "address": "那珂市東木倉983",
        "lat": 36.427108,
        "lng": 140.47098
    },
    {
        "code": "D108222600025",
        "type": 16004,
        "name": "那珂高等学校",
        "address": "那珂市後台1710-1",
        "lat": 36.425552,
        "lng": 140.479341
    },
    {
        "code": "F208310101516",
        "type": 16006,
        "name": "茨城女子短期大学",
        "address": "那珂市東木倉960-2",
        "lat": 36.423386,
        "lng": 140.473619
    }
]