[
    {
        "code": "A109310000270",
        "type": 16011,
        "name": "栃木二杉幼稚園",
        "address": "栃木市片柳町5-11-37",
        "lat": 36.371878,
        "lng": 139.711509
    },
    {
        "code": "A109310000289",
        "type": 16011,
        "name": "ひらかわ幼稚園",
        "address": "栃木市大宮町2378-7",
        "lat": 36.406319,
        "lng": 139.751741
    },
    {
        "code": "A109310000341",
        "type": 16011,
        "name": "吹上幼稚園",
        "address": "栃木市吹上町1376",
        "lat": 36.414017,
        "lng": 139.706919
    },
    {
        "code": "A109310000403",
        "type": 16011,
        "name": "聖光幼稚園",
        "address": "栃木市鍋山町610-1",
        "lat": 36.452531,
        "lng": 139.637125
    },
    {
        "code": "A109310000421",
        "type": 16011,
        "name": "おおひらふじ幼稚園",
        "address": "栃木市大平町富田4012-8",
        "lat": 36.344482,
        "lng": 139.709535
    },
    {
        "code": "A209210000011",
        "type": 16013,
        "name": "西方なかよしこども園",
        "address": "栃木市西方町本郷516-2",
        "lat": 36.450025,
        "lng": 139.737745
    },
    {
        "code": "A209310000162",
        "type": 16013,
        "name": "しずわでら幼稚園",
        "address": "栃木市岩舟町静和1151-4",
        "lat": 36.327886,
        "lng": 139.692354
    },
    {
        "code": "A209310000171",
        "type": 16013,
        "name": "バンビ幼稚園",
        "address": "栃木市藤岡町大前358-1",
        "lat": 36.275043,
        "lng": 139.651246
    },
    {
        "code": "A209310000180",
        "type": 16013,
        "name": "ふじおか幼稚園",
        "address": "栃木市藤岡町藤岡6466-7",
        "lat": 36.269604,
        "lng": 139.655631
    },
    {
        "code": "A209310000457",
        "type": 16013,
        "name": "アルス幼稚園",
        "address": "栃木市柳町1-20-1",
        "lat": 36.374535,
        "lng": 139.724977
    },
    {
        "code": "A209310000466",
        "type": 16013,
        "name": "おおみや幼児教育センター",
        "address": "栃木市大宮町1647-3",
        "lat": 36.391858,
        "lng": 139.757997
    },
    {
        "code": "A209310000475",
        "type": 16013,
        "name": "大平みなみ幼稚園",
        "address": "栃木市大平町西水代1742-1",
        "lat": 36.316341,
        "lng": 139.713308
    },
    {
        "code": "A209310000484",
        "type": 16013,
        "name": "いわふね幼稚園",
        "address": "栃木市岩舟町静622",
        "lat": 36.32064,
        "lng": 139.659513
    },
    {
        "code": "A209310000493",
        "type": 16013,
        "name": "認定こども園さくら",
        "address": "栃木市泉川町651-1",
        "lat": 36.384496,
        "lng": 139.712483
    },
    {
        "code": "A209310000787",
        "type": 16013,
        "name": "栃木幼稚園",
        "address": "栃木市旭町22-5",
        "lat": 36.379597,
        "lng": 139.735575
    },
    {
        "code": "A209310000796",
        "type": 16013,
        "name": "若葉幼稚園",
        "address": "栃木市小平町9-3",
        "lat": 36.387246,
        "lng": 139.729428
    },
    {
        "code": "A209310000803",
        "type": 16013,
        "name": "都賀幼稚園",
        "address": "栃木市都賀町家中1889-1",
        "lat": 36.421437,
        "lng": 139.750644
    },
    {
        "code": "A209310000812",
        "type": 16013,
        "name": "アルス南幼稚園",
        "address": "栃木市沼和田町36-41",
        "lat": 36.364363,
        "lng": 139.74082
    },
    {
        "code": "B109210000822",
        "type": 16001,
        "name": "栃木第三小学校",
        "address": "栃木市小平町13-39",
        "lat": 36.389899,
        "lng": 139.730658
    },
    {
        "code": "B109210000831",
        "type": 16001,
        "name": "栃木第四小学校",
        "address": "栃木市城内町1-3-15",
        "lat": 36.376067,
        "lng": 139.741463
    },
    {
        "code": "B109210000840",
        "type": 16001,
        "name": "栃木第五小学校",
        "address": "栃木市薗部町2-7-25",
        "lat": 36.374261,
        "lng": 139.713022
    },
    {
        "code": "B109210000859",
        "type": 16001,
        "name": "大宮南小学校",
        "address": "栃木市藤田町135-2",
        "lat": 36.37118,
        "lng": 139.761018
    },
    {
        "code": "B109210000868",
        "type": 16001,
        "name": "大宮北小学校",
        "address": "栃木市大宮町1777-1",
        "lat": 36.389788,
        "lng": 139.754629
    },
    {
        "code": "B109210000877",
        "type": 16001,
        "name": "吹上小学校",
        "address": "栃木市吹上町115",
        "lat": 36.411256,
        "lng": 139.720187
    },
    {
        "code": "B109210000886",
        "type": 16001,
        "name": "千塚小学校",
        "address": "栃木市大森町196",
        "lat": 36.41345,
        "lng": 139.696467
    },
    {
        "code": "B109210000895",
        "type": 16001,
        "name": "国府南小学校",
        "address": "栃木市寄居町949-3",
        "lat": 36.388345,
        "lng": 139.779766
    },
    {
        "code": "B109210000902",
        "type": 16001,
        "name": "国府北小学校",
        "address": "栃木市大塚町1278",
        "lat": 36.408564,
        "lng": 139.773876
    },
    {
        "code": "B109210000911",
        "type": 16001,
        "name": "南小学校",
        "address": "栃木市沼和田町38-10",
        "lat": 36.364013,
        "lng": 139.739131
    },
    {
        "code": "B109210000920",
        "type": 16001,
        "name": "皆川城東小学校",
        "address": "栃木市皆川城内町486",
        "lat": 36.398202,
        "lng": 139.691885
    },
    {
        "code": "B109210000939",
        "type": 16001,
        "name": "栃木中央小学校",
        "address": "栃木市入舟町13-3",
        "lat": 36.382297,
        "lng": 139.730001
    },
    {
        "code": "B109210002205",
        "type": 16001,
        "name": "西方小学校",
        "address": "栃木市西方町元770",
        "lat": 36.465283,
        "lng": 139.734836
    },
    {
        "code": "B109210002214",
        "type": 16001,
        "name": "真名子小学校",
        "address": "栃木市西方町真名子1089-1",
        "lat": 36.472449,
        "lng": 139.700163
    },
    {
        "code": "B109210002633",
        "type": 16001,
        "name": "大平東小学校",
        "address": "栃木市大平町上高島809",
        "lat": 36.347166,
        "lng": 139.733657
    },
    {
        "code": "B109210002642",
        "type": 16001,
        "name": "大平南小学校",
        "address": "栃木市大平町西水代1732",
        "lat": 36.316691,
        "lng": 139.71403
    },
    {
        "code": "B109210002651",
        "type": 16001,
        "name": "大平西小学校",
        "address": "栃木市大平町富田1869",
        "lat": 36.34245,
        "lng": 139.694401
    },
    {
        "code": "B109210002660",
        "type": 16001,
        "name": "大平中央小学校",
        "address": "栃木市大平町新1354-2",
        "lat": 36.331272,
        "lng": 139.704214
    },
    {
        "code": "B109210002679",
        "type": 16001,
        "name": "藤岡小学校",
        "address": "栃木市藤岡町藤岡1500",
        "lat": 36.255586,
        "lng": 139.651427
    },
    {
        "code": "B109210002688",
        "type": 16001,
        "name": "部屋小学校",
        "address": "栃木市藤岡町部屋158",
        "lat": 36.273324,
        "lng": 139.712043
    },
    {
        "code": "B109210002697",
        "type": 16001,
        "name": "赤麻小学校",
        "address": "栃木市藤岡町赤麻1703",
        "lat": 36.27041,
        "lng": 139.666925
    },
    {
        "code": "B109210002704",
        "type": 16001,
        "name": "三鴨小学校",
        "address": "栃木市藤岡町甲275-1",
        "lat": 36.286904,
        "lng": 139.633852
    },
    {
        "code": "B109210002713",
        "type": 16001,
        "name": "岩舟小学校",
        "address": "栃木市岩舟町静1400-1",
        "lat": 36.314646,
        "lng": 139.655561
    },
    {
        "code": "B109210002722",
        "type": 16001,
        "name": "静和小学校",
        "address": "栃木市岩舟町静和2432",
        "lat": 36.316212,
        "lng": 139.680195
    },
    {
        "code": "B109210002731",
        "type": 16001,
        "name": "合戦場小学校",
        "address": "栃木市都賀町合戦場301",
        "lat": 36.408473,
        "lng": 139.746298
    },
    {
        "code": "B109210002740",
        "type": 16001,
        "name": "家中小学校",
        "address": "栃木市都賀町家中2740",
        "lat": 36.429812,
        "lng": 139.759463
    },
    {
        "code": "B109210002759",
        "type": 16001,
        "name": "赤津小学校",
        "address": "栃木市都賀町富張147",
        "lat": 36.441515,
        "lng": 139.721694
    },
    {
        "code": "B109210003419",
        "type": 16001,
        "name": "寺尾小学校",
        "address": "栃木市梅沢町1131-1",
        "lat": 36.444029,
        "lng": 139.646052
    },
    {
        "code": "B109210003482",
        "type": 16001,
        "name": "小野寺小学校",
        "address": "栃木市岩舟町下岡646-5",
        "lat": 36.340113,
        "lng": 139.633809
    },
    {
        "code": "C109210000330",
        "type": 16002,
        "name": "栃木東中学校",
        "address": "栃木市日ﾉ出町1-11",
        "lat": 36.383177,
        "lng": 139.73913
    },
    {
        "code": "C109210000349",
        "type": 16002,
        "name": "栃木西中学校",
        "address": "栃木市片柳町2-15-40",
        "lat": 36.372123,
        "lng": 139.719355
    },
    {
        "code": "C109210000358",
        "type": 16002,
        "name": "栃木南中学校",
        "address": "栃木市本町5-5",
        "lat": 36.376484,
        "lng": 139.739158
    },
    {
        "code": "C109210000367",
        "type": 16002,
        "name": "皆川中学校",
        "address": "栃木市皆川城内町1856",
        "lat": 36.392702,
        "lng": 139.681219
    },
    {
        "code": "C109210000376",
        "type": 16002,
        "name": "吹上中学校",
        "address": "栃木市吹上町434-1",
        "lat": 36.413978,
        "lng": 139.70866
    },
    {
        "code": "C109210000385",
        "type": 16002,
        "name": "寺尾中学校",
        "address": "栃木市鍋山町86-2",
        "lat": 36.446445,
        "lng": 139.646302
    },
    {
        "code": "C109210000394",
        "type": 16002,
        "name": "東陽中学校",
        "address": "栃木市大宮町1287-1",
        "lat": 36.389094,
        "lng": 139.769239
    },
    {
        "code": "C109210001008",
        "type": 16002,
        "name": "西方中学校",
        "address": "栃木市西方町元908-1",
        "lat": 36.46104,
        "lng": 139.734147
    },
    {
        "code": "C109210001188",
        "type": 16002,
        "name": "大平中学校",
        "address": "栃木市大平町蔵井2026-1",
        "lat": 36.344732,
        "lng": 139.715536
    },
    {
        "code": "C109210001197",
        "type": 16002,
        "name": "大平南中学校",
        "address": "栃木市大平町西野田825",
        "lat": 36.327898,
        "lng": 139.71764
    },
    {
        "code": "C109210001204",
        "type": 16002,
        "name": "藤岡第一中学校",
        "address": "栃木市藤岡町藤岡10",
        "lat": 36.269685,
        "lng": 139.652438
    },
    {
        "code": "C109210001213",
        "type": 16002,
        "name": "藤岡第二中学校",
        "address": "栃木市藤岡町富吉1544",
        "lat": 36.283216,
        "lng": 139.696653
    },
    {
        "code": "C109210001222",
        "type": 16002,
        "name": "岩舟中学校",
        "address": "栃木市岩舟町静389-1",
        "lat": 36.322508,
        "lng": 139.663811
    },
    {
        "code": "C109210001231",
        "type": 16002,
        "name": "都賀中学校",
        "address": "栃木市都賀町家中5818",
        "lat": 36.431307,
        "lng": 139.742938
    },
    {
        "code": "C109310000052",
        "type": 16002,
        "name": "國學院大學栃木中学校",
        "address": "栃木市平井町608",
        "lat": 36.364913,
        "lng": 139.704217
    },
    {
        "code": "D109210000196",
        "type": 16004,
        "name": "栃木翔南高等学校",
        "address": "栃木市大平町川連370",
        "lat": 36.364652,
        "lng": 139.726382
    },
    {
        "code": "D109210000249",
        "type": 16004,
        "name": "栃木高等学校",
        "address": "栃木市入舟町12-4",
        "lat": 36.383816,
        "lng": 139.730436
    },
    {
        "code": "D109210000258",
        "type": 16004,
        "name": "栃木女子高等学校",
        "address": "栃木市薗部町1-2-5",
        "lat": 36.378011,
        "lng": 139.72191
    },
    {
        "code": "D109210000267",
        "type": 16004,
        "name": "栃木農業高等学校",
        "address": "栃木市平井町911",
        "lat": 36.373761,
        "lng": 139.704246
    },
    {
        "code": "D109210000276",
        "type": 16004,
        "name": "栃木工業高等学校",
        "address": "栃木市岩出町129",
        "lat": 36.385037,
        "lng": 139.707467
    },
    {
        "code": "D109210000285",
        "type": 16004,
        "name": "栃木商業高等学校",
        "address": "栃木市片柳町5-1-30",
        "lat": 36.373872,
        "lng": 139.716911
    },
    {
        "code": "D109210000329",
        "type": 16004,
        "name": "学悠館高等学校",
        "address": "栃木市沼和田町2-2",
        "lat": 36.372869,
        "lng": 139.73428
    },
    {
        "code": "D109310000103",
        "type": 16004,
        "name": "國學院大學栃木高等学校",
        "address": "栃木市平井町608",
        "lat": 36.364345,
        "lng": 139.703191
    },
    {
        "code": "E109210000068",
        "type": 16012,
        "name": "栃木特別支援学校",
        "address": "栃木市皆川城内町1053",
        "lat": 36.388397,
        "lng": 139.69083
    },
    {
        "code": "F209310101668",
        "type": 16006,
        "name": "國學院大學栃木短期大学",
        "address": "栃木市平井町608",
        "lat": 36.364012,
        "lng": 139.702218
    },
    {
        "code": "H109210000035",
        "type": 16016,
        "name": "県南高等看護専門学院",
        "address": "栃木市大塚町1258-4",
        "lat": 36.409681,
        "lng": 139.772679
    },
    {
        "code": "H109310000177",
        "type": 16016,
        "name": "マロニエ医療福祉専門学校",
        "address": "栃木市今泉町2-6-22",
        "lat": 36.387988,
        "lng": 139.744343
    },
    {
        "code": "H109310000239",
        "type": 16016,
        "name": "ヤマトファッションビジネス専門学校",
        "address": "栃木市柳橋町7-7",
        "lat": 36.381051,
        "lng": 139.722324
    },
    {
        "code": "H209310000041",
        "type": 16015,
        "name": "日本簿記学校",
        "address": "栃木市万町27-25",
        "lat": 36.38238,
        "lng": 139.737099
    },
    {
        "code": "H209310000176",
        "type": 16015,
        "name": "好学院国際学校",
        "address": "栃木市大町1-15",
        "lat": 36.391221,
        "lng": 139.735198
    }
]