[
    {
        "code": "A109210000012",
        "type": 16011,
        "name": "つくし幼稚園",
        "address": "那須烏山市東原50",
        "lat": 36.656859,
        "lng": 140.100227
    },
    {
        "code": "A209310000359",
        "type": 16013,
        "name": "烏山みどり幼稚園",
        "address": "那須烏山市金井1-5-16",
        "lat": 36.654779,
        "lng": 140.152625
    },
    {
        "code": "A209310000741",
        "type": 16013,
        "name": "烏山聖マリア幼稚園",
        "address": "那須烏山市南1-9-19",
        "lat": 36.649144,
        "lng": 140.151178
    },
    {
        "code": "B109210002991",
        "type": 16001,
        "name": "荒川小学校",
        "address": "那須烏山市大金135-1",
        "lat": 36.653934,
        "lng": 140.094978
    },
    {
        "code": "B109210003008",
        "type": 16001,
        "name": "江川小学校",
        "address": "那須烏山市下川井1001",
        "lat": 36.699858,
        "lng": 140.090072
    },
    {
        "code": "B109210003017",
        "type": 16001,
        "name": "境小学校",
        "address": "那須烏山市上境1404",
        "lat": 36.637631,
        "lng": 140.174395
    },
    {
        "code": "B109210003026",
        "type": 16001,
        "name": "烏山小学校",
        "address": "那須烏山市愛宕台2800",
        "lat": 36.649574,
        "lng": 140.146584
    },
    {
        "code": "B109210003035",
        "type": 16001,
        "name": "七合小学校",
        "address": "那須烏山市谷浅見910",
        "lat": 36.692569,
        "lng": 140.156998
    },
    {
        "code": "C109210001348",
        "type": 16002,
        "name": "烏山中学校",
        "address": "那須烏山市南1-2810",
        "lat": 36.648213,
        "lng": 140.146084
    },
    {
        "code": "C109210001507",
        "type": 16002,
        "name": "南那須中学校",
        "address": "那須烏山市大金285",
        "lat": 36.653934,
        "lng": 140.09495
    },
    {
        "code": "D109210000445",
        "type": 16004,
        "name": "烏山高等学校",
        "address": "那須烏山市中央3-9-8",
        "lat": 36.663962,
        "lng": 140.152861
    },
    {
        "code": "E109210000111",
        "type": 16012,
        "name": "南那須特別支援学校",
        "address": "那須烏山市藤田1181-152",
        "lat": 36.682124,
        "lng": 140.099003
    }
]