[
    {
        "code": "A209310000386",
        "type": 16013,
        "name": "七井幼稚園",
        "address": "芳賀郡益子町大沢1456-2",
        "lat": 36.492011,
        "lng": 140.09719
    },
    {
        "code": "A209310000411",
        "type": 16013,
        "name": "たから幼稚園",
        "address": "芳賀郡益子町益子2936-1",
        "lat": 36.46457,
        "lng": 140.100808
    },
    {
        "code": "B109210002312",
        "type": 16001,
        "name": "田野小学校",
        "address": "芳賀郡益子町長堤400",
        "lat": 36.429377,
        "lng": 140.085544
    },
    {
        "code": "B109210002321",
        "type": 16001,
        "name": "益子小学校",
        "address": "芳賀郡益子町益子4665",
        "lat": 36.459901,
        "lng": 140.097125
    },
    {
        "code": "B109210002330",
        "type": 16001,
        "name": "七井小学校",
        "address": "芳賀郡益子町大沢202",
        "lat": 36.493869,
        "lng": 140.102345
    },
    {
        "code": "B109210002349",
        "type": 16001,
        "name": "益子西小学校",
        "address": "芳賀郡益子町塙1344",
        "lat": 36.466428,
        "lng": 140.082015
    },
    {
        "code": "C109210001062",
        "type": 16002,
        "name": "田野中学校",
        "address": "芳賀郡益子町長堤402",
        "lat": 36.43071,
        "lng": 140.085571
    },
    {
        "code": "C109210001071",
        "type": 16002,
        "name": "益子中学校",
        "address": "芳賀郡益子町益子3618",
        "lat": 36.469455,
        "lng": 140.099707
    },
    {
        "code": "C109210001080",
        "type": 16002,
        "name": "七井中学校",
        "address": "芳賀郡益子町七井371",
        "lat": 36.497071,
        "lng": 140.108278
    },
    {
        "code": "D109210000427",
        "type": 16004,
        "name": "益子芳星高等学校",
        "address": "芳賀郡益子町塙2382-1",
        "lat": 36.488425,
        "lng": 140.085791
    },
    {
        "code": "E109210000102",
        "type": 16012,
        "name": "益子特別支援学校",
        "address": "芳賀郡益子町七井3650",
        "lat": 36.506784,
        "lng": 140.097345
    }
]