[
    {
        "code": "A209310000420",
        "type": 16013,
        "name": "市貝たいよう幼稚園",
        "address": "芳賀郡市貝町市塙1096",
        "lat": 36.546505,
        "lng": 140.102695
    },
    {
        "code": "A209310001090",
        "type": 16013,
        "name": "赤羽認定こども園",
        "address": "芳賀郡市貝町赤羽2634-2",
        "lat": 36.516402,
        "lng": 140.066786
    },
    {
        "code": "A209310001107",
        "type": 16013,
        "name": "かみねの森認定こども園",
        "address": "芳賀郡市貝町上根449-7",
        "lat": 36.535314,
        "lng": 140.077951
    },
    {
        "code": "B109210002394",
        "type": 16001,
        "name": "赤羽小学校",
        "address": "芳賀郡市貝町赤羽2711",
        "lat": 36.515227,
        "lng": 140.068014
    },
    {
        "code": "B109210002401",
        "type": 16001,
        "name": "市貝小学校",
        "address": "芳賀郡市貝町市塙2184",
        "lat": 36.534087,
        "lng": 140.105176
    },
    {
        "code": "B109210003384",
        "type": 16001,
        "name": "小貝小学校",
        "address": "芳賀郡市貝町文谷1188",
        "lat": 36.569083,
        "lng": 140.107786
    },
    {
        "code": "C109210001106",
        "type": 16002,
        "name": "市貝中学校",
        "address": "芳賀郡市貝町市塙183",
        "lat": 36.528238,
        "lng": 140.091779
    }
]