[
    {
        "code": "A109310000190",
        "type": 16011,
        "name": "たちばな幼稚園",
        "address": "下都賀郡壬生町上田1002-3",
        "lat": 36.498264,
        "lng": 139.815431
    },
    {
        "code": "A109310000519",
        "type": 16011,
        "name": "おもちゃのまち幼稚園",
        "address": "下都賀郡壬生町安塚753-2",
        "lat": 36.46899,
        "lng": 139.83382
    },
    {
        "code": "A209310000769",
        "type": 16013,
        "name": "くにや幼稚園",
        "address": "壬生町国谷644-1",
        "lat": 36.459825,
        "lng": 139.816881
    },
    {
        "code": "A209310000778",
        "type": 16013,
        "name": "やすづか幼稚園",
        "address": "壬生町安塚1641-1",
        "lat": 36.492123,
        "lng": 139.835877
    },
    {
        "code": "A209310001116",
        "type": 16013,
        "name": "メリーランド保育園",
        "address": "下都賀郡壬生町下稲葉343-1",
        "lat": 36.431055,
        "lng": 139.783971
    },
    {
        "code": "B109210002447",
        "type": 16001,
        "name": "壬生小学校",
        "address": "下都賀郡壬生町本丸2-3-7",
        "lat": 36.425396,
        "lng": 139.798374
    },
    {
        "code": "B109210002456",
        "type": 16001,
        "name": "藤井小学校",
        "address": "下都賀郡壬生町藤井1267",
        "lat": 36.416287,
        "lng": 139.815484
    },
    {
        "code": "B109210002465",
        "type": 16001,
        "name": "壬生東小学校",
        "address": "下都賀郡壬生町落合3-5-21",
        "lat": 36.455227,
        "lng": 139.821621
    },
    {
        "code": "B109210002474",
        "type": 16001,
        "name": "稲葉小学校",
        "address": "下都賀郡壬生町上稲葉881",
        "lat": 36.450921,
        "lng": 139.778014
    },
    {
        "code": "B109210002483",
        "type": 16001,
        "name": "羽生田小学校",
        "address": "下都賀郡壬生町羽生田2139-1",
        "lat": 36.474585,
        "lng": 139.777374
    },
    {
        "code": "B109210002492",
        "type": 16001,
        "name": "壬生北小学校",
        "address": "下都賀郡壬生町北小林190",
        "lat": 36.485529,
        "lng": 139.810038
    },
    {
        "code": "B109210002508",
        "type": 16001,
        "name": "安塚小学校",
        "address": "下都賀郡壬生町安塚2078",
        "lat": 36.489779,
        "lng": 139.831063
    },
    {
        "code": "B109210002517",
        "type": 16001,
        "name": "睦小学校",
        "address": "下都賀郡壬生町壬生丁230-1",
        "lat": 36.460533,
        "lng": 139.837342
    },
    {
        "code": "C109210001124",
        "type": 16002,
        "name": "南犬飼中学校",
        "address": "下都賀郡壬生町北小林743",
        "lat": 36.479141,
        "lng": 139.824676
    },
    {
        "code": "C109210001133",
        "type": 16002,
        "name": "壬生中学校",
        "address": "下都賀郡壬生町壬生甲2770",
        "lat": 36.439034,
        "lng": 139.79568
    },
    {
        "code": "D109210000294",
        "type": 16004,
        "name": "壬生高等学校",
        "address": "下都賀郡壬生町藤井1194",
        "lat": 36.41337,
        "lng": 139.811151
    },
    {
        "code": "F109310101632",
        "type": 16007,
        "name": "獨協医科大学",
        "address": "下都賀郡壬生町北小林880",
        "lat": 36.473308,
        "lng": 139.823981
    },
    {
        "code": "H109310000113",
        "type": 16016,
        "name": "獨協医科大学附属看護専門学校",
        "address": "下都賀郡壬生町北小林880",
        "lat": 36.473784,
        "lng": 139.825265
    }
]