[
    {
        "code": "B109210002848",
        "type": 16001,
        "name": "船生小学校",
        "address": "塩谷郡塩谷町船生3660",
        "lat": 36.768746,
        "lng": 139.785778
    },
    {
        "code": "B109210002857",
        "type": 16001,
        "name": "玉生小学校",
        "address": "塩谷郡塩谷町玉生395",
        "lat": 36.776885,
        "lng": 139.853355
    },
    {
        "code": "B109210002866",
        "type": 16001,
        "name": "大宮小学校",
        "address": "塩谷郡塩谷町大宮2166",
        "lat": 36.742611,
        "lng": 139.872189
    },
    {
        "code": "C109210001295",
        "type": 16002,
        "name": "塩谷中学校",
        "address": "塩谷郡塩谷町飯岡1248",
        "lat": 36.76218,
        "lng": 139.839785
    },
    {
        "code": "D109310000158",
        "type": 16004,
        "name": "日々輝学園高等学校",
        "address": "塩谷郡塩谷町2475-1",
        "lat": 36.742651,
        "lng": 139.872595
    }
]