[
    {
        "code": "A109310000154",
        "type": 16011,
        "name": "那須幼稚園",
        "address": "那須郡那須町寺子乙2599-3",
        "lat": 37.010349,
        "lng": 140.110085
    },
    {
        "code": "A109310000564",
        "type": 16011,
        "name": "那須みふじ幼稚園",
        "address": "那須郡那須町高久甲6394-1",
        "lat": 36.990727,
        "lng": 140.045644
    },
    {
        "code": "B109210003124",
        "type": 16001,
        "name": "高久小学校",
        "address": "那須郡那須町高久甲3358-3",
        "lat": 36.996755,
        "lng": 140.055162
    },
    {
        "code": "B109210003428",
        "type": 16001,
        "name": "田代友愛小学校",
        "address": "那須郡那須町高久乙196-3",
        "lat": 37.020751,
        "lng": 140.025742
    },
    {
        "code": "B109210003437",
        "type": 16001,
        "name": "那須高原小学校",
        "address": "那須郡那須町高久丙1482",
        "lat": 37.057745,
        "lng": 140.038924
    },
    {
        "code": "B109210003446",
        "type": 16001,
        "name": "黒田原小学校",
        "address": "那須郡那須町寺子乙3968-1",
        "lat": 37.02017,
        "lng": 140.12285
    },
    {
        "code": "B109210003455",
        "type": 16001,
        "name": "学びの森小学校",
        "address": "那須郡那須町大島18-1",
        "lat": 37.044742,
        "lng": 140.087343
    },
    {
        "code": "B109210003464",
        "type": 16001,
        "name": "東陽小学校",
        "address": "那須郡那須町芦野100",
        "lat": 36.971285,
        "lng": 140.160283
    },
    {
        "code": "C109210001516",
        "type": 16002,
        "name": "那須中学校",
        "address": "那須郡那須町高久丙1-1",
        "lat": 37.046998,
        "lng": 140.023997
    },
    {
        "code": "C109210001552",
        "type": 16002,
        "name": "那須中央中学校",
        "address": "那須町寺子丙92",
        "lat": 37.022936,
        "lng": 140.112263
    },
    {
        "code": "C109310000070",
        "type": 16002,
        "name": "幸福の科学学園中学校",
        "address": "那須郡那須町梁瀬487-1",
        "lat": 36.933157,
        "lng": 140.154954
    },
    {
        "code": "D109210000524",
        "type": 16004,
        "name": "那須高等学校",
        "address": "那須郡那須町寺子乙3932-48",
        "lat": 37.011977,
        "lng": 140.127017
    },
    {
        "code": "D109310000149",
        "type": 16004,
        "name": "幸福の科学学園高等学校",
        "address": "那須郡那須町梁瀬487-1",
        "lat": 36.933067,
        "lng": 140.154942
    }
]