[
    {
        "area_city_code": 12101,
        "area_city_name": "千葉市中央区",
        "area_town_code": "121010001000",
        "area_town_name": "青葉町",
        "area_lat": 35.59724,
        "area_lng": 140.139851
    },
    {
        "area_city_code": 12101,
        "area_city_name": "千葉市中央区",
        "area_town_code": "121010002000",
        "area_town_name": "赤井町",
        "area_lat": 35.571702,
        "area_lng": 140.161109
    },
    {
        "area_city_code": 12101,
        "area_city_name": "千葉市中央区",
        "area_town_code": "121010003000",
        "area_town_name": "旭町",
        "area_lat": 35.608093,
        "area_lng": 140.134237
    },
    {
        "area_city_code": 12101,
        "area_city_name": "千葉市中央区",
        "area_town_code": "121010004000",
        "area_town_name": "市場町",
        "area_lat": 35.604414,
        "area_lng": 140.123915
    },
    {
        "area_city_code": 12101,
        "area_city_name": "千葉市中央区",
        "area_town_code": "121010005001",
        "area_town_name": "稲荷町一丁目",
        "area_lat": 35.590521,
        "area_lng": 140.124859
    },
    {
        "area_city_code": 12101,
        "area_city_name": "千葉市中央区",
        "area_town_code": "121010005002",
        "area_town_name": "稲荷町二丁目",
        "area_lat": 35.58881,
        "area_lng": 140.125214
    },
    {
        "area_city_code": 12101,
        "area_city_name": "千葉市中央区",
        "area_town_code": "121010005003",
        "area_town_name": "稲荷町三丁目",
        "area_lat": 35.586319,
        "area_lng": 140.126492
    },
    {
        "area_city_code": 12101,
        "area_city_name": "千葉市中央区",
        "area_town_code": "121010006001",
        "area_town_name": "亥鼻一丁目",
        "area_lat": 35.60455,
        "area_lng": 140.13291
    },
    {
        "area_city_code": 12101,
        "area_city_name": "千葉市中央区",
        "area_town_code": "121010006002",
        "area_town_name": "亥鼻二丁目",
        "area_lat": 35.602758,
        "area_lng": 140.128385
    },
    {
        "area_city_code": 12101,
        "area_city_name": "千葉市中央区",
        "area_town_code": "121010006003",
        "area_town_name": "亥鼻三丁目",
        "area_lat": 35.602764,
        "area_lng": 140.130924
    },
    {
        "area_city_code": 12101,
        "area_city_name": "千葉市中央区",
        "area_town_code": "121010007001",
        "area_town_name": "今井一丁目",
        "area_lat": 35.583359,
        "area_lng": 140.128017
    },
    {
        "area_city_code": 12101,
        "area_city_name": "千葉市中央区",
        "area_town_code": "121010007002",
        "area_town_name": "今井二丁目",
        "area_lat": 35.580695,
        "area_lng": 140.129131
    },
    {
        "area_city_code": 12101,
        "area_city_name": "千葉市中央区",
        "area_town_code": "121010007003",
        "area_town_name": "今井三丁目",
        "area_lat": 35.577317,
        "area_lng": 140.130364
    },
    {
        "area_city_code": 12101,
        "area_city_name": "千葉市中央区",
        "area_town_code": "121010008000",
        "area_town_name": "今井町",
        "area_lat": 35.574306,
        "area_lng": 140.141851
    },
    {
        "area_city_code": 12101,
        "area_city_name": "千葉市中央区",
        "area_town_code": "121010009001",
        "area_town_name": "院内一丁目",
        "area_lat": 35.612823,
        "area_lng": 140.123135
    },
    {
        "area_city_code": 12101,
        "area_city_name": "千葉市中央区",
        "area_town_code": "121010009002",
        "area_town_name": "院内二丁目",
        "area_lat": 35.612913,
        "area_lng": 140.125345
    },
    {
        "area_city_code": 12101,
        "area_city_name": "千葉市中央区",
        "area_town_code": "121010010000",
        "area_town_name": "鵜の森町",
        "area_lat": 35.57487,
        "area_lng": 140.139365
    },
    {
        "area_city_code": 12101,
        "area_city_name": "千葉市中央区",
        "area_town_code": "121010011000",
        "area_town_name": "大森町",
        "area_lat": 35.580108,
        "area_lng": 140.1477
    },
    {
        "area_city_code": 12101,
        "area_city_name": "千葉市中央区",
        "area_town_code": "121010012000",
        "area_town_name": "生実町",
        "area_lat": 35.564164,
        "area_lng": 140.148487
    },
    {
        "area_city_code": 12101,
        "area_city_name": "千葉市中央区",
        "area_town_code": "121010013001",
        "area_town_name": "春日一丁目",
        "area_lat": 35.619396,
        "area_lng": 140.103928
    },
    {
        "area_city_code": 12101,
        "area_city_name": "千葉市中央区",
        "area_town_code": "121010013002",
        "area_town_name": "春日二丁目",
        "area_lat": 35.621811,
        "area_lng": 140.101911
    },
    {
        "area_city_code": 12101,
        "area_city_name": "千葉市中央区",
        "area_town_code": "121010014001",
        "area_town_name": "葛城一丁目",
        "area_lat": 35.599696,
        "area_lng": 140.128475
    },
    {
        "area_city_code": 12101,
        "area_city_name": "千葉市中央区",
        "area_town_code": "121010014002",
        "area_town_name": "葛城二丁目",
        "area_lat": 35.599713,
        "area_lng": 140.131772
    },
    {
        "area_city_code": 12101,
        "area_city_name": "千葉市中央区",
        "area_town_code": "121010014003",
        "area_town_name": "葛城三丁目",
        "area_lat": 35.599272,
        "area_lng": 140.134293
    },
    {
        "area_city_code": 12101,
        "area_city_name": "千葉市中央区",
        "area_town_code": "121010015000",
        "area_town_name": "要町",
        "area_lat": 35.615555,
        "area_lng": 140.120945
    },
    {
        "area_city_code": 12101,
        "area_city_name": "千葉市中央区",
        "area_town_code": "121010016000",
        "area_town_name": "亀井町",
        "area_lat": 35.60748,
        "area_lng": 140.129729
    },
    {
        "area_city_code": 12101,
        "area_city_name": "千葉市中央区",
        "area_town_code": "121010017000",
        "area_town_name": "亀岡町",
        "area_lat": 35.606447,
        "area_lng": 140.133321
    },
    {
        "area_city_code": 12101,
        "area_city_name": "千葉市中央区",
        "area_town_code": "121010018000",
        "area_town_name": "川崎町",
        "area_lat": 35.578899,
        "area_lng": 140.094327
    },
    {
        "area_city_code": 12101,
        "area_city_name": "千葉市中央区",
        "area_town_code": "121010019000",
        "area_town_name": "川戸町",
        "area_lat": 35.584833,
        "area_lng": 140.167516
    },
    {
        "area_city_code": 12101,
        "area_city_name": "千葉市中央区",
        "area_town_code": "121010020000",
        "area_town_name": "栄町",
        "area_lat": 35.613083,
        "area_lng": 140.12032
    },
    {
        "area_city_code": 12101,
        "area_city_name": "千葉市中央区",
        "area_town_code": "121010021001",
        "area_town_name": "寒川町一丁目",
        "area_lat": 35.596743,
        "area_lng": 140.120322
    },
    {
        "area_city_code": 12101,
        "area_city_name": "千葉市中央区",
        "area_town_code": "121010021002",
        "area_town_name": "寒川町二丁目",
        "area_lat": 35.594259,
        "area_lng": 140.120348
    },
    {
        "area_city_code": 12101,
        "area_city_name": "千葉市中央区",
        "area_town_code": "121010021003",
        "area_town_name": "寒川町三丁目",
        "area_lat": 35.592531,
        "area_lng": 140.122791
    },
    {
        "area_city_code": 12101,
        "area_city_name": "千葉市中央区",
        "area_town_code": "121010022000",
        "area_town_name": "塩田町",
        "area_lat": 35.561776,
        "area_lng": 140.131666
    },
    {
        "area_city_code": 12101,
        "area_city_name": "千葉市中央区",
        "area_town_code": "121010023000",
        "area_town_name": "汐見丘町",
        "area_lat": 35.617068,
        "area_lng": 140.105819
    },
    {
        "area_city_code": 12101,
        "area_city_name": "千葉市中央区",
        "area_town_code": "121010024001",
        "area_town_name": "白旗一丁目",
        "area_lat": 35.578211,
        "area_lng": 140.137988
    },
    {
        "area_city_code": 12101,
        "area_city_name": "千葉市中央区",
        "area_town_code": "121010024002",
        "area_town_name": "白旗二丁目",
        "area_lat": 35.578437,
        "area_lng": 140.140478
    },
    {
        "area_city_code": 12101,
        "area_city_name": "千葉市中央区",
        "area_town_code": "121010024003",
        "area_town_name": "白旗三丁目",
        "area_lat": 35.581265,
        "area_lng": 140.140466
    },
    {
        "area_city_code": 12101,
        "area_city_name": "千葉市中央区",
        "area_town_code": "121010025001",
        "area_town_name": "新宿一丁目",
        "area_lat": 35.605097,
        "area_lng": 140.113564
    },
    {
        "area_city_code": 12101,
        "area_city_name": "千葉市中央区",
        "area_town_code": "121010025002",
        "area_town_name": "新宿二丁目",
        "area_lat": 35.606898,
        "area_lng": 140.115602
    },
    {
        "area_city_code": 12101,
        "area_city_name": "千葉市中央区",
        "area_town_code": "121010026001",
        "area_town_name": "新千葉一丁目",
        "area_lat": 35.612925,
        "area_lng": 140.113694
    },
    {
        "area_city_code": 12101,
        "area_city_name": "千葉市中央区",
        "area_town_code": "121010026002",
        "area_town_name": "新千葉二丁目",
        "area_lat": 35.613775,
        "area_lng": 140.109739
    },
    {
        "area_city_code": 12101,
        "area_city_name": "千葉市中央区",
        "area_town_code": "121010026003",
        "area_town_name": "新千葉三丁目",
        "area_lat": 35.614859,
        "area_lng": 140.107004
    },
    {
        "area_city_code": 12101,
        "area_city_name": "千葉市中央区",
        "area_town_code": "121010027000",
        "area_town_name": "新田町",
        "area_lat": 35.607744,
        "area_lng": 140.111059
    },
    {
        "area_city_code": 12101,
        "area_city_name": "千葉市中央区",
        "area_town_code": "121010028000",
        "area_town_name": "新町",
        "area_lat": 35.610491,
        "area_lng": 140.11344
    },
    {
        "area_city_code": 12101,
        "area_city_name": "千葉市中央区",
        "area_town_code": "121010029000",
        "area_town_name": "神明町",
        "area_lat": 35.60172,
        "area_lng": 140.116188
    },
    {
        "area_city_code": 12101,
        "area_city_name": "千葉市中央区",
        "area_town_code": "121010030001",
        "area_town_name": "末広一丁目",
        "area_lat": 35.597802,
        "area_lng": 140.124971
    },
    {
        "area_city_code": 12101,
        "area_city_name": "千葉市中央区",
        "area_town_code": "121010030002",
        "area_town_name": "末広二丁目",
        "area_lat": 35.596254,
        "area_lng": 140.125955
    },
    {
        "area_city_code": 12101,
        "area_city_name": "千葉市中央区",
        "area_town_code": "121010030003",
        "area_town_name": "末広三丁目",
        "area_lat": 35.593264,
        "area_lng": 140.127429
    },
    {
        "area_city_code": 12101,
        "area_city_name": "千葉市中央区",
        "area_town_code": "121010030004",
        "area_town_name": "末広四丁目",
        "area_lat": 35.590632,
        "area_lng": 140.128841
    },
    {
        "area_city_code": 12101,
        "area_city_name": "千葉市中央区",
        "area_town_code": "121010030005",
        "area_town_name": "末広五丁目",
        "area_lat": 35.587598,
        "area_lng": 140.130363
    },
    {
        "area_city_code": 12101,
        "area_city_name": "千葉市中央区",
        "area_town_code": "121010031001",
        "area_town_name": "蘇我一丁目",
        "area_lat": 35.574789,
        "area_lng": 140.131093
    },
    {
        "area_city_code": 12101,
        "area_city_name": "千葉市中央区",
        "area_town_code": "121010031002",
        "area_town_name": "蘇我二丁目",
        "area_lat": 35.57182,
        "area_lng": 140.1316
    },
    {
        "area_city_code": 12101,
        "area_city_name": "千葉市中央区",
        "area_town_code": "121010031003",
        "area_town_name": "蘇我三丁目",
        "area_lat": 35.567577,
        "area_lng": 140.132251
    },
    {
        "area_city_code": 12101,
        "area_city_name": "千葉市中央区",
        "area_town_code": "121010031004",
        "area_town_name": "蘇我四丁目",
        "area_lat": 35.567448,
        "area_lng": 140.136028
    },
    {
        "area_city_code": 12101,
        "area_city_name": "千葉市中央区",
        "area_town_code": "121010031005",
        "area_town_name": "蘇我五丁目",
        "area_lat": 35.571761,
        "area_lng": 140.136632
    },
    {
        "area_city_code": 12101,
        "area_city_name": "千葉市中央区",
        "area_town_code": "121010032002",
        "area_town_name": "蘇我町二丁目",
        "area_lat": 35.565901,
        "area_lng": 140.112403
    },
    {
        "area_city_code": 12101,
        "area_city_name": "千葉市中央区",
        "area_town_code": "121010033000",
        "area_town_name": "大巌寺町",
        "area_lat": 35.573169,
        "area_lng": 140.146609
    },
    {
        "area_city_code": 12101,
        "area_city_name": "千葉市中央区",
        "area_town_code": "121010034000",
        "area_town_name": "千葉寺町",
        "area_lat": 35.592634,
        "area_lng": 140.134089
    },
    {
        "area_city_code": 12101,
        "area_city_name": "千葉市中央区",
        "area_town_code": "121010035000",
        "area_town_name": "千葉港",
        "area_lat": 35.606828,
        "area_lng": 140.106301
    },
    {
        "area_city_code": 12101,
        "area_city_name": "千葉市中央区",
        "area_town_code": "121010036001",
        "area_town_name": "中央一丁目",
        "area_lat": 35.610696,
        "area_lng": 140.122276
    },
    {
        "area_city_code": 12101,
        "area_city_name": "千葉市中央区",
        "area_town_code": "121010036002",
        "area_town_name": "中央二丁目",
        "area_lat": 35.609702,
        "area_lng": 140.122455
    },
    {
        "area_city_code": 12101,
        "area_city_name": "千葉市中央区",
        "area_town_code": "121010036003",
        "area_town_name": "中央三丁目",
        "area_lat": 35.608616,
        "area_lng": 140.122626
    },
    {
        "area_city_code": 12101,
        "area_city_name": "千葉市中央区",
        "area_town_code": "121010036004",
        "area_town_name": "中央四丁目",
        "area_lat": 35.605997,
        "area_lng": 140.122443
    },
    {
        "area_city_code": 12101,
        "area_city_name": "千葉市中央区",
        "area_town_code": "121010037001",
        "area_town_name": "中央港一丁目",
        "area_lat": 35.6018,
        "area_lng": 140.101435
    },
    {
        "area_city_code": 12101,
        "area_city_name": "千葉市中央区",
        "area_town_code": "121010037002",
        "area_town_name": "中央港二丁目",
        "area_lat": 35.597831,
        "area_lng": 140.109845
    },
    {
        "area_city_code": 12101,
        "area_city_name": "千葉市中央区",
        "area_town_code": "121010038001",
        "area_town_name": "椿森一丁目",
        "area_lat": 35.617998,
        "area_lng": 140.120098
    },
    {
        "area_city_code": 12101,
        "area_city_name": "千葉市中央区",
        "area_town_code": "121010038002",
        "area_town_name": "椿森二丁目",
        "area_lat": 35.620179,
        "area_lng": 140.120168
    },
    {
        "area_city_code": 12101,
        "area_city_name": "千葉市中央区",
        "area_town_code": "121010038003",
        "area_town_name": "椿森三丁目",
        "area_lat": 35.622299,
        "area_lng": 140.118458
    },
    {
        "area_city_code": 12101,
        "area_city_name": "千葉市中央区",
        "area_town_code": "121010038004",
        "area_town_name": "椿森四丁目",
        "area_lat": 35.622876,
        "area_lng": 140.122011
    },
    {
        "area_city_code": 12101,
        "area_city_name": "千葉市中央区",
        "area_town_code": "121010038005",
        "area_town_name": "椿森五丁目",
        "area_lat": 35.618604,
        "area_lng": 140.123122
    },
    {
        "area_city_code": 12101,
        "area_city_name": "千葉市中央区",
        "area_town_code": "121010038006",
        "area_town_name": "椿森六丁目",
        "area_lat": 35.62216,
        "area_lng": 140.12401
    },
    {
        "area_city_code": 12101,
        "area_city_name": "千葉市中央区",
        "area_town_code": "121010039000",
        "area_town_name": "鶴沢町",
        "area_lat": 35.610362,
        "area_lng": 140.134001
    },
    {
        "area_city_code": 12101,
        "area_city_name": "千葉市中央区",
        "area_town_code": "121010040000",
        "area_town_name": "出洲港",
        "area_lat": 35.597164,
        "area_lng": 140.114401
    },
    {
        "area_city_code": 12101,
        "area_city_name": "千葉市中央区",
        "area_town_code": "121010041001",
        "area_town_name": "道場北一丁目",
        "area_lat": 35.61446,
        "area_lng": 140.128626
    },
    {
        "area_city_code": 12101,
        "area_city_name": "千葉市中央区",
        "area_town_code": "121010041002",
        "area_town_name": "道場北二丁目",
        "area_lat": 35.615945,
        "area_lng": 140.131706
    },
    {
        "area_city_code": 12101,
        "area_city_name": "千葉市中央区",
        "area_town_code": "121010042000",
        "area_town_name": "道場北町",
        "area_lat": 35.616196,
        "area_lng": 140.132725
    },
    {
        "area_city_code": 12101,
        "area_city_name": "千葉市中央区",
        "area_town_code": "121010043001",
        "area_town_name": "道場南一丁目",
        "area_lat": 35.612615,
        "area_lng": 140.129676
    },
    {
        "area_city_code": 12101,
        "area_city_name": "千葉市中央区",
        "area_town_code": "121010043002",
        "area_town_name": "道場南二丁目",
        "area_lat": 35.613277,
        "area_lng": 140.132957
    },
    {
        "area_city_code": 12101,
        "area_city_name": "千葉市中央区",
        "area_town_code": "121010044000",
        "area_town_name": "問屋町",
        "area_lat": 35.601869,
        "area_lng": 140.111131
    },
    {
        "area_city_code": 12101,
        "area_city_name": "千葉市中央区",
        "area_town_code": "121010045001",
        "area_town_name": "長洲一丁目",
        "area_lat": 35.60265,
        "area_lng": 140.12205
    },
    {
        "area_city_code": 12101,
        "area_city_name": "千葉市中央区",
        "area_town_code": "121010045002",
        "area_town_name": "長洲二丁目",
        "area_lat": 35.600309,
        "area_lng": 140.123918
    },
    {
        "area_city_code": 12101,
        "area_city_name": "千葉市中央区",
        "area_town_code": "121010046000",
        "area_town_name": "新浜町",
        "area_lat": 35.558146,
        "area_lng": 140.111071
    },
    {
        "area_city_code": 12101,
        "area_city_name": "千葉市中央区",
        "area_town_code": "121010047000",
        "area_town_name": "仁戸名町",
        "area_lat": 35.58699,
        "area_lng": 140.160035
    },
    {
        "area_city_code": 12101,
        "area_city_name": "千葉市中央区",
        "area_town_code": "121010048001",
        "area_town_name": "登戸一丁目",
        "area_lat": 35.609533,
        "area_lng": 140.108879
    },
    {
        "area_city_code": 12101,
        "area_city_name": "千葉市中央区",
        "area_town_code": "121010048002",
        "area_town_name": "登戸二丁目",
        "area_lat": 35.611603,
        "area_lng": 140.109035
    },
    {
        "area_city_code": 12101,
        "area_city_name": "千葉市中央区",
        "area_town_code": "121010048003",
        "area_town_name": "登戸三丁目",
        "area_lat": 35.613626,
        "area_lng": 140.104315
    },
    {
        "area_city_code": 12101,
        "area_city_name": "千葉市中央区",
        "area_town_code": "121010048004",
        "area_town_name": "登戸四丁目",
        "area_lat": 35.617429,
        "area_lng": 140.101248
    },
    {
        "area_city_code": 12101,
        "area_city_name": "千葉市中央区",
        "area_town_code": "121010048005",
        "area_town_name": "登戸五丁目",
        "area_lat": 35.619886,
        "area_lng": 140.099251
    },
    {
        "area_city_code": 12101,
        "area_city_name": "千葉市中央区",
        "area_town_code": "121010049000",
        "area_town_name": "花輪町",
        "area_lat": 35.578324,
        "area_lng": 140.157398
    },
    {
        "area_city_code": 12101,
        "area_city_name": "千葉市中央区",
        "area_town_code": "121010050000",
        "area_town_name": "浜野町",
        "area_lat": 35.554622,
        "area_lng": 140.13092
    },
    {
        "area_city_code": 12101,
        "area_city_name": "千葉市中央区",
        "area_town_code": "121010051001",
        "area_town_name": "東千葉一丁目",
        "area_lat": 35.62259,
        "area_lng": 140.125274
    },
    {
        "area_city_code": 12101,
        "area_city_name": "千葉市中央区",
        "area_town_code": "121010051002",
        "area_town_name": "東千葉二丁目",
        "area_lat": 35.622638,
        "area_lng": 140.127587
    },
    {
        "area_city_code": 12101,
        "area_city_name": "千葉市中央区",
        "area_town_code": "121010051003",
        "area_town_name": "東千葉三丁目",
        "area_lat": 35.627217,
        "area_lng": 140.12531
    },
    {
        "area_city_code": 12101,
        "area_city_name": "千葉市中央区",
        "area_town_code": "121010052000",
        "area_town_name": "東本町",
        "area_lat": 35.609984,
        "area_lng": 140.129779
    },
    {
        "area_city_code": 12101,
        "area_city_name": "千葉市中央区",
        "area_town_code": "121010053001",
        "area_town_name": "富士見一丁目",
        "area_lat": 35.612536,
        "area_lng": 140.117217
    },
    {
        "area_city_code": 12101,
        "area_city_name": "千葉市中央区",
        "area_town_code": "121010053002",
        "area_town_name": "富士見二丁目",
        "area_lat": 35.610173,
        "area_lng": 140.117808
    },
    {
        "area_city_code": 12101,
        "area_city_name": "千葉市中央区",
        "area_town_code": "121010054001",
        "area_town_name": "弁天一丁目",
        "area_lat": 35.615829,
        "area_lng": 140.11212
    },
    {
        "area_city_code": 12101,
        "area_city_name": "千葉市中央区",
        "area_town_code": "121010054002",
        "area_town_name": "弁天二丁目",
        "area_lat": 35.615416,
        "area_lng": 140.116478
    },
    {
        "area_city_code": 12101,
        "area_city_name": "千葉市中央区",
        "area_town_code": "121010054003",
        "area_town_name": "弁天三丁目",
        "area_lat": 35.619084,
        "area_lng": 140.114843
    },
    {
        "area_city_code": 12101,
        "area_city_name": "千葉市中央区",
        "area_town_code": "121010054004",
        "area_town_name": "弁天四丁目",
        "area_lat": 35.622454,
        "area_lng": 140.114178
    },
    {
        "area_city_code": 12101,
        "area_city_name": "千葉市中央区",
        "area_town_code": "121010055000",
        "area_town_name": "星久喜町",
        "area_lat": 35.598189,
        "area_lng": 140.151523
    },
    {
        "area_city_code": 12101,
        "area_city_name": "千葉市中央区",
        "area_town_code": "121010056000",
        "area_town_name": "本千葉町",
        "area_lat": 35.606337,
        "area_lng": 140.119561
    },
    {
        "area_city_code": 12101,
        "area_city_name": "千葉市中央区",
        "area_town_code": "121010057001",
        "area_town_name": "本町一丁目",
        "area_lat": 35.61053,
        "area_lng": 140.126323
    },
    {
        "area_city_code": 12101,
        "area_city_name": "千葉市中央区",
        "area_town_code": "121010057002",
        "area_town_name": "本町二丁目",
        "area_lat": 35.608897,
        "area_lng": 140.127656
    },
    {
        "area_city_code": 12101,
        "area_city_name": "千葉市中央区",
        "area_town_code": "121010057003",
        "area_town_name": "本町三丁目",
        "area_lat": 35.607164,
        "area_lng": 140.126553
    },
    {
        "area_city_code": 12101,
        "area_city_name": "千葉市中央区",
        "area_town_code": "121010058000",
        "area_town_name": "松ケ丘町",
        "area_lat": 35.589848,
        "area_lng": 140.149572
    },
    {
        "area_city_code": 12101,
        "area_city_name": "千葉市中央区",
        "area_town_code": "121010059001",
        "area_town_name": "松波一丁目",
        "area_lat": 35.61758,
        "area_lng": 140.109578
    },
    {
        "area_city_code": 12101,
        "area_city_name": "千葉市中央区",
        "area_town_code": "121010059002",
        "area_town_name": "松波二丁目",
        "area_lat": 35.621012,
        "area_lng": 140.106922
    },
    {
        "area_city_code": 12101,
        "area_city_name": "千葉市中央区",
        "area_town_code": "121010059003",
        "area_town_name": "松波三丁目",
        "area_lat": 35.619822,
        "area_lng": 140.109488
    },
    {
        "area_city_code": 12101,
        "area_city_name": "千葉市中央区",
        "area_town_code": "121010059004",
        "area_town_name": "松波四丁目",
        "area_lat": 35.622543,
        "area_lng": 140.110535
    },
    {
        "area_city_code": 12101,
        "area_city_name": "千葉市中央区",
        "area_town_code": "121010060000",
        "area_town_name": "港町",
        "area_lat": 35.599838,
        "area_lng": 140.119684
    },
    {
        "area_city_code": 12101,
        "area_city_name": "千葉市中央区",
        "area_town_code": "121010061000",
        "area_town_name": "南生実町",
        "area_lat": 35.556516,
        "area_lng": 140.141894
    },
    {
        "area_city_code": 12101,
        "area_city_name": "千葉市中央区",
        "area_town_code": "121010062001",
        "area_town_name": "南町一丁目",
        "area_lat": 35.585135,
        "area_lng": 140.131665
    },
    {
        "area_city_code": 12101,
        "area_city_name": "千葉市中央区",
        "area_town_code": "121010062002",
        "area_town_name": "南町二丁目",
        "area_lat": 35.581679,
        "area_lng": 140.133496
    },
    {
        "area_city_code": 12101,
        "area_city_name": "千葉市中央区",
        "area_town_code": "121010062003",
        "area_town_name": "南町三丁目",
        "area_lat": 35.577594,
        "area_lng": 140.135086
    },
    {
        "area_city_code": 12101,
        "area_city_name": "千葉市中央区",
        "area_town_code": "121010064001",
        "area_town_name": "都町一丁目",
        "area_lat": 35.614739,
        "area_lng": 140.139611
    },
    {
        "area_city_code": 12101,
        "area_city_name": "千葉市中央区",
        "area_town_code": "121010064002",
        "area_town_name": "都町二丁目",
        "area_lat": 35.611229,
        "area_lng": 140.140144
    },
    {
        "area_city_code": 12101,
        "area_city_name": "千葉市中央区",
        "area_town_code": "121010064003",
        "area_town_name": "都町三丁目",
        "area_lat": 35.608766,
        "area_lng": 140.139174
    },
    {
        "area_city_code": 12101,
        "area_city_name": "千葉市中央区",
        "area_town_code": "121010064004",
        "area_town_name": "都町四丁目",
        "area_lat": 35.612031,
        "area_lng": 140.144568
    },
    {
        "area_city_code": 12101,
        "area_city_name": "千葉市中央区",
        "area_town_code": "121010064005",
        "area_town_name": "都町五丁目",
        "area_lat": 35.611625,
        "area_lng": 140.148511
    },
    {
        "area_city_code": 12101,
        "area_city_name": "千葉市中央区",
        "area_town_code": "121010064006",
        "area_town_name": "都町六丁目",
        "area_lat": 35.61463,
        "area_lng": 140.146961
    },
    {
        "area_city_code": 12101,
        "area_city_name": "千葉市中央区",
        "area_town_code": "121010064007",
        "area_town_name": "都町七丁目",
        "area_lat": 35.616903,
        "area_lng": 140.147238
    },
    {
        "area_city_code": 12101,
        "area_city_name": "千葉市中央区",
        "area_town_code": "121010064008",
        "area_town_name": "都町八丁目",
        "area_lat": 35.616268,
        "area_lng": 140.152001
    },
    {
        "area_city_code": 12101,
        "area_city_name": "千葉市中央区",
        "area_town_code": "121010065001",
        "area_town_name": "宮崎一丁目",
        "area_lat": 35.586809,
        "area_lng": 140.136156
    },
    {
        "area_city_code": 12101,
        "area_city_name": "千葉市中央区",
        "area_town_code": "121010065002",
        "area_town_name": "宮崎二丁目",
        "area_lat": 35.582541,
        "area_lng": 140.137154
    },
    {
        "area_city_code": 12101,
        "area_city_name": "千葉市中央区",
        "area_town_code": "121010066000",
        "area_town_name": "宮崎町",
        "area_lat": 35.585624,
        "area_lng": 140.144042
    },
    {
        "area_city_code": 12101,
        "area_city_name": "千葉市中央区",
        "area_town_code": "121010067000",
        "area_town_name": "村田町",
        "area_lat": 35.549428,
        "area_lng": 140.129709
    },
    {
        "area_city_code": 12101,
        "area_city_name": "千葉市中央区",
        "area_town_code": "121010068000",
        "area_town_name": "矢作町",
        "area_lat": 35.603647,
        "area_lng": 140.140932
    },
    {
        "area_city_code": 12101,
        "area_city_name": "千葉市中央区",
        "area_town_code": "121010069001",
        "area_town_name": "祐光一丁目",
        "area_lat": 35.616459,
        "area_lng": 140.126823
    },
    {
        "area_city_code": 12101,
        "area_city_name": "千葉市中央区",
        "area_town_code": "121010069002",
        "area_town_name": "祐光二丁目",
        "area_lat": 35.617583,
        "area_lng": 140.12492
    },
    {
        "area_city_code": 12101,
        "area_city_name": "千葉市中央区",
        "area_town_code": "121010069003",
        "area_town_name": "祐光三丁目",
        "area_lat": 35.620422,
        "area_lng": 140.129488
    },
    {
        "area_city_code": 12101,
        "area_city_name": "千葉市中央区",
        "area_town_code": "121010069004",
        "area_town_name": "祐光四丁目",
        "area_lat": 35.618653,
        "area_lng": 140.129943
    },
    {
        "area_city_code": 12101,
        "area_city_name": "千葉市中央区",
        "area_town_code": "121010070001",
        "area_town_name": "若草一丁目",
        "area_lat": 35.575314,
        "area_lng": 140.135406
    },
    {
        "area_city_code": 12102,
        "area_city_name": "千葉市花見川区",
        "area_town_code": "121020001001",
        "area_town_name": "朝日ケ丘一丁目",
        "area_lat": 35.657353,
        "area_lng": 140.091029
    },
    {
        "area_city_code": 12102,
        "area_city_name": "千葉市花見川区",
        "area_town_code": "121020001002",
        "area_town_name": "朝日ケ丘二丁目",
        "area_lat": 35.658,
        "area_lng": 140.085977
    },
    {
        "area_city_code": 12102,
        "area_city_name": "千葉市花見川区",
        "area_town_code": "121020001003",
        "area_town_name": "朝日ケ丘三丁目",
        "area_lat": 35.654954,
        "area_lng": 140.084533
    },
    {
        "area_city_code": 12102,
        "area_city_name": "千葉市花見川区",
        "area_town_code": "121020001004",
        "area_town_name": "朝日ケ丘四丁目",
        "area_lat": 35.657367,
        "area_lng": 140.079641
    },
    {
        "area_city_code": 12102,
        "area_city_name": "千葉市花見川区",
        "area_town_code": "121020001005",
        "area_town_name": "朝日ケ丘五丁目",
        "area_lat": 35.66078,
        "area_lng": 140.083117
    },
    {
        "area_city_code": 12102,
        "area_city_name": "千葉市花見川区",
        "area_town_code": "121020002000",
        "area_town_name": "朝日ケ丘町",
        "area_lat": 35.659133,
        "area_lng": 140.075088
    },
    {
        "area_city_code": 12102,
        "area_city_name": "千葉市花見川区",
        "area_town_code": "121020003000",
        "area_town_name": "天戸町",
        "area_lat": 35.679437,
        "area_lng": 140.090444
    },
    {
        "area_city_code": 12102,
        "area_city_name": "千葉市花見川区",
        "area_town_code": "121020004000",
        "area_town_name": "内山町",
        "area_lat": 35.694142,
        "area_lng": 140.131281
    },
    {
        "area_city_code": 12102,
        "area_city_name": "千葉市花見川区",
        "area_town_code": "121020005000",
        "area_town_name": "宇那谷町",
        "area_lat": 35.685246,
        "area_lng": 140.13696
    },
    {
        "area_city_code": 12102,
        "area_city_name": "千葉市花見川区",
        "area_town_code": "121020006001",
        "area_town_name": "柏井一丁目",
        "area_lat": 35.693576,
        "area_lng": 140.095232
    },
    {
        "area_city_code": 12102,
        "area_city_name": "千葉市花見川区",
        "area_town_code": "121020006004",
        "area_town_name": "柏井四丁目",
        "area_lat": 35.705941,
        "area_lng": 140.104767
    },
    {
        "area_city_code": 12102,
        "area_city_name": "千葉市花見川区",
        "area_town_code": "121020007000",
        "area_town_name": "柏井町",
        "area_lat": 35.693982,
        "area_lng": 140.106096
    },
    {
        "area_city_code": 12102,
        "area_city_name": "千葉市花見川区",
        "area_town_code": "121020008001",
        "area_town_name": "検見川町一丁目",
        "area_lat": 35.6532,
        "area_lng": 140.065796
    },
    {
        "area_city_code": 12102,
        "area_city_name": "千葉市花見川区",
        "area_town_code": "121020008002",
        "area_town_name": "検見川町二丁目",
        "area_lat": 35.650256,
        "area_lng": 140.065006
    },
    {
        "area_city_code": 12102,
        "area_city_name": "千葉市花見川区",
        "area_town_code": "121020008003",
        "area_town_name": "検見川町三丁目",
        "area_lat": 35.648845,
        "area_lng": 140.068878
    },
    {
        "area_city_code": 12102,
        "area_city_name": "千葉市花見川区",
        "area_town_code": "121020008005",
        "area_town_name": "検見川町五丁目",
        "area_lat": 35.645666,
        "area_lng": 140.073886
    },
    {
        "area_city_code": 12102,
        "area_city_name": "千葉市花見川区",
        "area_town_code": "121020009001",
        "area_town_name": "こてはし台一丁目",
        "area_lat": 35.684807,
        "area_lng": 140.124751
    },
    {
        "area_city_code": 12102,
        "area_city_name": "千葉市花見川区",
        "area_town_code": "121020009002",
        "area_town_name": "こてはし台二丁目",
        "area_lat": 35.687193,
        "area_lng": 140.127066
    },
    {
        "area_city_code": 12102,
        "area_city_name": "千葉市花見川区",
        "area_town_code": "121020009003",
        "area_town_name": "こてはし台三丁目",
        "area_lat": 35.684901,
        "area_lng": 140.120327
    },
    {
        "area_city_code": 12102,
        "area_city_name": "千葉市花見川区",
        "area_town_code": "121020009004",
        "area_town_name": "こてはし台四丁目",
        "area_lat": 35.686755,
        "area_lng": 140.118485
    },
    {
        "area_city_code": 12102,
        "area_city_name": "千葉市花見川区",
        "area_town_code": "121020009005",
        "area_town_name": "こてはし台五丁目",
        "area_lat": 35.691324,
        "area_lng": 140.119116
    },
    {
        "area_city_code": 12102,
        "area_city_name": "千葉市花見川区",
        "area_town_code": "121020009006",
        "area_town_name": "こてはし台六丁目",
        "area_lat": 35.695556,
        "area_lng": 140.116821
    },
    {
        "area_city_code": 12102,
        "area_city_name": "千葉市花見川区",
        "area_town_code": "121020010000",
        "area_town_name": "犢橋町",
        "area_lat": 35.671512,
        "area_lng": 140.103499
    },
    {
        "area_city_code": 12102,
        "area_city_name": "千葉市花見川区",
        "area_town_code": "121020011001",
        "area_town_name": "作新台一丁目",
        "area_lat": 35.690921,
        "area_lng": 140.090681
    },
    {
        "area_city_code": 12102,
        "area_city_name": "千葉市花見川区",
        "area_town_code": "121020011002",
        "area_town_name": "作新台二丁目",
        "area_lat": 35.69165,
        "area_lng": 140.087778
    },
    {
        "area_city_code": 12102,
        "area_city_name": "千葉市花見川区",
        "area_town_code": "121020011003",
        "area_town_name": "作新台三丁目",
        "area_lat": 35.692825,
        "area_lng": 140.08454
    },
    {
        "area_city_code": 12102,
        "area_city_name": "千葉市花見川区",
        "area_town_code": "121020011004",
        "area_town_name": "作新台四丁目",
        "area_lat": 35.692032,
        "area_lng": 140.080462
    },
    {
        "area_city_code": 12102,
        "area_city_name": "千葉市花見川区",
        "area_town_code": "121020011005",
        "area_town_name": "作新台五丁目",
        "area_lat": 35.691253,
        "area_lng": 140.082829
    },
    {
        "area_city_code": 12102,
        "area_city_name": "千葉市花見川区",
        "area_town_code": "121020011006",
        "area_town_name": "作新台六丁目",
        "area_lat": 35.68807,
        "area_lng": 140.08772
    },
    {
        "area_city_code": 12102,
        "area_city_name": "千葉市花見川区",
        "area_town_code": "121020011007",
        "area_town_name": "作新台七丁目",
        "area_lat": 35.688236,
        "area_lng": 140.084143
    },
    {
        "area_city_code": 12102,
        "area_city_name": "千葉市花見川区",
        "area_town_code": "121020011008",
        "area_town_name": "作新台八丁目",
        "area_lat": 35.685581,
        "area_lng": 140.086054
    },
    {
        "area_city_code": 12102,
        "area_city_name": "千葉市花見川区",
        "area_town_code": "121020012001",
        "area_town_name": "さつきが丘一丁目",
        "area_lat": 35.66471,
        "area_lng": 140.097179
    },
    {
        "area_city_code": 12102,
        "area_city_name": "千葉市花見川区",
        "area_town_code": "121020012002",
        "area_town_name": "さつきが丘二丁目",
        "area_lat": 35.666536,
        "area_lng": 140.092733
    },
    {
        "area_city_code": 12102,
        "area_city_name": "千葉市花見川区",
        "area_town_code": "121020013000",
        "area_town_name": "三角町",
        "area_lat": 35.676193,
        "area_lng": 140.119632
    },
    {
        "area_city_code": 12102,
        "area_city_name": "千葉市花見川区",
        "area_town_code": "121020014000",
        "area_town_name": "大日町",
        "area_lat": 35.681758,
        "area_lng": 140.131839
    },
    {
        "area_city_code": 12102,
        "area_city_name": "千葉市花見川区",
        "area_town_code": "121020015001",
        "area_town_name": "武石町一丁目",
        "area_lat": 35.668249,
        "area_lng": 140.064907
    },
    {
        "area_city_code": 12102,
        "area_city_name": "千葉市花見川区",
        "area_town_code": "121020015002",
        "area_town_name": "武石町二丁目",
        "area_lat": 35.661579,
        "area_lng": 140.063555
    },
    {
        "area_city_code": 12102,
        "area_city_name": "千葉市花見川区",
        "area_town_code": "121020016000",
        "area_town_name": "千種町",
        "area_lat": 35.679078,
        "area_lng": 140.113948
    },
    {
        "area_city_code": 12102,
        "area_city_name": "千葉市花見川区",
        "area_town_code": "121020017001",
        "area_town_name": "長作台一丁目",
        "area_lat": 35.682049,
        "area_lng": 140.081176
    },
    {
        "area_city_code": 12102,
        "area_city_name": "千葉市花見川区",
        "area_town_code": "121020017002",
        "area_town_name": "長作台二丁目",
        "area_lat": 35.684325,
        "area_lng": 140.08218
    },
    {
        "area_city_code": 12102,
        "area_city_name": "千葉市花見川区",
        "area_town_code": "121020018000",
        "area_town_name": "長作町",
        "area_lat": 35.680375,
        "area_lng": 140.076637
    },
    {
        "area_city_code": 12102,
        "area_city_name": "千葉市花見川区",
        "area_town_code": "121020019000",
        "area_town_name": "浪花町",
        "area_lat": 35.657246,
        "area_lng": 140.06609
    },
    {
        "area_city_code": 12102,
        "area_city_name": "千葉市花見川区",
        "area_town_code": "121020020000",
        "area_town_name": "西小中台",
        "area_lat": 35.651875,
        "area_lng": 140.086981
    },
    {
        "area_city_code": 12102,
        "area_city_name": "千葉市花見川区",
        "area_town_code": "121020021000",
        "area_town_name": "畑町",
        "area_lat": 35.665988,
        "area_lng": 140.081175
    },
    {
        "area_city_code": 12102,
        "area_city_name": "千葉市花見川区",
        "area_town_code": "121020022000",
        "area_town_name": "花島町",
        "area_lat": 35.683415,
        "area_lng": 140.099391
    },
    {
        "area_city_code": 12102,
        "area_city_name": "千葉市花見川区",
        "area_town_code": "121020023001",
        "area_town_name": "花園一丁目",
        "area_lat": 35.65278,
        "area_lng": 140.074943
    },
    {
        "area_city_code": 12102,
        "area_city_name": "千葉市花見川区",
        "area_town_code": "121020023002",
        "area_town_name": "花園二丁目",
        "area_lat": 35.653519,
        "area_lng": 140.069857
    },
    {
        "area_city_code": 12102,
        "area_city_name": "千葉市花見川区",
        "area_town_code": "121020023003",
        "area_town_name": "花園三丁目",
        "area_lat": 35.656769,
        "area_lng": 140.070277
    },
    {
        "area_city_code": 12102,
        "area_city_name": "千葉市花見川区",
        "area_town_code": "121020023004",
        "area_town_name": "花園四丁目",
        "area_lat": 35.655876,
        "area_lng": 140.073337
    },
    {
        "area_city_code": 12102,
        "area_city_name": "千葉市花見川区",
        "area_town_code": "121020023005",
        "area_town_name": "花園五丁目",
        "area_lat": 35.6545,
        "area_lng": 140.076114
    },
    {
        "area_city_code": 12102,
        "area_city_name": "千葉市花見川区",
        "area_town_code": "121020024000",
        "area_town_name": "花園町",
        "area_lat": 35.654927,
        "area_lng": 140.078421
    },
    {
        "area_city_code": 12102,
        "area_city_name": "千葉市花見川区",
        "area_town_code": "121020025000",
        "area_town_name": "花見川",
        "area_lat": 35.689349,
        "area_lng": 140.097052
    },
    {
        "area_city_code": 12102,
        "area_city_name": "千葉市花見川区",
        "area_town_code": "121020026001",
        "area_town_name": "幕張町一丁目",
        "area_lat": 35.66152,
        "area_lng": 140.047314
    },
    {
        "area_city_code": 12102,
        "area_city_name": "千葉市花見川区",
        "area_town_code": "121020026002",
        "area_town_name": "幕張町二丁目",
        "area_lat": 35.66846,
        "area_lng": 140.052893
    },
    {
        "area_city_code": 12102,
        "area_city_name": "千葉市花見川区",
        "area_town_code": "121020026003",
        "area_town_name": "幕張町三丁目",
        "area_lat": 35.667704,
        "area_lng": 140.055182
    },
    {
        "area_city_code": 12102,
        "area_city_name": "千葉市花見川区",
        "area_town_code": "121020026004",
        "area_town_name": "幕張町四丁目",
        "area_lat": 35.667071,
        "area_lng": 140.05792
    },
    {
        "area_city_code": 12102,
        "area_city_name": "千葉市花見川区",
        "area_town_code": "121020026005",
        "area_town_name": "幕張町五丁目",
        "area_lat": 35.655067,
        "area_lng": 140.056351
    },
    {
        "area_city_code": 12102,
        "area_city_name": "千葉市花見川区",
        "area_town_code": "121020026006",
        "area_town_name": "幕張町六丁目",
        "area_lat": 35.659551,
        "area_lng": 140.060504
    },
    {
        "area_city_code": 12102,
        "area_city_name": "千葉市花見川区",
        "area_town_code": "121020027001",
        "area_town_name": "幕張本郷一丁目",
        "area_lat": 35.671358,
        "area_lng": 140.038834
    },
    {
        "area_city_code": 12102,
        "area_city_name": "千葉市花見川区",
        "area_town_code": "121020027002",
        "area_town_name": "幕張本郷二丁目",
        "area_lat": 35.668815,
        "area_lng": 140.041948
    },
    {
        "area_city_code": 12102,
        "area_city_name": "千葉市花見川区",
        "area_town_code": "121020027003",
        "area_town_name": "幕張本郷三丁目",
        "area_lat": 35.666659,
        "area_lng": 140.046105
    },
    {
        "area_city_code": 12102,
        "area_city_name": "千葉市花見川区",
        "area_town_code": "121020027004",
        "area_town_name": "幕張本郷四丁目",
        "area_lat": 35.668345,
        "area_lng": 140.049815
    },
    {
        "area_city_code": 12102,
        "area_city_name": "千葉市花見川区",
        "area_town_code": "121020027005",
        "area_town_name": "幕張本郷五丁目",
        "area_lat": 35.672681,
        "area_lng": 140.045584
    },
    {
        "area_city_code": 12102,
        "area_city_name": "千葉市花見川区",
        "area_town_code": "121020027006",
        "area_town_name": "幕張本郷六丁目",
        "area_lat": 35.675203,
        "area_lng": 140.04283
    },
    {
        "area_city_code": 12102,
        "area_city_name": "千葉市花見川区",
        "area_town_code": "121020027007",
        "area_town_name": "幕張本郷七丁目",
        "area_lat": 35.674729,
        "area_lng": 140.048723
    },
    {
        "area_city_code": 12102,
        "area_city_name": "千葉市花見川区",
        "area_town_code": "121020028001",
        "area_town_name": "瑞穂一丁目",
        "area_lat": 35.665484,
        "area_lng": 140.069749
    },
    {
        "area_city_code": 12102,
        "area_city_name": "千葉市花見川区",
        "area_town_code": "121020028002",
        "area_town_name": "瑞穂二丁目",
        "area_lat": 35.662708,
        "area_lng": 140.071222
    },
    {
        "area_city_code": 12102,
        "area_city_name": "千葉市花見川区",
        "area_town_code": "121020028003",
        "area_town_name": "瑞穂三丁目",
        "area_lat": 35.661313,
        "area_lng": 140.069039
    },
    {
        "area_city_code": 12102,
        "area_city_name": "千葉市花見川区",
        "area_town_code": "121020029001",
        "area_town_name": "南花園一丁目",
        "area_lat": 35.650172,
        "area_lng": 140.077982
    },
    {
        "area_city_code": 12102,
        "area_city_name": "千葉市花見川区",
        "area_town_code": "121020029002",
        "area_town_name": "南花園二丁目",
        "area_lat": 35.651626,
        "area_lng": 140.071599
    },
    {
        "area_city_code": 12102,
        "area_city_name": "千葉市花見川区",
        "area_town_code": "121020030001",
        "area_town_name": "み春野一丁目",
        "area_lat": 35.691966,
        "area_lng": 140.137438
    },
    {
        "area_city_code": 12102,
        "area_city_name": "千葉市花見川区",
        "area_town_code": "121020030002",
        "area_town_name": "み春野二丁目",
        "area_lat": 35.690813,
        "area_lng": 140.139527
    },
    {
        "area_city_code": 12102,
        "area_city_name": "千葉市花見川区",
        "area_town_code": "121020030003",
        "area_town_name": "み春野三丁目",
        "area_lat": 35.695407,
        "area_lng": 140.138075
    },
    {
        "area_city_code": 12102,
        "area_city_name": "千葉市花見川区",
        "area_town_code": "121020031001",
        "area_town_name": "宮野木台一丁目",
        "area_lat": 35.654079,
        "area_lng": 140.090495
    },
    {
        "area_city_code": 12102,
        "area_city_name": "千葉市花見川区",
        "area_town_code": "121020031002",
        "area_town_name": "宮野木台二丁目",
        "area_lat": 35.657246,
        "area_lng": 140.094039
    },
    {
        "area_city_code": 12102,
        "area_city_name": "千葉市花見川区",
        "area_town_code": "121020031003",
        "area_town_name": "宮野木台三丁目",
        "area_lat": 35.659477,
        "area_lng": 140.094237
    },
    {
        "area_city_code": 12102,
        "area_city_name": "千葉市花見川区",
        "area_town_code": "121020031004",
        "area_town_name": "宮野木台四丁目",
        "area_lat": 35.658517,
        "area_lng": 140.096891
    },
    {
        "area_city_code": 12102,
        "area_city_name": "千葉市花見川区",
        "area_town_code": "121020032000",
        "area_town_name": "横戸台",
        "area_lat": 35.698163,
        "area_lng": 140.113465
    },
    {
        "area_city_code": 12102,
        "area_city_name": "千葉市花見川区",
        "area_town_code": "121020033000",
        "area_town_name": "横戸町",
        "area_lat": 35.700176,
        "area_lng": 140.118907
    },
    {
        "area_city_code": 12103,
        "area_city_name": "千葉市稲毛区",
        "area_town_code": "121030001001",
        "area_town_name": "穴川一丁目",
        "area_lat": 35.632655,
        "area_lng": 140.105346
    },
    {
        "area_city_code": 12103,
        "area_city_name": "千葉市稲毛区",
        "area_town_code": "121030001002",
        "area_town_name": "穴川二丁目",
        "area_lat": 35.63413,
        "area_lng": 140.107844
    },
    {
        "area_city_code": 12103,
        "area_city_name": "千葉市稲毛区",
        "area_town_code": "121030001003",
        "area_town_name": "穴川三丁目",
        "area_lat": 35.635939,
        "area_lng": 140.110364
    },
    {
        "area_city_code": 12103,
        "area_city_name": "千葉市稲毛区",
        "area_town_code": "121030001004",
        "area_town_name": "穴川四丁目",
        "area_lat": 35.635962,
        "area_lng": 140.103167
    },
    {
        "area_city_code": 12103,
        "area_city_name": "千葉市稲毛区",
        "area_town_code": "121030002000",
        "area_town_name": "穴川町",
        "area_lat": 35.638495,
        "area_lng": 140.108422
    },
    {
        "area_city_code": 12103,
        "area_city_name": "千葉市稲毛区",
        "area_town_code": "121030003000",
        "area_town_name": "あやめ台",
        "area_lat": 35.649049,
        "area_lng": 140.11339
    },
    {
        "area_city_code": 12103,
        "area_city_name": "千葉市稲毛区",
        "area_town_code": "121030004000",
        "area_town_name": "稲丘町",
        "area_lat": 35.632044,
        "area_lng": 140.087828
    },
    {
        "area_city_code": 12103,
        "area_city_name": "千葉市稲毛区",
        "area_town_code": "121030005001",
        "area_town_name": "稲毛一丁目",
        "area_lat": 35.635198,
        "area_lng": 140.083994
    },
    {
        "area_city_code": 12103,
        "area_city_name": "千葉市稲毛区",
        "area_town_code": "121030005002",
        "area_town_name": "稲毛二丁目",
        "area_lat": 35.638034,
        "area_lng": 140.080052
    },
    {
        "area_city_code": 12103,
        "area_city_name": "千葉市稲毛区",
        "area_town_code": "121030005003",
        "area_town_name": "稲毛三丁目",
        "area_lat": 35.63907,
        "area_lng": 140.08336
    },
    {
        "area_city_code": 12103,
        "area_city_name": "千葉市稲毛区",
        "area_town_code": "121030006000",
        "area_town_name": "稲毛台町",
        "area_lat": 35.633293,
        "area_lng": 140.093231
    },
    {
        "area_city_code": 12103,
        "area_city_name": "千葉市稲毛区",
        "area_town_code": "121030007004",
        "area_town_name": "稲毛町四丁目",
        "area_lat": 35.646733,
        "area_lng": 140.084948
    },
    {
        "area_city_code": 12103,
        "area_city_name": "千葉市稲毛区",
        "area_town_code": "121030007005",
        "area_town_name": "稲毛町五丁目",
        "area_lat": 35.643421,
        "area_lng": 140.079951
    },
    {
        "area_city_code": 12103,
        "area_city_name": "千葉市稲毛区",
        "area_town_code": "121030008001",
        "area_town_name": "稲毛東一丁目",
        "area_lat": 35.633309,
        "area_lng": 140.089549
    },
    {
        "area_city_code": 12103,
        "area_city_name": "千葉市稲毛区",
        "area_town_code": "121030008002",
        "area_town_name": "稲毛東二丁目",
        "area_lat": 35.636619,
        "area_lng": 140.087079
    },
    {
        "area_city_code": 12103,
        "area_city_name": "千葉市稲毛区",
        "area_town_code": "121030008003",
        "area_town_name": "稲毛東三丁目",
        "area_lat": 35.636269,
        "area_lng": 140.091031
    },
    {
        "area_city_code": 12103,
        "area_city_name": "千葉市稲毛区",
        "area_town_code": "121030008004",
        "area_town_name": "稲毛東四丁目",
        "area_lat": 35.640425,
        "area_lng": 140.089367
    },
    {
        "area_city_code": 12103,
        "area_city_name": "千葉市稲毛区",
        "area_town_code": "121030008005",
        "area_town_name": "稲毛東五丁目",
        "area_lat": 35.64005,
        "area_lng": 140.086828
    },
    {
        "area_city_code": 12103,
        "area_city_name": "千葉市稲毛区",
        "area_town_code": "121030008006",
        "area_town_name": "稲毛東六丁目",
        "area_lat": 35.643897,
        "area_lng": 140.086264
    },
    {
        "area_city_code": 12103,
        "area_city_name": "千葉市稲毛区",
        "area_town_code": "121030009000",
        "area_town_name": "柏台",
        "area_lat": 35.65172,
        "area_lng": 140.109707
    },
    {
        "area_city_code": 12103,
        "area_city_name": "千葉市稲毛区",
        "area_town_code": "121030010001",
        "area_town_name": "黒砂一丁目",
        "area_lat": 35.625194,
        "area_lng": 140.095355
    },
    {
        "area_city_code": 12103,
        "area_city_name": "千葉市稲毛区",
        "area_town_code": "121030010002",
        "area_town_name": "黒砂二丁目",
        "area_lat": 35.626213,
        "area_lng": 140.092942
    },
    {
        "area_city_code": 12103,
        "area_city_name": "千葉市稲毛区",
        "area_town_code": "121030010003",
        "area_town_name": "黒砂三丁目",
        "area_lat": 35.629073,
        "area_lng": 140.092724
    },
    {
        "area_city_code": 12103,
        "area_city_name": "千葉市稲毛区",
        "area_town_code": "121030010004",
        "area_town_name": "黒砂四丁目",
        "area_lat": 35.629895,
        "area_lng": 140.090108
    },
    {
        "area_city_code": 12103,
        "area_city_name": "千葉市稲毛区",
        "area_town_code": "121030011001",
        "area_town_name": "黒砂台一丁目",
        "area_lat": 35.628455,
        "area_lng": 140.096804
    },
    {
        "area_city_code": 12103,
        "area_city_name": "千葉市稲毛区",
        "area_town_code": "121030011002",
        "area_town_name": "黒砂台二丁目",
        "area_lat": 35.630793,
        "area_lng": 140.09494
    },
    {
        "area_city_code": 12103,
        "area_city_name": "千葉市稲毛区",
        "area_town_code": "121030011003",
        "area_town_name": "黒砂台三丁目",
        "area_lat": 35.630392,
        "area_lng": 140.098074
    },
    {
        "area_city_code": 12103,
        "area_city_name": "千葉市稲毛区",
        "area_town_code": "121030012001",
        "area_town_name": "小仲台一丁目",
        "area_lat": 35.634339,
        "area_lng": 140.0965
    },
    {
        "area_city_code": 12103,
        "area_city_name": "千葉市稲毛区",
        "area_town_code": "121030012002",
        "area_town_name": "小仲台二丁目",
        "area_lat": 35.637111,
        "area_lng": 140.096136
    },
    {
        "area_city_code": 12103,
        "area_city_name": "千葉市稲毛区",
        "area_town_code": "121030012003",
        "area_town_name": "小仲台三丁目",
        "area_lat": 35.637264,
        "area_lng": 140.099084
    },
    {
        "area_city_code": 12103,
        "area_city_name": "千葉市稲毛区",
        "area_town_code": "121030012004",
        "area_town_name": "小仲台四丁目",
        "area_lat": 35.638084,
        "area_lng": 140.101835
    },
    {
        "area_city_code": 12103,
        "area_city_name": "千葉市稲毛区",
        "area_town_code": "121030012005",
        "area_town_name": "小仲台五丁目",
        "area_lat": 35.64077,
        "area_lng": 140.099331
    },
    {
        "area_city_code": 12103,
        "area_city_name": "千葉市稲毛区",
        "area_town_code": "121030012006",
        "area_town_name": "小仲台六丁目",
        "area_lat": 35.640425,
        "area_lng": 140.093637
    },
    {
        "area_city_code": 12103,
        "area_city_name": "千葉市稲毛区",
        "area_town_code": "121030012007",
        "area_town_name": "小仲台七丁目",
        "area_lat": 35.642791,
        "area_lng": 140.091535
    },
    {
        "area_city_code": 12103,
        "area_city_name": "千葉市稲毛区",
        "area_town_code": "121030012008",
        "area_town_name": "小仲台八丁目",
        "area_lat": 35.646524,
        "area_lng": 140.088233
    },
    {
        "area_city_code": 12103,
        "area_city_name": "千葉市稲毛区",
        "area_town_code": "121030012009",
        "area_town_name": "小仲台九丁目",
        "area_lat": 35.645463,
        "area_lng": 140.098793
    },
    {
        "area_city_code": 12103,
        "area_city_name": "千葉市稲毛区",
        "area_town_code": "121030013000",
        "area_town_name": "小中台町",
        "area_lat": 35.648945,
        "area_lng": 140.093429
    },
    {
        "area_city_code": 12103,
        "area_city_name": "千葉市稲毛区",
        "area_town_code": "121030014000",
        "area_town_name": "小深町",
        "area_lat": 35.659595,
        "area_lng": 140.150188
    },
    {
        "area_city_code": 12103,
        "area_city_name": "千葉市稲毛区",
        "area_town_code": "121030015001",
        "area_town_name": "作草部一丁目",
        "area_lat": 35.628254,
        "area_lng": 140.116731
    },
    {
        "area_city_code": 12103,
        "area_city_name": "千葉市稲毛区",
        "area_town_code": "121030015002",
        "area_town_name": "作草部二丁目",
        "area_lat": 35.626552,
        "area_lng": 140.117624
    },
    {
        "area_city_code": 12103,
        "area_city_name": "千葉市稲毛区",
        "area_town_code": "121030016000",
        "area_town_name": "作草部町",
        "area_lat": 35.628792,
        "area_lng": 140.121948
    },
    {
        "area_city_code": 12103,
        "area_city_name": "千葉市稲毛区",
        "area_town_code": "121030017000",
        "area_town_name": "山王町",
        "area_lat": 35.663874,
        "area_lng": 140.140984
    },
    {
        "area_city_code": 12103,
        "area_city_name": "千葉市稲毛区",
        "area_town_code": "121030018000",
        "area_town_name": "園生町",
        "area_lat": 35.64443,
        "area_lng": 140.107847
    },
    {
        "area_city_code": 12103,
        "area_city_name": "千葉市稲毛区",
        "area_town_code": "121030019001",
        "area_town_name": "千草台一丁目",
        "area_lat": 35.634442,
        "area_lng": 140.118593
    },
    {
        "area_city_code": 12103,
        "area_city_name": "千葉市稲毛区",
        "area_town_code": "121030019002",
        "area_town_name": "千草台二丁目",
        "area_lat": 35.635107,
        "area_lng": 140.12085
    },
    {
        "area_city_code": 12103,
        "area_city_name": "千葉市稲毛区",
        "area_town_code": "121030020001",
        "area_town_name": "天台一丁目",
        "area_lat": 35.631787,
        "area_lng": 140.114572
    },
    {
        "area_city_code": 12103,
        "area_city_name": "千葉市稲毛区",
        "area_town_code": "121030020002",
        "area_town_name": "天台二丁目",
        "area_lat": 35.63507,
        "area_lng": 140.113567
    },
    {
        "area_city_code": 12103,
        "area_city_name": "千葉市稲毛区",
        "area_town_code": "121030020003",
        "area_town_name": "天台三丁目",
        "area_lat": 35.632899,
        "area_lng": 140.117151
    },
    {
        "area_city_code": 12103,
        "area_city_name": "千葉市稲毛区",
        "area_town_code": "121030020004",
        "area_town_name": "天台四丁目",
        "area_lat": 35.636652,
        "area_lng": 140.115035
    },
    {
        "area_city_code": 12103,
        "area_city_name": "千葉市稲毛区",
        "area_town_code": "121030020005",
        "area_town_name": "天台五丁目",
        "area_lat": 35.639089,
        "area_lng": 140.11463
    },
    {
        "area_city_code": 12103,
        "area_city_name": "千葉市稲毛区",
        "area_town_code": "121030020006",
        "area_town_name": "天台六丁目",
        "area_lat": 35.641107,
        "area_lng": 140.116053
    },
    {
        "area_city_code": 12103,
        "area_city_name": "千葉市稲毛区",
        "area_town_code": "121030021000",
        "area_town_name": "天台町",
        "area_lat": 35.647909,
        "area_lng": 140.12032
    },
    {
        "area_city_code": 12103,
        "area_city_name": "千葉市稲毛区",
        "area_town_code": "121030022001",
        "area_town_name": "轟町一丁目",
        "area_lat": 35.625435,
        "area_lng": 140.110135
    },
    {
        "area_city_code": 12103,
        "area_city_name": "千葉市稲毛区",
        "area_town_code": "121030022002",
        "area_town_name": "轟町二丁目",
        "area_lat": 35.629508,
        "area_lng": 140.106583
    },
    {
        "area_city_code": 12103,
        "area_city_name": "千葉市稲毛区",
        "area_town_code": "121030022003",
        "area_town_name": "轟町三丁目",
        "area_lat": 35.62973,
        "area_lng": 140.109148
    },
    {
        "area_city_code": 12103,
        "area_city_name": "千葉市稲毛区",
        "area_town_code": "121030022004",
        "area_town_name": "轟町四丁目",
        "area_lat": 35.626446,
        "area_lng": 140.113164
    },
    {
        "area_city_code": 12103,
        "area_city_name": "千葉市稲毛区",
        "area_town_code": "121030022005",
        "area_town_name": "轟町五丁目",
        "area_lat": 35.630313,
        "area_lng": 140.111797
    },
    {
        "area_city_code": 12103,
        "area_city_name": "千葉市稲毛区",
        "area_town_code": "121030023000",
        "area_town_name": "長沼町",
        "area_lat": 35.659928,
        "area_lng": 140.118865
    },
    {
        "area_city_code": 12103,
        "area_city_name": "千葉市稲毛区",
        "area_town_code": "121030024000",
        "area_town_name": "長沼原町",
        "area_lat": 35.668516,
        "area_lng": 140.130186
    },
    {
        "area_city_code": 12103,
        "area_city_name": "千葉市稲毛区",
        "area_town_code": "121030025000",
        "area_town_name": "萩台町",
        "area_lat": 35.642545,
        "area_lng": 140.122777
    },
    {
        "area_city_code": 12103,
        "area_city_name": "千葉市稲毛区",
        "area_town_code": "121030026001",
        "area_town_name": "緑町一丁目",
        "area_lat": 35.624943,
        "area_lng": 140.099317
    },
    {
        "area_city_code": 12103,
        "area_city_name": "千葉市稲毛区",
        "area_town_code": "121030026002",
        "area_town_name": "緑町二丁目",
        "area_lat": 35.622807,
        "area_lng": 140.096793
    },
    {
        "area_city_code": 12103,
        "area_city_name": "千葉市稲毛区",
        "area_town_code": "121030027000",
        "area_town_name": "宮野木町",
        "area_lat": 35.656163,
        "area_lng": 140.103796
    },
    {
        "area_city_code": 12103,
        "area_city_name": "千葉市稲毛区",
        "area_town_code": "121030028000",
        "area_town_name": "弥生町",
        "area_lat": 35.627767,
        "area_lng": 140.103344
    },
    {
        "area_city_code": 12103,
        "area_city_name": "千葉市稲毛区",
        "area_town_code": "121030029000",
        "area_town_name": "六方町",
        "area_lat": 35.656988,
        "area_lng": 140.139464
    },
    {
        "area_city_code": 12104,
        "area_city_name": "千葉市若葉区",
        "area_town_code": "121040001000",
        "area_town_name": "愛生町",
        "area_lat": 35.653386,
        "area_lng": 140.1345
    },
    {
        "area_city_code": 12104,
        "area_city_name": "千葉市若葉区",
        "area_town_code": "121040002000",
        "area_town_name": "五十土町",
        "area_lat": 35.57982,
        "area_lng": 140.216771
    },
    {
        "area_city_code": 12104,
        "area_city_name": "千葉市若葉区",
        "area_town_code": "121040003000",
        "area_town_name": "和泉町",
        "area_lat": 35.57746,
        "area_lng": 140.251817
    },
    {
        "area_city_code": 12104,
        "area_city_name": "千葉市若葉区",
        "area_town_code": "121040004000",
        "area_town_name": "大井戸町",
        "area_lat": 35.628542,
        "area_lng": 140.214336
    },
    {
        "area_city_code": 12104,
        "area_city_name": "千葉市若葉区",
        "area_town_code": "121040005000",
        "area_town_name": "大草町",
        "area_lat": 35.610372,
        "area_lng": 140.190813
    },
    {
        "area_city_code": 12104,
        "area_city_name": "千葉市若葉区",
        "area_town_code": "121040006000",
        "area_town_name": "太田町",
        "area_lat": 35.607491,
        "area_lng": 140.176235
    },
    {
        "area_city_code": 12104,
        "area_city_name": "千葉市若葉区",
        "area_town_code": "121040007000",
        "area_town_name": "大広町",
        "area_lat": 35.577516,
        "area_lng": 140.207637
    },
    {
        "area_city_code": 12104,
        "area_city_name": "千葉市若葉区",
        "area_town_code": "121040008001",
        "area_town_name": "大宮台一丁目",
        "area_lat": 35.594,
        "area_lng": 140.184359
    },
    {
        "area_city_code": 12104,
        "area_city_name": "千葉市若葉区",
        "area_town_code": "121040008002",
        "area_town_name": "大宮台二丁目",
        "area_lat": 35.589974,
        "area_lng": 140.183717
    },
    {
        "area_city_code": 12104,
        "area_city_name": "千葉市若葉区",
        "area_town_code": "121040008003",
        "area_town_name": "大宮台三丁目",
        "area_lat": 35.589295,
        "area_lng": 140.180255
    },
    {
        "area_city_code": 12104,
        "area_city_name": "千葉市若葉区",
        "area_town_code": "121040008004",
        "area_town_name": "大宮台四丁目",
        "area_lat": 35.591776,
        "area_lng": 140.181013
    },
    {
        "area_city_code": 12104,
        "area_city_name": "千葉市若葉区",
        "area_town_code": "121040008005",
        "area_town_name": "大宮台五丁目",
        "area_lat": 35.593863,
        "area_lng": 140.178587
    },
    {
        "area_city_code": 12104,
        "area_city_name": "千葉市若葉区",
        "area_town_code": "121040008006",
        "area_town_name": "大宮台六丁目",
        "area_lat": 35.594769,
        "area_lng": 140.181665
    },
    {
        "area_city_code": 12104,
        "area_city_name": "千葉市若葉区",
        "area_town_code": "121040008007",
        "area_town_name": "大宮台七丁目",
        "area_lat": 35.598705,
        "area_lng": 140.182565
    },
    {
        "area_city_code": 12104,
        "area_city_name": "千葉市若葉区",
        "area_town_code": "121040009000",
        "area_town_name": "大宮町",
        "area_lat": 35.594311,
        "area_lng": 140.170521
    },
    {
        "area_city_code": 12104,
        "area_city_name": "千葉市若葉区",
        "area_town_code": "121040010001",
        "area_town_name": "小倉台一丁目",
        "area_lat": 35.628562,
        "area_lng": 140.169397
    },
    {
        "area_city_code": 12104,
        "area_city_name": "千葉市若葉区",
        "area_town_code": "121040010002",
        "area_town_name": "小倉台二丁目",
        "area_lat": 35.625517,
        "area_lng": 140.170951
    },
    {
        "area_city_code": 12104,
        "area_city_name": "千葉市若葉区",
        "area_town_code": "121040010003",
        "area_town_name": "小倉台三丁目",
        "area_lat": 35.626758,
        "area_lng": 140.174295
    },
    {
        "area_city_code": 12104,
        "area_city_name": "千葉市若葉区",
        "area_town_code": "121040010004",
        "area_town_name": "小倉台四丁目",
        "area_lat": 35.629717,
        "area_lng": 140.171433
    },
    {
        "area_city_code": 12104,
        "area_city_name": "千葉市若葉区",
        "area_town_code": "121040010005",
        "area_town_name": "小倉台五丁目",
        "area_lat": 35.630377,
        "area_lng": 140.17426
    },
    {
        "area_city_code": 12104,
        "area_city_name": "千葉市若葉区",
        "area_town_code": "121040010006",
        "area_town_name": "小倉台六丁目",
        "area_lat": 35.630095,
        "area_lng": 140.17853
    },
    {
        "area_city_code": 12104,
        "area_city_name": "千葉市若葉区",
        "area_town_code": "121040010007",
        "area_town_name": "小倉台七丁目",
        "area_lat": 35.627149,
        "area_lng": 140.178524
    },
    {
        "area_city_code": 12104,
        "area_city_name": "千葉市若葉区",
        "area_town_code": "121040011000",
        "area_town_name": "小倉町",
        "area_lat": 35.628047,
        "area_lng": 140.167055
    },
    {
        "area_city_code": 12104,
        "area_city_name": "千葉市若葉区",
        "area_town_code": "121040012001",
        "area_town_name": "御成台一丁目",
        "area_lat": 35.626693,
        "area_lng": 140.194365
    },
    {
        "area_city_code": 12104,
        "area_city_name": "千葉市若葉区",
        "area_town_code": "121040012002",
        "area_town_name": "御成台二丁目",
        "area_lat": 35.631247,
        "area_lng": 140.197021
    },
    {
        "area_city_code": 12104,
        "area_city_name": "千葉市若葉区",
        "area_town_code": "121040012003",
        "area_town_name": "御成台三丁目",
        "area_lat": 35.635123,
        "area_lng": 140.201595
    },
    {
        "area_city_code": 12104,
        "area_city_name": "千葉市若葉区",
        "area_town_code": "121040012004",
        "area_town_name": "御成台四丁目",
        "area_lat": 35.637166,
        "area_lng": 140.203966
    },
    {
        "area_city_code": 12104,
        "area_city_name": "千葉市若葉区",
        "area_town_code": "121040013000",
        "area_town_name": "小間子町",
        "area_lat": 35.616718,
        "area_lng": 140.258343
    },
    {
        "area_city_code": 12104,
        "area_city_name": "千葉市若葉区",
        "area_town_code": "121040014001",
        "area_town_name": "貝塚一丁目",
        "area_lat": 35.625176,
        "area_lng": 140.152598
    },
    {
        "area_city_code": 12104,
        "area_city_name": "千葉市若葉区",
        "area_town_code": "121040014002",
        "area_town_name": "貝塚二丁目",
        "area_lat": 35.631045,
        "area_lng": 140.151752
    },
    {
        "area_city_code": 12104,
        "area_city_name": "千葉市若葉区",
        "area_town_code": "121040015000",
        "area_town_name": "貝塚町",
        "area_lat": 35.622136,
        "area_lng": 140.146966
    },
    {
        "area_city_code": 12104,
        "area_city_name": "千葉市若葉区",
        "area_town_code": "121040016000",
        "area_town_name": "加曽利町",
        "area_lat": 35.613823,
        "area_lng": 140.162961
    },
    {
        "area_city_code": 12104,
        "area_city_name": "千葉市若葉区",
        "area_town_code": "121040017000",
        "area_town_name": "金親町",
        "area_lat": 35.619492,
        "area_lng": 140.205292
    },
    {
        "area_city_code": 12104,
        "area_city_name": "千葉市若葉区",
        "area_town_code": "121040018000",
        "area_town_name": "上泉町",
        "area_lat": 35.623951,
        "area_lng": 140.237385
    },
    {
        "area_city_code": 12104,
        "area_city_name": "千葉市若葉区",
        "area_town_code": "121040019000",
        "area_town_name": "川井町",
        "area_lat": 35.587013,
        "area_lng": 140.219072
    },
    {
        "area_city_code": 12104,
        "area_city_name": "千葉市若葉区",
        "area_town_code": "121040020000",
        "area_town_name": "北大宮台",
        "area_lat": 35.599467,
        "area_lng": 140.17962
    },
    {
        "area_city_code": 12104,
        "area_city_name": "千葉市若葉区",
        "area_town_code": "121040021000",
        "area_town_name": "北谷津町",
        "area_lat": 35.607637,
        "area_lng": 140.201247
    },
    {
        "area_city_code": 12104,
        "area_city_name": "千葉市若葉区",
        "area_town_code": "121040022000",
        "area_town_name": "古泉町",
        "area_lat": 35.593354,
        "area_lng": 140.242811
    },
    {
        "area_city_code": 12104,
        "area_city_name": "千葉市若葉区",
        "area_town_code": "121040023000",
        "area_town_name": "御殿町",
        "area_lat": 35.611614,
        "area_lng": 140.21509
    },
    {
        "area_city_code": 12104,
        "area_city_name": "千葉市若葉区",
        "area_town_code": "121040024000",
        "area_town_name": "坂月町",
        "area_lat": 35.612698,
        "area_lng": 140.179318
    },
    {
        "area_city_code": 12104,
        "area_city_name": "千葉市若葉区",
        "area_town_code": "121040025001",
        "area_town_name": "桜木一丁目",
        "area_lat": 35.619555,
        "area_lng": 140.156091
    },
    {
        "area_city_code": 12104,
        "area_city_name": "千葉市若葉区",
        "area_town_code": "121040025002",
        "area_town_name": "桜木二丁目",
        "area_lat": 35.620848,
        "area_lng": 140.16332
    },
    {
        "area_city_code": 12104,
        "area_city_name": "千葉市若葉区",
        "area_town_code": "121040025003",
        "area_town_name": "桜木三丁目",
        "area_lat": 35.623348,
        "area_lng": 140.16031
    },
    {
        "area_city_code": 12104,
        "area_city_name": "千葉市若葉区",
        "area_town_code": "121040025004",
        "area_town_name": "桜木四丁目",
        "area_lat": 35.624332,
        "area_lng": 140.156771
    },
    {
        "area_city_code": 12104,
        "area_city_name": "千葉市若葉区",
        "area_town_code": "121040025005",
        "area_town_name": "桜木五丁目",
        "area_lat": 35.624894,
        "area_lng": 140.154775
    },
    {
        "area_city_code": 12104,
        "area_city_name": "千葉市若葉区",
        "area_town_code": "121040025006",
        "area_town_name": "桜木六丁目",
        "area_lat": 35.629953,
        "area_lng": 140.156187
    },
    {
        "area_city_code": 12104,
        "area_city_name": "千葉市若葉区",
        "area_town_code": "121040025007",
        "area_town_name": "桜木七丁目",
        "area_lat": 35.629077,
        "area_lng": 140.160038
    },
    {
        "area_city_code": 12104,
        "area_city_name": "千葉市若葉区",
        "area_town_code": "121040025008",
        "area_town_name": "桜木八丁目",
        "area_lat": 35.626496,
        "area_lng": 140.162667
    },
    {
        "area_city_code": 12104,
        "area_city_name": "千葉市若葉区",
        "area_town_code": "121040026001",
        "area_town_name": "桜木北一丁目",
        "area_lat": 35.630354,
        "area_lng": 140.164353
    },
    {
        "area_city_code": 12104,
        "area_city_name": "千葉市若葉区",
        "area_town_code": "121040026002",
        "area_town_name": "桜木北二丁目",
        "area_lat": 35.634764,
        "area_lng": 140.156782
    },
    {
        "area_city_code": 12104,
        "area_city_name": "千葉市若葉区",
        "area_town_code": "121040026003",
        "area_town_name": "桜木北三丁目",
        "area_lat": 35.636754,
        "area_lng": 140.159682
    },
    {
        "area_city_code": 12104,
        "area_city_name": "千葉市若葉区",
        "area_town_code": "121040027000",
        "area_town_name": "更科町",
        "area_lat": 35.617484,
        "area_lng": 140.228572
    },
    {
        "area_city_code": 12104,
        "area_city_name": "千葉市若葉区",
        "area_town_code": "121040028000",
        "area_town_name": "佐和町",
        "area_lat": 35.584932,
        "area_lng": 140.206763
    },
    {
        "area_city_code": 12104,
        "area_city_name": "千葉市若葉区",
        "area_town_code": "121040029000",
        "area_town_name": "下泉町",
        "area_lat": 35.630164,
        "area_lng": 140.228055
    },
    {
        "area_city_code": 12104,
        "area_city_name": "千葉市若葉区",
        "area_town_code": "121040030000",
        "area_town_name": "下田町",
        "area_lat": 35.634334,
        "area_lng": 140.211324
    },
    {
        "area_city_code": 12104,
        "area_city_name": "千葉市若葉区",
        "area_town_code": "121040031000",
        "area_town_name": "高品町",
        "area_lat": 35.625841,
        "area_lng": 140.137815
    },
    {
        "area_city_code": 12104,
        "area_city_name": "千葉市若葉区",
        "area_town_code": "121040032000",
        "area_town_name": "高根町",
        "area_lat": 35.593785,
        "area_lng": 140.214519
    },
    {
        "area_city_code": 12104,
        "area_city_name": "千葉市若葉区",
        "area_town_code": "121040033000",
        "area_town_name": "多部田町",
        "area_lat": 35.597429,
        "area_lng": 140.194719
    },
    {
        "area_city_code": 12104,
        "area_city_name": "千葉市若葉区",
        "area_town_code": "121040034000",
        "area_town_name": "旦谷町",
        "area_lat": 35.650394,
        "area_lng": 140.21068
    },
    {
        "area_city_code": 12104,
        "area_city_name": "千葉市若葉区",
        "area_town_code": "121040035001",
        "area_town_name": "千城台北一丁目",
        "area_lat": 35.627671,
        "area_lng": 140.183733
    },
    {
        "area_city_code": 12104,
        "area_city_name": "千葉市若葉区",
        "area_town_code": "121040035002",
        "area_town_name": "千城台北二丁目",
        "area_lat": 35.626021,
        "area_lng": 140.187683
    },
    {
        "area_city_code": 12104,
        "area_city_name": "千葉市若葉区",
        "area_town_code": "121040035003",
        "area_town_name": "千城台北三丁目",
        "area_lat": 35.623578,
        "area_lng": 140.190272
    },
    {
        "area_city_code": 12104,
        "area_city_name": "千葉市若葉区",
        "area_town_code": "121040035004",
        "area_town_name": "千城台北四丁目",
        "area_lat": 35.625271,
        "area_lng": 140.192802
    },
    {
        "area_city_code": 12104,
        "area_city_name": "千葉市若葉区",
        "area_town_code": "121040036001",
        "area_town_name": "千城台西一丁目",
        "area_lat": 35.624848,
        "area_lng": 140.182857
    },
    {
        "area_city_code": 12104,
        "area_city_name": "千葉市若葉区",
        "area_town_code": "121040036002",
        "area_town_name": "千城台西二丁目",
        "area_lat": 35.620602,
        "area_lng": 140.184724
    },
    {
        "area_city_code": 12104,
        "area_city_name": "千葉市若葉区",
        "area_town_code": "121040036003",
        "area_town_name": "千城台西三丁目",
        "area_lat": 35.620379,
        "area_lng": 140.181036
    },
    {
        "area_city_code": 12104,
        "area_city_name": "千葉市若葉区",
        "area_town_code": "121040037001",
        "area_town_name": "千城台東一丁目",
        "area_lat": 35.62218,
        "area_lng": 140.192163
    },
    {
        "area_city_code": 12104,
        "area_city_name": "千葉市若葉区",
        "area_town_code": "121040037002",
        "area_town_name": "千城台東二丁目",
        "area_lat": 35.621132,
        "area_lng": 140.195273
    },
    {
        "area_city_code": 12104,
        "area_city_name": "千葉市若葉区",
        "area_town_code": "121040037003",
        "area_town_name": "千城台東三丁目",
        "area_lat": 35.619305,
        "area_lng": 140.197745
    },
    {
        "area_city_code": 12104,
        "area_city_name": "千葉市若葉区",
        "area_town_code": "121040037004",
        "area_town_name": "千城台東四丁目",
        "area_lat": 35.61669,
        "area_lng": 140.198812
    },
    {
        "area_city_code": 12104,
        "area_city_name": "千葉市若葉区",
        "area_town_code": "121040038001",
        "area_town_name": "千城台南一丁目",
        "area_lat": 35.618607,
        "area_lng": 140.19018
    },
    {
        "area_city_code": 12104,
        "area_city_name": "千葉市若葉区",
        "area_town_code": "121040038002",
        "area_town_name": "千城台南二丁目",
        "area_lat": 35.617969,
        "area_lng": 140.186887
    },
    {
        "area_city_code": 12104,
        "area_city_name": "千葉市若葉区",
        "area_town_code": "121040038003",
        "area_town_name": "千城台南三丁目",
        "area_lat": 35.615879,
        "area_lng": 140.188193
    },
    {
        "area_city_code": 12104,
        "area_city_name": "千葉市若葉区",
        "area_town_code": "121040038004",
        "area_town_name": "千城台南四丁目",
        "area_lat": 35.613413,
        "area_lng": 140.191149
    },
    {
        "area_city_code": 12104,
        "area_city_name": "千葉市若葉区",
        "area_town_code": "121040039001",
        "area_town_name": "都賀一丁目",
        "area_lat": 35.631053,
        "area_lng": 140.145549
    },
    {
        "area_city_code": 12104,
        "area_city_name": "千葉市若葉区",
        "area_town_code": "121040039002",
        "area_town_name": "都賀二丁目",
        "area_lat": 35.632354,
        "area_lng": 140.148005
    },
    {
        "area_city_code": 12104,
        "area_city_name": "千葉市若葉区",
        "area_town_code": "121040039003",
        "area_town_name": "都賀三丁目",
        "area_lat": 35.636029,
        "area_lng": 140.151016
    },
    {
        "area_city_code": 12104,
        "area_city_name": "千葉市若葉区",
        "area_town_code": "121040039004",
        "area_town_name": "都賀四丁目",
        "area_lat": 35.634454,
        "area_lng": 140.153587
    },
    {
        "area_city_code": 12104,
        "area_city_name": "千葉市若葉区",
        "area_town_code": "121040039005",
        "area_town_name": "都賀五丁目",
        "area_lat": 35.638538,
        "area_lng": 140.155281
    },
    {
        "area_city_code": 12104,
        "area_city_name": "千葉市若葉区",
        "area_town_code": "121040040001",
        "area_town_name": "都賀の台一丁目",
        "area_lat": 35.640074,
        "area_lng": 140.14254
    },
    {
        "area_city_code": 12104,
        "area_city_name": "千葉市若葉区",
        "area_town_code": "121040040002",
        "area_town_name": "都賀の台二丁目",
        "area_lat": 35.644319,
        "area_lng": 140.141658
    },
    {
        "area_city_code": 12104,
        "area_city_name": "千葉市若葉区",
        "area_town_code": "121040040003",
        "area_town_name": "都賀の台三丁目",
        "area_lat": 35.644476,
        "area_lng": 140.144358
    },
    {
        "area_city_code": 12104,
        "area_city_name": "千葉市若葉区",
        "area_town_code": "121040040004",
        "area_town_name": "都賀の台四丁目",
        "area_lat": 35.641783,
        "area_lng": 140.145538
    },
    {
        "area_city_code": 12104,
        "area_city_name": "千葉市若葉区",
        "area_town_code": "121040041000",
        "area_town_name": "殿台町",
        "area_lat": 35.635037,
        "area_lng": 140.126014
    },
    {
        "area_city_code": 12104,
        "area_city_name": "千葉市若葉区",
        "area_town_code": "121040042000",
        "area_town_name": "富田町",
        "area_lat": 35.604316,
        "area_lng": 140.248894
    },
    {
        "area_city_code": 12104,
        "area_city_name": "千葉市若葉区",
        "area_town_code": "121040043000",
        "area_town_name": "中田町",
        "area_lat": 35.601604,
        "area_lng": 140.225681
    },
    {
        "area_city_code": 12104,
        "area_city_name": "千葉市若葉区",
        "area_town_code": "121040044000",
        "area_town_name": "中野町",
        "area_lat": 35.578378,
        "area_lng": 140.271668
    },
    {
        "area_city_code": 12104,
        "area_city_name": "千葉市若葉区",
        "area_town_code": "121040045001",
        "area_town_name": "西都賀一丁目",
        "area_lat": 35.634904,
        "area_lng": 140.14571
    },
    {
        "area_city_code": 12104,
        "area_city_name": "千葉市若葉区",
        "area_town_code": "121040045002",
        "area_town_name": "西都賀二丁目",
        "area_lat": 35.63886,
        "area_lng": 140.146419
    },
    {
        "area_city_code": 12104,
        "area_city_name": "千葉市若葉区",
        "area_town_code": "121040045003",
        "area_town_name": "西都賀三丁目",
        "area_lat": 35.637549,
        "area_lng": 140.149203
    },
    {
        "area_city_code": 12104,
        "area_city_name": "千葉市若葉区",
        "area_town_code": "121040045004",
        "area_town_name": "西都賀四丁目",
        "area_lat": 35.640152,
        "area_lng": 140.151815
    },
    {
        "area_city_code": 12104,
        "area_city_name": "千葉市若葉区",
        "area_town_code": "121040045005",
        "area_town_name": "西都賀五丁目",
        "area_lat": 35.64222,
        "area_lng": 140.149893
    },
    {
        "area_city_code": 12104,
        "area_city_name": "千葉市若葉区",
        "area_town_code": "121040046000",
        "area_town_name": "野呂町",
        "area_lat": 35.576372,
        "area_lng": 140.234761
    },
    {
        "area_city_code": 12104,
        "area_city_name": "千葉市若葉区",
        "area_town_code": "121040047000",
        "area_town_name": "原町",
        "area_lat": 35.632899,
        "area_lng": 140.141101
    },
    {
        "area_city_code": 12104,
        "area_city_name": "千葉市若葉区",
        "area_town_code": "121040048000",
        "area_town_name": "東寺山町",
        "area_lat": 35.630755,
        "area_lng": 140.133619
    },
    {
        "area_city_code": 12104,
        "area_city_name": "千葉市若葉区",
        "area_town_code": "121040049001",
        "area_town_name": "みつわ台一丁目",
        "area_lat": 35.633046,
        "area_lng": 140.13016
    },
    {
        "area_city_code": 12104,
        "area_city_name": "千葉市若葉区",
        "area_town_code": "121040049002",
        "area_town_name": "みつわ台二丁目",
        "area_lat": 35.637981,
        "area_lng": 140.132425
    },
    {
        "area_city_code": 12104,
        "area_city_name": "千葉市若葉区",
        "area_town_code": "121040049003",
        "area_town_name": "みつわ台三丁目",
        "area_lat": 35.641022,
        "area_lng": 140.136941
    },
    {
        "area_city_code": 12104,
        "area_city_name": "千葉市若葉区",
        "area_town_code": "121040049004",
        "area_town_name": "みつわ台四丁目",
        "area_lat": 35.6436,
        "area_lng": 140.13383
    },
    {
        "area_city_code": 12104,
        "area_city_name": "千葉市若葉区",
        "area_town_code": "121040049005",
        "area_town_name": "みつわ台五丁目",
        "area_lat": 35.646852,
        "area_lng": 140.13704
    },
    {
        "area_city_code": 12104,
        "area_city_name": "千葉市若葉区",
        "area_town_code": "121040050000",
        "area_town_name": "源町",
        "area_lat": 35.647416,
        "area_lng": 140.129068
    },
    {
        "area_city_code": 12104,
        "area_city_name": "千葉市若葉区",
        "area_town_code": "121040051000",
        "area_town_name": "谷当町",
        "area_lat": 35.644636,
        "area_lng": 140.214275
    },
    {
        "area_city_code": 12104,
        "area_city_name": "千葉市若葉区",
        "area_town_code": "121040052001",
        "area_town_name": "若松台一丁目",
        "area_lat": 35.649563,
        "area_lng": 140.169533
    },
    {
        "area_city_code": 12104,
        "area_city_name": "千葉市若葉区",
        "area_town_code": "121040052002",
        "area_town_name": "若松台二丁目",
        "area_lat": 35.648867,
        "area_lng": 140.170947
    },
    {
        "area_city_code": 12104,
        "area_city_name": "千葉市若葉区",
        "area_town_code": "121040052003",
        "area_town_name": "若松台三丁目",
        "area_lat": 35.651138,
        "area_lng": 140.176364
    },
    {
        "area_city_code": 12104,
        "area_city_name": "千葉市若葉区",
        "area_town_code": "121040053000",
        "area_town_name": "若松町",
        "area_lat": 35.644627,
        "area_lng": 140.164909
    },
    {
        "area_city_code": 12105,
        "area_city_name": "千葉市緑区",
        "area_town_code": "121050001001",
        "area_town_name": "あすみが丘一丁目",
        "area_lat": 35.529696,
        "area_lng": 140.269823
    },
    {
        "area_city_code": 12105,
        "area_city_name": "千葉市緑区",
        "area_town_code": "121050001002",
        "area_town_name": "あすみが丘二丁目",
        "area_lat": 35.524939,
        "area_lng": 140.271333
    },
    {
        "area_city_code": 12105,
        "area_city_name": "千葉市緑区",
        "area_town_code": "121050001003",
        "area_town_name": "あすみが丘三丁目",
        "area_lat": 35.527284,
        "area_lng": 140.266285
    },
    {
        "area_city_code": 12105,
        "area_city_name": "千葉市緑区",
        "area_town_code": "121050001004",
        "area_town_name": "あすみが丘四丁目",
        "area_lat": 35.524682,
        "area_lng": 140.263973
    },
    {
        "area_city_code": 12105,
        "area_city_name": "千葉市緑区",
        "area_town_code": "121050001005",
        "area_town_name": "あすみが丘五丁目",
        "area_lat": 35.526646,
        "area_lng": 140.259663
    },
    {
        "area_city_code": 12105,
        "area_city_name": "千葉市緑区",
        "area_town_code": "121050001006",
        "area_town_name": "あすみが丘六丁目",
        "area_lat": 35.516806,
        "area_lng": 140.26361
    },
    {
        "area_city_code": 12105,
        "area_city_name": "千葉市緑区",
        "area_town_code": "121050001007",
        "area_town_name": "あすみが丘七丁目",
        "area_lat": 35.517265,
        "area_lng": 140.26678
    },
    {
        "area_city_code": 12105,
        "area_city_name": "千葉市緑区",
        "area_town_code": "121050001008",
        "area_town_name": "あすみが丘八丁目",
        "area_lat": 35.51649,
        "area_lng": 140.271215
    },
    {
        "area_city_code": 12105,
        "area_city_name": "千葉市緑区",
        "area_town_code": "121050001009",
        "area_town_name": "あすみが丘九丁目",
        "area_lat": 35.511433,
        "area_lng": 140.264021
    },
    {
        "area_city_code": 12105,
        "area_city_name": "千葉市緑区",
        "area_town_code": "121050002001",
        "area_town_name": "あすみが丘東一丁目",
        "area_lat": 35.527427,
        "area_lng": 140.280086
    },
    {
        "area_city_code": 12105,
        "area_city_name": "千葉市緑区",
        "area_town_code": "121050002002",
        "area_town_name": "あすみが丘東二丁目",
        "area_lat": 35.525127,
        "area_lng": 140.27607
    },
    {
        "area_city_code": 12105,
        "area_city_name": "千葉市緑区",
        "area_town_code": "121050002003",
        "area_town_name": "あすみが丘東三丁目",
        "area_lat": 35.523772,
        "area_lng": 140.280755
    },
    {
        "area_city_code": 12105,
        "area_city_name": "千葉市緑区",
        "area_town_code": "121050002004",
        "area_town_name": "あすみが丘東四丁目",
        "area_lat": 35.522347,
        "area_lng": 140.276739
    },
    {
        "area_city_code": 12105,
        "area_city_name": "千葉市緑区",
        "area_town_code": "121050002005",
        "area_town_name": "あすみが丘東五丁目",
        "area_lat": 35.519636,
        "area_lng": 140.274508
    },
    {
        "area_city_code": 12105,
        "area_city_name": "千葉市緑区",
        "area_town_code": "121050003000",
        "area_town_name": "板倉町",
        "area_lat": 35.50386,
        "area_lng": 140.252839
    },
    {
        "area_city_code": 12105,
        "area_city_name": "千葉市緑区",
        "area_town_code": "121050004000",
        "area_town_name": "大金沢町",
        "area_lat": 35.540424,
        "area_lng": 140.173987
    },
    {
        "area_city_code": 12105,
        "area_city_name": "千葉市緑区",
        "area_town_code": "121050005000",
        "area_town_name": "大木戸町",
        "area_lat": 35.520335,
        "area_lng": 140.245239
    },
    {
        "area_city_code": 12105,
        "area_city_name": "千葉市緑区",
        "area_town_code": "121050006000",
        "area_town_name": "大椎町",
        "area_lat": 35.51738,
        "area_lng": 140.25775
    },
    {
        "area_city_code": 12105,
        "area_city_name": "千葉市緑区",
        "area_town_code": "121050007000",
        "area_town_name": "大高町",
        "area_lat": 35.53839,
        "area_lng": 140.248154
    },
    {
        "area_city_code": 12105,
        "area_city_name": "千葉市緑区",
        "area_town_code": "121050008001",
        "area_town_name": "大野台一丁目",
        "area_lat": 35.517281,
        "area_lng": 140.22805
    },
    {
        "area_city_code": 12105,
        "area_city_name": "千葉市緑区",
        "area_town_code": "121050008002",
        "area_town_name": "大野台二丁目",
        "area_lat": 35.512244,
        "area_lng": 140.237874
    },
    {
        "area_city_code": 12105,
        "area_city_name": "千葉市緑区",
        "area_town_code": "121050009000",
        "area_town_name": "落井町",
        "area_lat": 35.543111,
        "area_lng": 140.159266
    },
    {
        "area_city_code": 12105,
        "area_city_name": "千葉市緑区",
        "area_town_code": "121050010000",
        "area_town_name": "越智町",
        "area_lat": 35.530648,
        "area_lng": 140.23894
    },
    {
        "area_city_code": 12105,
        "area_city_name": "千葉市緑区",
        "area_town_code": "121050011000",
        "area_town_name": "小山町",
        "area_lat": 35.504869,
        "area_lng": 140.269473
    },
    {
        "area_city_code": 12105,
        "area_city_name": "千葉市緑区",
        "area_town_code": "121050012001",
        "area_town_name": "おゆみ野一丁目",
        "area_lat": 35.56221,
        "area_lng": 140.163562
    },
    {
        "area_city_code": 12105,
        "area_city_name": "千葉市緑区",
        "area_town_code": "121050012002",
        "area_town_name": "おゆみ野二丁目",
        "area_lat": 35.561945,
        "area_lng": 140.171904
    },
    {
        "area_city_code": 12105,
        "area_city_name": "千葉市緑区",
        "area_town_code": "121050012003",
        "area_town_name": "おゆみ野三丁目",
        "area_lat": 35.560667,
        "area_lng": 140.176948
    },
    {
        "area_city_code": 12105,
        "area_city_name": "千葉市緑区",
        "area_town_code": "121050012004",
        "area_town_name": "おゆみ野四丁目",
        "area_lat": 35.557034,
        "area_lng": 140.181579
    },
    {
        "area_city_code": 12105,
        "area_city_name": "千葉市緑区",
        "area_town_code": "121050012005",
        "area_town_name": "おゆみ野五丁目",
        "area_lat": 35.553493,
        "area_lng": 140.187893
    },
    {
        "area_city_code": 12105,
        "area_city_name": "千葉市緑区",
        "area_town_code": "121050012006",
        "area_town_name": "おゆみ野六丁目",
        "area_lat": 35.550422,
        "area_lng": 140.191664
    },
    {
        "area_city_code": 12105,
        "area_city_name": "千葉市緑区",
        "area_town_code": "121050013000",
        "area_town_name": "おゆみ野有吉",
        "area_lat": 35.558365,
        "area_lng": 140.166838
    },
    {
        "area_city_code": 12105,
        "area_city_name": "千葉市緑区",
        "area_town_code": "121050014001",
        "area_town_name": "おゆみ野中央一丁目",
        "area_lat": 35.55896,
        "area_lng": 140.160381
    },
    {
        "area_city_code": 12105,
        "area_city_name": "千葉市緑区",
        "area_town_code": "121050014002",
        "area_town_name": "おゆみ野中央二丁目",
        "area_lat": 35.555231,
        "area_lng": 140.161391
    },
    {
        "area_city_code": 12105,
        "area_city_name": "千葉市緑区",
        "area_town_code": "121050014003",
        "area_town_name": "おゆみ野中央三丁目",
        "area_lat": 35.553775,
        "area_lng": 140.167817
    },
    {
        "area_city_code": 12105,
        "area_city_name": "千葉市緑区",
        "area_town_code": "121050014004",
        "area_town_name": "おゆみ野中央四丁目",
        "area_lat": 35.55268,
        "area_lng": 140.173379
    },
    {
        "area_city_code": 12105,
        "area_city_name": "千葉市緑区",
        "area_town_code": "121050014005",
        "area_town_name": "おゆみ野中央五丁目",
        "area_lat": 35.557298,
        "area_lng": 140.173136
    },
    {
        "area_city_code": 12105,
        "area_city_name": "千葉市緑区",
        "area_town_code": "121050014006",
        "area_town_name": "おゆみ野中央六丁目",
        "area_lat": 35.553703,
        "area_lng": 140.179155
    },
    {
        "area_city_code": 12105,
        "area_city_name": "千葉市緑区",
        "area_town_code": "121050014007",
        "area_town_name": "おゆみ野中央七丁目",
        "area_lat": 35.548973,
        "area_lng": 140.17898
    },
    {
        "area_city_code": 12105,
        "area_city_name": "千葉市緑区",
        "area_town_code": "121050014008",
        "area_town_name": "おゆみ野中央八丁目",
        "area_lat": 35.549005,
        "area_lng": 140.187067
    },
    {
        "area_city_code": 12105,
        "area_city_name": "千葉市緑区",
        "area_town_code": "121050014009",
        "area_town_name": "おゆみ野中央九丁目",
        "area_lat": 35.545379,
        "area_lng": 140.182192
    },
    {
        "area_city_code": 12105,
        "area_city_name": "千葉市緑区",
        "area_town_code": "121050015001",
        "area_town_name": "おゆみ野南一丁目",
        "area_lat": 35.552114,
        "area_lng": 140.161728
    },
    {
        "area_city_code": 12105,
        "area_city_name": "千葉市緑区",
        "area_town_code": "121050015002",
        "area_town_name": "おゆみ野南二丁目",
        "area_lat": 35.549575,
        "area_lng": 140.169543
    },
    {
        "area_city_code": 12105,
        "area_city_name": "千葉市緑区",
        "area_town_code": "121050015003",
        "area_town_name": "おゆみ野南三丁目",
        "area_lat": 35.54809,
        "area_lng": 140.16728
    },
    {
        "area_city_code": 12105,
        "area_city_name": "千葉市緑区",
        "area_town_code": "121050015004",
        "area_town_name": "おゆみ野南四丁目",
        "area_lat": 35.544509,
        "area_lng": 140.168401
    },
    {
        "area_city_code": 12105,
        "area_city_name": "千葉市緑区",
        "area_town_code": "121050015005",
        "area_town_name": "おゆみ野南五丁目",
        "area_lat": 35.54705,
        "area_lng": 140.175443
    },
    {
        "area_city_code": 12105,
        "area_city_name": "千葉市緑区",
        "area_town_code": "121050015006",
        "area_town_name": "おゆみ野南六丁目",
        "area_lat": 35.54264,
        "area_lng": 140.180454
    },
    {
        "area_city_code": 12105,
        "area_city_name": "千葉市緑区",
        "area_town_code": "121050016000",
        "area_town_name": "鎌取町",
        "area_lat": 35.566653,
        "area_lng": 140.173331
    },
    {
        "area_city_code": 12105,
        "area_city_name": "千葉市緑区",
        "area_town_code": "121050017000",
        "area_town_name": "上大和田町",
        "area_lat": 35.553868,
        "area_lng": 140.281498
    },
    {
        "area_city_code": 12105,
        "area_city_name": "千葉市緑区",
        "area_town_code": "121050018000",
        "area_town_name": "刈田子町",
        "area_lat": 35.54624,
        "area_lng": 140.159684
    },
    {
        "area_city_code": 12105,
        "area_city_name": "千葉市緑区",
        "area_town_code": "121050019000",
        "area_town_name": "小金沢町",
        "area_lat": 35.54309,
        "area_lng": 140.170445
    },
    {
        "area_city_code": 12105,
        "area_city_name": "千葉市緑区",
        "area_town_code": "121050020000",
        "area_town_name": "椎名崎町",
        "area_lat": 35.549525,
        "area_lng": 140.157177
    },
    {
        "area_city_code": 12105,
        "area_city_name": "千葉市緑区",
        "area_town_code": "121050021000",
        "area_town_name": "下大和田町",
        "area_lat": 35.558469,
        "area_lng": 140.258793
    },
    {
        "area_city_code": 12105,
        "area_city_name": "千葉市緑区",
        "area_town_code": "121050022000",
        "area_town_name": "大膳野町",
        "area_lat": 35.543725,
        "area_lng": 140.193905
    },
    {
        "area_city_code": 12105,
        "area_city_name": "千葉市緑区",
        "area_town_code": "121050023000",
        "area_town_name": "高田町",
        "area_lat": 35.560882,
        "area_lng": 140.222805
    },
    {
        "area_city_code": 12105,
        "area_city_name": "千葉市緑区",
        "area_town_code": "121050024000",
        "area_town_name": "高津戸町",
        "area_lat": 35.539679,
        "area_lng": 140.261611
    },
    {
        "area_city_code": 12105,
        "area_city_name": "千葉市緑区",
        "area_town_code": "121050025000",
        "area_town_name": "土気町",
        "area_lat": 35.536847,
        "area_lng": 140.277563
    },
    {
        "area_city_code": 12105,
        "area_city_name": "千葉市緑区",
        "area_town_code": "121050026000",
        "area_town_name": "富岡町",
        "area_lat": 35.542049,
        "area_lng": 140.167956
    },
    {
        "area_city_code": 12105,
        "area_city_name": "千葉市緑区",
        "area_town_code": "121050027000",
        "area_town_name": "中西町",
        "area_lat": 35.538533,
        "area_lng": 140.158472
    },
    {
        "area_city_code": 12105,
        "area_city_name": "千葉市緑区",
        "area_town_code": "121050028000",
        "area_town_name": "東山科町",
        "area_lat": 35.582965,
        "area_lng": 140.189525
    },
    {
        "area_city_code": 12105,
        "area_city_name": "千葉市緑区",
        "area_town_code": "121050029000",
        "area_town_name": "平川町",
        "area_lat": 35.554025,
        "area_lng": 140.24656
    },
    {
        "area_city_code": 12105,
        "area_city_name": "千葉市緑区",
        "area_town_code": "121050030000",
        "area_town_name": "平山町",
        "area_lat": 35.574185,
        "area_lng": 140.192459
    },
    {
        "area_city_code": 12105,
        "area_city_name": "千葉市緑区",
        "area_town_code": "121050031000",
        "area_town_name": "古市場町",
        "area_lat": 35.545056,
        "area_lng": 140.150045
    },
    {
        "area_city_code": 12105,
        "area_city_name": "千葉市緑区",
        "area_town_code": "121050032000",
        "area_town_name": "辺田町",
        "area_lat": 35.566241,
        "area_lng": 140.184223
    },
    {
        "area_city_code": 12105,
        "area_city_name": "千葉市緑区",
        "area_town_code": "121050033001",
        "area_town_name": "誉田町一丁目",
        "area_lat": 35.55352,
        "area_lng": 140.197653
    },
    {
        "area_city_code": 12105,
        "area_city_name": "千葉市緑区",
        "area_town_code": "121050033002",
        "area_town_name": "誉田町二丁目",
        "area_lat": 35.548479,
        "area_lng": 140.20852
    },
    {
        "area_city_code": 12105,
        "area_city_name": "千葉市緑区",
        "area_town_code": "121050033003",
        "area_town_name": "誉田町三丁目",
        "area_lat": 35.542503,
        "area_lng": 140.213638
    },
    {
        "area_city_code": 12105,
        "area_city_name": "千葉市緑区",
        "area_town_code": "121050034000",
        "area_town_name": "茂呂町",
        "area_lat": 35.537185,
        "area_lng": 140.17135
    },
    {
        "area_city_code": 12105,
        "area_city_name": "千葉市緑区",
        "area_town_code": "121050035000",
        "area_town_name": "小食土町",
        "area_lat": 35.515213,
        "area_lng": 140.278231
    },