[
    {
        "area_city_code": 26101,
        "area_city_name": "京都市北区",
        "area_town_code": "261010001000",
        "area_town_name": "出雲路神楽町",
        "area_lat": 35.033825,
        "area_lng": 135.76835
    },
    {
        "area_city_code": 26101,
        "area_city_name": "京都市北区",
        "area_town_code": "261010002000",
        "area_town_name": "出雲路立テ本町",
        "area_lat": 35.039821,
        "area_lng": 135.764347
    },
    {
        "area_city_code": 26101,
        "area_city_name": "京都市北区",
        "area_town_code": "261010003000",
        "area_town_name": "出雲路俵町",
        "area_lat": 35.036601,
        "area_lng": 135.766157
    },
    {
        "area_city_code": 26101,
        "area_city_name": "京都市北区",
        "area_town_code": "261010004000",
        "area_town_name": "出雲路松ノ下町",
        "area_lat": 35.041724,
        "area_lng": 135.763086
    },
    {
        "area_city_code": 26101,
        "area_city_name": "京都市北区",
        "area_town_code": "261010005000",
        "area_town_name": "大北山鏡石町",
        "area_lat": 35.046129,
        "area_lng": 135.731787
    },
    {
        "area_city_code": 26101,
        "area_city_name": "京都市北区",
        "area_town_code": "261010006000",
        "area_town_name": "大北山松鴎山町",
        "area_lat": 35.049524,
        "area_lng": 135.715773
    },
    {
        "area_city_code": 26101,
        "area_city_name": "京都市北区",
        "area_town_code": "261010007000",
        "area_town_name": "大北山天神岡町",
        "area_lat": 35.043473,
        "area_lng": 135.729003
    },
    {
        "area_city_code": 26101,
        "area_city_name": "京都市北区",
        "area_town_code": "261010008000",
        "area_town_name": "大北山蓮ケ谷町",
        "area_lat": 35.044542,
        "area_lng": 135.722524
    },
    {
        "area_city_code": 26101,
        "area_city_name": "京都市北区",
        "area_town_code": "261010009000",
        "area_town_name": "大北山長谷町",
        "area_lat": 35.047199,
        "area_lng": 135.722513
    },
    {
        "area_city_code": 26101,
        "area_city_name": "京都市北区",
        "area_town_code": "261010010000",
        "area_town_name": "大北山原谷乾町",
        "area_lat": 35.045401,
        "area_lng": 135.716026
    },
    {
        "area_city_code": 26101,
        "area_city_name": "京都市北区",
        "area_town_code": "261010011000",
        "area_town_name": "大北山不動山町",
        "area_lat": 35.041242,
        "area_lng": 135.729939
    },
    {
        "area_city_code": 26101,
        "area_city_name": "京都市北区",
        "area_town_code": "261010012000",
        "area_town_name": "大北山鷲峯町",
        "area_lat": 35.050702,
        "area_lng": 135.727059
    },
    {
        "area_city_code": 26101,
        "area_city_name": "京都市北区",
        "area_town_code": "261010013000",
        "area_town_name": "大宮秋葉山",
        "area_lat": 35.066164,
        "area_lng": 135.728761
    },
    {
        "area_city_code": 26101,
        "area_city_name": "京都市北区",
        "area_town_code": "261010014000",
        "area_town_name": "大宮一ノ井町",
        "area_lat": 35.054299,
        "area_lng": 135.738354
    },
    {
        "area_city_code": 26101,
        "area_city_name": "京都市北区",
        "area_town_code": "261010015000",
        "area_town_name": "大宮上ノ岸町",
        "area_lat": 35.055983,
        "area_lng": 135.750166
    },
    {
        "area_city_code": 26101,
        "area_city_name": "京都市北区",
        "area_town_code": "261010016000",
        "area_town_name": "大宮北椿原町",
        "area_lat": 35.056333,
        "area_lng": 135.748538
    },
    {
        "area_city_code": 26101,
        "area_city_name": "京都市北区",
        "area_town_code": "261010017000",
        "area_town_name": "大宮北ノ岸町",
        "area_lat": 35.058234,
        "area_lng": 135.749533
    },
    {
        "area_city_code": 26101,
        "area_city_name": "京都市北区",
        "area_town_code": "261010018000",
        "area_town_name": "大宮北箱ノ井町",
        "area_lat": 35.054298,
        "area_lng": 135.740294
    },
    {
        "area_city_code": 26101,
        "area_city_name": "京都市北区",
        "area_town_code": "261010019000",
        "area_town_name": "大宮北林町",
        "area_lat": 35.056489,
        "area_lng": 135.746411
    },
    {
        "area_city_code": 26101,
        "area_city_name": "京都市北区",
        "area_town_code": "261010020000",
        "area_town_name": "大宮北山ノ前町",
        "area_lat": 35.057824,
        "area_lng": 135.741901
    },
    {
        "area_city_code": 26101,
        "area_city_name": "京都市北区",
        "area_town_code": "261010021000",
        "area_town_name": "大宮草山",
        "area_lat": 35.060499,
        "area_lng": 135.731607
    },
    {
        "area_city_code": 26101,
        "area_city_name": "京都市北区",
        "area_town_code": "261010022000",
        "area_town_name": "大宮玄琢北東町",
        "area_lat": 35.05452,
        "area_lng": 135.734536
    },
    {
        "area_city_code": 26101,
        "area_city_name": "京都市北区",
        "area_town_code": "261010023000",
        "area_town_name": "大宮玄琢北町",
        "area_lat": 35.053331,
        "area_lng": 135.73695
    },
    {
        "area_city_code": 26101,
        "area_city_name": "京都市北区",
        "area_town_code": "261010024000",
        "area_town_name": "大宮玄琢南町",
        "area_lat": 35.052041,
        "area_lng": 135.738166
    },
    {
        "area_city_code": 26101,
        "area_city_name": "京都市北区",
        "area_town_code": "261010025000",
        "area_town_name": "大宮釈迦谷",
        "area_lat": 35.065708,
        "area_lng": 135.725262
    },
    {
        "area_city_code": 26101,
        "area_city_name": "京都市北区",
        "area_town_code": "261010026000",
        "area_town_name": "大宮田尻町",
        "area_lat": 35.058606,
        "area_lng": 135.748076
    },
    {
        "area_city_code": 26101,
        "area_city_name": "京都市北区",
        "area_town_code": "261010027000",
        "area_town_name": "大宮土居町",
        "area_lat": 35.051564,
        "area_lng": 135.739789
    },
    {
        "area_city_code": 26101,
        "area_city_name": "京都市北区",
        "area_town_code": "261010028000",
        "area_town_name": "大宮中総門口町",
        "area_lat": 35.057654,
        "area_lng": 135.744693
    },
    {
        "area_city_code": 26101,
        "area_city_name": "京都市北区",
        "area_town_code": "261010029000",
        "area_town_name": "大宮中ノ社町",
        "area_lat": 35.058964,
        "area_lng": 135.745595
    },
    {
        "area_city_code": 26101,
        "area_city_name": "京都市北区",
        "area_town_code": "261010030000",
        "area_town_name": "大宮中林町",
        "area_lat": 35.055519,
        "area_lng": 135.746542
    },
    {
        "area_city_code": 26101,
        "area_city_name": "京都市北区",
        "area_town_code": "261010031000",
        "area_town_name": "大宮西小野堀町",
        "area_lat": 35.056006,
        "area_lng": 135.743378
    },
    {
        "area_city_code": 26101,
        "area_city_name": "京都市北区",
        "area_town_code": "261010032000",
        "area_town_name": "大宮西総門口町",
        "area_lat": 35.057925,
        "area_lng": 135.743254
    },
    {
        "area_city_code": 26101,
        "area_city_name": "京都市北区",
        "area_town_code": "261010033000",
        "area_town_name": "大宮西野山町",
        "area_lat": 35.050301,
        "area_lng": 135.73897
    },
    {
        "area_city_code": 26101,
        "area_city_name": "京都市北区",
        "area_town_code": "261010034000",
        "area_town_name": "大宮西山ノ前町",
        "area_lat": 35.057449,
        "area_lng": 135.740602
    },
    {
        "area_city_code": 26101,
        "area_city_name": "京都市北区",
        "area_town_code": "261010035000",
        "area_town_name": "大宮西脇台町",
        "area_lat": 35.053552,
        "area_lng": 135.743577
    },
    {
        "area_city_code": 26101,
        "area_city_name": "京都市北区",
        "area_town_code": "261010036000",
        "area_town_name": "大宮二ノ坂",
        "area_lat": 35.074256,
        "area_lng": 135.724742
    },
    {
        "area_city_code": 26101,
        "area_city_name": "京都市北区",
        "area_town_code": "261010037000",
        "area_town_name": "大宮萩原",
        "area_lat": 35.071134,
        "area_lng": 135.728846
    },
    {
        "area_city_code": 26101,
        "area_city_name": "京都市北区",
        "area_town_code": "261010038000",
        "area_town_name": "大宮榿ノ木町",
        "area_lat": 35.059526,
        "area_lng": 135.749627
    },
    {
        "area_city_code": 26101,
        "area_city_name": "京都市北区",
        "area_town_code": "261010039000",
        "area_town_name": "大宮東小野堀町",
        "area_lat": 35.056052,
        "area_lng": 135.744758
    },
    {
        "area_city_code": 26101,
        "area_city_name": "京都市北区",
        "area_town_code": "261010040000",
        "area_town_name": "大宮東総門口町",
        "area_lat": 35.057823,
        "area_lng": 135.746207
    },
    {
        "area_city_code": 26101,
        "area_city_name": "京都市北区",
        "area_town_code": "261010041000",
        "area_town_name": "大宮東脇台町",
        "area_lat": 35.054126,
        "area_lng": 135.744789
    },
    {
        "area_city_code": 26101,
        "area_city_name": "京都市北区",
        "area_town_code": "261010042000",
        "area_town_name": "大宮開町",
        "area_lat": 35.053693,
        "area_lng": 135.741924
    },
    {
        "area_city_code": 26101,
        "area_city_name": "京都市北区",
        "area_town_code": "261010043000",
        "area_town_name": "大宮南田尻町",
        "area_lat": 35.057768,
        "area_lng": 135.747536
    },
    {
        "area_city_code": 26101,
        "area_city_name": "京都市北区",
        "area_town_code": "261010044000",
        "area_town_name": "大宮南椿原町",
        "area_lat": 35.055033,
        "area_lng": 135.748709
    },
    {
        "area_city_code": 26101,
        "area_city_name": "京都市北区",
        "area_town_code": "261010045000",
        "area_town_name": "大宮南箱ノ井町",
        "area_lat": 35.052852,
        "area_lng": 135.740441
    },
    {
        "area_city_code": 26101,
        "area_city_name": "京都市北区",
        "area_town_code": "261010046000",
        "area_town_name": "大宮南林町",
        "area_lat": 35.054579,
        "area_lng": 135.746641
    },
    {
        "area_city_code": 26101,
        "area_city_name": "京都市北区",
        "area_town_code": "261010047000",
        "area_town_name": "大宮南山ノ前町",
        "area_lat": 35.056002,
        "area_lng": 135.741763
    },
    {
        "area_city_code": 26101,
        "area_city_name": "京都市北区",
        "area_town_code": "261010048000",
        "area_town_name": "大宮薬師山西町",
        "area_lat": 35.056845,
        "area_lng": 135.737457
    },
    {
        "area_city_code": 26101,
        "area_city_name": "京都市北区",
        "area_town_code": "261010049000",
        "area_town_name": "大宮薬師山東町",
        "area_lat": 35.056752,
        "area_lng": 135.739474
    },
    {
        "area_city_code": 26101,
        "area_city_name": "京都市北区",
        "area_town_code": "261010050000",
        "area_town_name": "大森芦堂町",
        "area_lat": 35.134408,
        "area_lng": 135.680989
    },
    {
        "area_city_code": 26101,
        "area_city_name": "京都市北区",
        "area_town_code": "261010051000",
        "area_town_name": "大森稲荷",
        "area_lat": 35.129467,
        "area_lng": 135.6793
    },
    {
        "area_city_code": 26101,
        "area_city_name": "京都市北区",
        "area_town_code": "261010052000",
        "area_town_name": "大森牛ケ滝",
        "area_lat": 35.157528,
        "area_lng": 135.678647
    },
    {
        "area_city_code": 26101,
        "area_city_name": "京都市北区",
        "area_town_code": "261010053000",
        "area_town_name": "大森大谷",
        "area_lat": 35.151457,
        "area_lng": 135.698258
    },
    {
        "area_city_code": 26101,
        "area_city_name": "京都市北区",
        "area_town_code": "261010054000",
        "area_town_name": "大森菖蒲",
        "area_lat": 35.144558,
        "area_lng": 135.677389
    },
    {
        "area_city_code": 26101,
        "area_city_name": "京都市北区",
        "area_town_code": "261010055000",
        "area_town_name": "大森中町",
        "area_lat": 35.138766,
        "area_lng": 135.681004
    },
    {
        "area_city_code": 26101,
        "area_city_name": "京都市北区",
        "area_town_code": "261010056000",
        "area_town_name": "大森中山",
        "area_lat": 35.131256,
        "area_lng": 135.685735
    },
    {
        "area_city_code": 26101,
        "area_city_name": "京都市北区",
        "area_town_code": "261010057000",
        "area_town_name": "大森西町",
        "area_lat": 35.142602,
        "area_lng": 135.676589
    },
    {
        "area_city_code": 26101,
        "area_city_name": "京都市北区",
        "area_town_code": "261010058000",
        "area_town_name": "大森東町",
        "area_lat": 35.144578,
        "area_lng": 135.693446
    },
    {
        "area_city_code": 26101,
        "area_city_name": "京都市北区",
        "area_town_code": "261010059000",
        "area_town_name": "小野岩戸",
        "area_lat": 35.115284,
        "area_lng": 135.682895
    },
    {
        "area_city_code": 26101,
        "area_city_name": "京都市北区",
        "area_town_code": "261010060000",
        "area_town_name": "小野笠谷",
        "area_lat": 35.113344,
        "area_lng": 135.657757
    },
    {
        "area_city_code": 26101,
        "area_city_name": "京都市北区",
        "area_town_code": "261010061000",
        "area_town_name": "小野上ノ町",
        "area_lat": 35.11394,
        "area_lng": 135.670612
    },
    {
        "area_city_code": 26101,
        "area_city_name": "京都市北区",
        "area_town_code": "261010062000",
        "area_town_name": "小野下ノ町",
        "area_lat": 35.109387,
        "area_lng": 135.676321
    },
    {
        "area_city_code": 26101,
        "area_city_name": "京都市北区",
        "area_town_code": "261010063000",
        "area_town_name": "小野中ノ町",
        "area_lat": 35.11177,
        "area_lng": 135.673109
    },
    {
        "area_city_code": 26101,
        "area_city_name": "京都市北区",
        "area_town_code": "261010064000",
        "area_town_name": "小野水谷",
        "area_lat": 35.102271,
        "area_lng": 135.661695
    },
    {
        "area_city_code": 26101,
        "area_city_name": "京都市北区",
        "area_town_code": "261010065000",
        "area_town_name": "小野宮ノ上町",
        "area_lat": 35.117768,
        "area_lng": 135.672584
    },
    {
        "area_city_code": 26101,
        "area_city_name": "京都市北区",
        "area_town_code": "261010066000",
        "area_town_name": "上賀茂葵田町",
        "area_lat": 35.071885,
        "area_lng": 135.756664
    },
    {
        "area_city_code": 26101,
        "area_city_name": "京都市北区",
        "area_town_code": "261010067000",
        "area_town_name": "上賀茂葵之森町",
        "area_lat": 35.06317,
        "area_lng": 135.751156
    },
    {
        "area_city_code": 26101,
        "area_city_name": "京都市北区",
        "area_town_code": "261010068000",
        "area_town_name": "上賀茂赤尾町",
        "area_lat": 35.072257,
        "area_lng": 135.753782
    },
    {
        "area_city_code": 26101,
        "area_city_name": "京都市北区",
        "area_town_code": "261010069000",
        "area_town_name": "上賀茂朝露ケ原町",
        "area_lat": 35.061754,
        "area_lng": 135.74994
    },
    {
        "area_city_code": 26101,
        "area_city_name": "京都市北区",
        "area_town_code": "261010070000",
        "area_town_name": "上賀茂畔勝町",
        "area_lat": 35.055502,
        "area_lng": 135.765178
    },
    {
        "area_city_code": 26101,
        "area_city_name": "京都市北区",
        "area_town_code": "261010071000",
        "area_town_name": "上賀茂荒草町",
        "area_lat": 35.054429,
        "area_lng": 135.758138
    },
    {
        "area_city_code": 26101,
        "area_city_name": "京都市北区",
        "area_town_code": "261010072000",
        "area_town_name": "上賀茂池殿町",
        "area_lat": 35.056853,
        "area_lng": 135.753605
    },
    {
        "area_city_code": 26101,
        "area_city_name": "京都市北区",
        "area_town_code": "261010073000",
        "area_town_name": "上賀茂池端町",
        "area_lat": 35.056094,
        "area_lng": 135.76804
    },
    {
        "area_city_code": 26101,
        "area_city_name": "京都市北区",
        "area_town_code": "261010074000",
        "area_town_name": "上賀茂石計町",
        "area_lat": 35.0543,
        "area_lng": 135.761512
    },
    {
        "area_city_code": 26101,
        "area_city_name": "京都市北区",
        "area_town_code": "261010075000",
        "area_town_name": "上賀茂壱町口町",
        "area_lat": 35.071148,
        "area_lng": 135.754463
    },
    {
        "area_city_code": 26101,
        "area_city_name": "京都市北区",
        "area_town_code": "261010076000",
        "area_town_name": "上賀茂茨谷町",
        "area_lat": 35.075936,
        "area_lng": 135.747963
    },
    {
        "area_city_code": 26101,
        "area_city_name": "京都市北区",
        "area_town_code": "261010077000",
        "area_town_name": "上賀茂今井河原町",
        "area_lat": 35.051336,
        "area_lng": 135.758653
    },
    {
        "area_city_code": 26101,
        "area_city_name": "京都市北区",
        "area_town_code": "261010078000",
        "area_town_name": "上賀茂岩ケ垣内町",
        "area_lat": 35.051774,
        "area_lng": 135.765465
    },
    {
        "area_city_code": 26101,
        "area_city_name": "京都市北区",
        "area_town_code": "261010079000",
        "area_town_name": "上賀茂馬ノ目町",
        "area_lat": 35.066033,
        "area_lng": 135.748792
    },
    {
        "area_city_code": 26101,
        "area_city_name": "京都市北区",
        "area_town_code": "261010080000",
        "area_town_name": "上賀茂梅ケ辻町",
        "area_lat": 35.058044,
        "area_lng": 135.759863
    },
    {
        "area_city_code": 26101,
        "area_city_name": "京都市北区",
        "area_town_code": "261010081000",
        "area_town_name": "上賀茂烏帽子ケ垣内町",
        "area_lat": 35.055883,
        "area_lng": 135.757707
    },
    {
        "area_city_code": 26101,
        "area_city_name": "京都市北区",
        "area_town_code": "261010082000",
        "area_town_name": "上賀茂大柳町",
        "area_lat": 35.069104,
        "area_lng": 135.74402
    },
    {
        "area_city_code": 26101,
        "area_city_name": "京都市北区",
        "area_town_code": "261010083000",
        "area_town_name": "上賀茂岡本口町",
        "area_lat": 35.057781,
        "area_lng": 135.762197
    },
    {
        "area_city_code": 26101,
        "area_city_name": "京都市北区",
        "area_town_code": "261010084000",
        "area_town_name": "上賀茂岡本町",
        "area_lat": 35.058592,
        "area_lng": 135.760519
    },
    {
        "area_city_code": 26101,
        "area_city_name": "京都市北区",
        "area_town_code": "261010085000",
        "area_town_name": "上賀茂音保瀬町",
        "area_lat": 35.070344,
        "area_lng": 135.744444
    },
    {
        "area_city_code": 26101,
        "area_city_name": "京都市北区",
        "area_town_code": "261010086000",
        "area_town_name": "上賀茂上神原町",
        "area_lat": 35.069328,
        "area_lng": 135.755033
    },
    {
        "area_city_code": 26101,
        "area_city_name": "京都市北区",
        "area_town_code": "261010087000",
        "area_town_name": "上賀茂北大路町",
        "area_lat": 35.058726,
        "area_lng": 135.757575
    },
    {
        "area_city_code": 26101,
        "area_city_name": "京都市北区",
        "area_town_code": "261010088000",
        "area_town_name": "上賀茂北ノ原町",
        "area_lat": 35.073251,
        "area_lng": 135.743198
    },
    {
        "area_city_code": 26101,
        "area_city_name": "京都市北区",
        "area_town_code": "261010089000",
        "area_town_name": "上賀茂毛穴井町",
        "area_lat": 35.073344,
        "area_lng": 135.742193
    },
    {
        "area_city_code": 26101,
        "area_city_name": "京都市北区",
        "area_town_code": "261010090000",
        "area_town_name": "上賀茂ケシ山",
        "area_lat": 35.060822,
        "area_lng": 135.768998
    },
    {
        "area_city_code": 26101,
        "area_city_name": "京都市北区",
        "area_town_code": "261010091000",
        "area_town_name": "上賀茂神山",
        "area_lat": 35.075998,
        "area_lng": 135.750084
    },
    {
        "area_city_code": 26101,
        "area_city_name": "京都市北区",
        "area_town_code": "261010092000",
        "area_town_name": "上賀茂榊田町",
        "area_lat": 35.054371,
        "area_lng": 135.76532
    },
    {
        "area_city_code": 26101,
        "area_city_name": "京都市北区",
        "area_town_code": "261010093000",
        "area_town_name": "上賀茂坂口町",
        "area_lat": 35.067552,
        "area_lng": 135.751814
    },
    {
        "area_city_code": 26101,
        "area_city_name": "京都市北区",
        "area_town_code": "261010094000",
        "area_town_name": "上賀茂桜井町",
        "area_lat": 35.051619,
        "area_lng": 135.761536
    },
    {
        "area_city_code": 26101,
        "area_city_name": "京都市北区",
        "area_town_code": "261010095000",
        "area_town_name": "上賀茂下神原町",
        "area_lat": 35.067957,
        "area_lng": 135.754924
    },
    {
        "area_city_code": 26101,
        "area_city_name": "京都市北区",
        "area_town_code": "261010096000",
        "area_town_name": "上賀茂十三石山",
        "area_lat": 35.102772,
        "area_lng": 135.73729
    },
    {
        "area_city_code": 26101,
        "area_city_name": "京都市北区",
        "area_town_code": "261010097000",
        "area_town_name": "上賀茂菖蒲園町",
        "area_lat": 35.053447,
        "area_lng": 135.756185
    },
    {
        "area_city_code": 26101,
        "area_city_name": "京都市北区",
        "area_town_code": "261010098000",
        "area_town_name": "上賀茂蝉ケ垣内町",
        "area_lat": 35.055941,
        "area_lng": 135.75914
    },
    {
        "area_city_code": 26101,
        "area_city_name": "京都市北区",
        "area_town_code": "261010099000",
        "area_town_name": "上賀茂高縄手町",
        "area_lat": 35.053194,
        "area_lng": 135.761519
    },
    {
        "area_city_code": 26101,
        "area_city_name": "京都市北区",
        "area_town_code": "261010100000",
        "area_town_name": "上賀茂竹ケ鼻町",
        "area_lat": 35.057307,
        "area_lng": 135.758115
    },
    {
        "area_city_code": 26101,
        "area_city_name": "京都市北区",
        "area_town_code": "261010101000",
        "area_town_name": "上賀茂土門町",
        "area_lat": 35.055435,
        "area_lng": 135.761503
    },
    {
        "area_city_code": 26101,
        "area_city_name": "京都市北区",
        "area_town_code": "261010102000",
        "area_town_name": "上賀茂津ノ国町",
        "area_lat": 35.070317,
        "area_lng": 135.746785
    },
    {
        "area_city_code": 26101,
        "area_city_name": "京都市北区",
        "area_town_code": "261010103000",
        "area_town_name": "上賀茂豊田町",
        "area_lat": 35.057,
        "area_lng": 135.764442
    },
    {
        "area_city_code": 26101,
        "area_city_name": "京都市北区",
        "area_town_code": "261010104000",
        "area_town_name": "上賀茂中大路町",
        "area_lat": 35.056586,
        "area_lng": 135.75482
    },
    {
        "area_city_code": 26101,
        "area_city_name": "京都市北区",
        "area_town_code": "261010105000",
        "area_town_name": "上賀茂中嶋河原町",
        "area_lat": 35.077761,
        "area_lng": 135.742612
    },
    {
        "area_city_code": 26101,
        "area_city_name": "京都市北区",
        "area_town_code": "261010106000",
        "area_town_name": "上賀茂中ノ河原町",
        "area_lat": 35.067451,
        "area_lng": 135.746514
    },
    {
        "area_city_code": 26101,
        "area_city_name": "京都市北区",
        "area_town_code": "261010107000",
        "area_town_name": "上賀茂中ノ坂町",
        "area_lat": 35.067667,
        "area_lng": 135.749679
    },
    {
        "area_city_code": 26101,
        "area_city_name": "京都市北区",
        "area_town_code": "261010108000",
        "area_town_name": "上賀茂中山町",
        "area_lat": 35.068449,
        "area_lng": 135.74783
    },
    {
        "area_city_code": 26101,
        "area_city_name": "京都市北区",
        "area_town_code": "261010109000",
        "area_town_name": "上賀茂二軒家町",
        "area_lat": 35.077058,
        "area_lng": 135.764612
    },
    {
        "area_city_code": 26101,
        "area_city_name": "京都市北区",
        "area_town_code": "261010110000",
        "area_town_name": "上賀茂西上之段町",
        "area_lat": 35.07089,
        "area_lng": 135.748339
    },
    {
        "area_city_code": 26101,
        "area_city_name": "京都市北区",
        "area_town_code": "261010111000",
        "area_town_name": "上賀茂西河原町",
        "area_lat": 35.06648,
        "area_lng": 135.746215
    },
    {
        "area_city_code": 26101,
        "area_city_name": "京都市北区",
        "area_town_code": "261010112000",
        "area_town_name": "上賀茂西後藤町",
        "area_lat": 35.071827,
        "area_lng": 135.749294
    },
    {
        "area_city_code": 26101,
        "area_city_name": "京都市北区",
        "area_town_code": "261010113000",
        "area_town_name": "上賀茂狭間町",
        "area_lat": 35.06005,
        "area_lng": 135.766952
    },
    {
        "area_city_code": 26101,
        "area_city_name": "京都市北区",
        "area_town_code": "261010114000",
        "area_town_name": "上賀茂柊谷町",
        "area_lat": 35.075342,
        "area_lng": 135.744969
    },
    {
        "area_city_code": 26101,
        "area_city_name": "京都市北区",
        "area_town_code": "261010115000",
        "area_town_name": "上賀茂東上之段町",
        "area_lat": 35.068934,
        "area_lng": 135.750717
    },
    {
        "area_city_code": 26101,
        "area_city_name": "京都市北区",
        "area_town_code": "261010116000",
        "area_town_name": "上賀茂東後藤町",
        "area_lat": 35.070479,
        "area_lng": 135.751319
    },
    {
        "area_city_code": 26101,
        "area_city_name": "京都市北区",
        "area_town_code": "261010117000",
        "area_town_name": "上賀茂備後田町",
        "area_lat": 35.068949,
        "area_lng": 135.753201
    },
    {
        "area_city_code": 26101,
        "area_city_name": "京都市北区",
        "area_town_code": "261010118000",
        "area_town_name": "上賀茂藤ノ木町",
        "area_lat": 35.058235,
        "area_lng": 135.756166
    },
    {
        "area_city_code": 26101,
        "area_city_name": "京都市北区",
        "area_town_code": "261010119000",
        "area_town_name": "上賀茂舟着町",
        "area_lat": 35.065941,
        "area_lng": 135.750061
    },
    {
        "area_city_code": 26101,
        "area_city_name": "京都市北区",
        "area_town_code": "261010120000",
        "area_town_name": "上賀茂前田町",
        "area_lat": 35.07353,
        "area_lng": 135.745235
    },
    {
        "area_city_code": 26101,
        "area_city_name": "京都市北区",
        "area_town_code": "261010121000",
        "area_town_name": "上賀茂松本町",
        "area_lat": 35.053268,
        "area_lng": 135.765359
    },
    {
        "area_city_code": 26101,
        "area_city_name": "京都市北区",
        "area_town_code": "261010122000",
        "area_town_name": "上賀茂御薗口町",
        "area_lat": 35.056456,
        "area_lng": 135.752568
    },
    {
        "area_city_code": 26101,
        "area_city_name": "京都市北区",
        "area_town_code": "261010123000",
        "area_town_name": "上賀茂深泥池町",
        "area_lat": 35.059363,
        "area_lng": 135.766329
    },
    {
        "area_city_code": 26101,
        "area_city_name": "京都市北区",
        "area_town_code": "261010124000",
        "area_town_name": "上賀茂南大路町",
        "area_lat": 35.056275,
        "area_lng": 135.755932
    },
    {
        "area_city_code": 26101,
        "area_city_name": "京都市北区",
        "area_town_code": "261010125000",
        "area_town_name": "上賀茂向梅町",
        "area_lat": 35.057313,
        "area_lng": 135.760212
    },
    {
        "area_city_code": 26101,
        "area_city_name": "京都市北区",
        "area_town_code": "261010126000",
        "area_town_name": "上賀茂向縄手町",
        "area_lat": 35.056677,
        "area_lng": 135.761494
    },
    {
        "area_city_code": 26101,
        "area_city_name": "京都市北区",
        "area_town_code": "261010127000",
        "area_town_name": "上賀茂女夫岩町",
        "area_lat": 35.070246,
        "area_lng": 135.745502
    },
    {
        "area_city_code": 26101,
        "area_city_name": "京都市北区",
        "area_town_code": "261010128000",
        "area_town_name": "上賀茂本山",
        "area_lat": 35.066345,
        "area_lng": 135.754211
    },
    {
        "area_city_code": 26101,
        "area_city_name": "京都市北区",
        "area_town_code": "261010129000",
        "area_town_name": "上賀茂薮田町",
        "area_lat": 35.053003,
        "area_lng": 135.758701
    },
    {
        "area_city_code": 26101,
        "area_city_name": "京都市北区",
        "area_town_code": "261010130000",
        "area_town_name": "上賀茂山本町",
        "area_lat": 35.058735,
        "area_lng": 135.754706
    },
    {
        "area_city_code": 26101,
        "area_city_name": "京都市北区",
        "area_town_code": "261010131000",
        "area_town_name": "上賀茂六段田町",
        "area_lat": 35.073938,
        "area_lng": 135.747582
    },
    {
        "area_city_code": 26101,
        "area_city_name": "京都市北区",
        "area_town_code": "261010132000",
        "area_town_name": "上御霊上江町",
        "area_lat": 35.037861,
        "area_lng": 135.760023
    },
    {
        "area_city_code": 26101,
        "area_city_name": "京都市北区",
        "area_town_code": "261010133000",
        "area_town_name": "上清蔵口町",
        "area_lat": 35.037912,
        "area_lng": 135.755731
    },
    {
        "area_city_code": 26101,
        "area_city_name": "京都市北区",
        "area_town_code": "261010134000",
        "area_town_name": "北野上白梅町",
        "area_lat": 35.028013,
        "area_lng": 135.731557
    },
    {
        "area_city_code": 26101,
        "area_city_name": "京都市北区",
        "area_town_code": "261010135000",
        "area_town_name": "北野紅梅町",
        "area_lat": 35.02934,
        "area_lng": 135.730562
    },
    {
        "area_city_code": 26101,
        "area_city_name": "京都市北区",
        "area_town_code": "261010136000",
        "area_town_name": "北野下白梅町",
        "area_lat": 35.02688,
        "area_lng": 135.731393
    },
    {
        "area_city_code": 26101,
        "area_city_name": "京都市北区",
        "area_town_code": "261010137000",
        "area_town_name": "北野西白梅町",
        "area_lat": 35.026886,
        "area_lng": 135.72867
    },
    {
        "area_city_code": 26101,
        "area_city_name": "京都市北区",
        "area_town_code": "261010138000",
        "area_town_name": "北野東紅梅町",
        "area_lat": 35.029243,
        "area_lng": 135.732571
    },
    {
        "area_city_code": 26101,
        "area_city_name": "京都市北区",
        "area_town_code": "261010139000",
        "area_town_name": "衣笠赤阪町",
        "area_lat": 35.039658,
        "area_lng": 135.721433
    },
    {
        "area_city_code": 26101,
        "area_city_name": "京都市北区",
        "area_town_code": "261010140000",
        "area_town_name": "衣笠荒見町",
        "area_lat": 35.036745,
        "area_lng": 135.735465
    },
    {
        "area_city_code": 26101,
        "area_city_name": "京都市北区",
        "area_town_code": "261010141000",
        "area_town_name": "衣笠大祓町",
        "area_lat": 35.034092,
        "area_lng": 135.733765
    },
    {
        "area_city_code": 26101,
        "area_city_name": "京都市北区",
        "area_town_code": "261010142000",
        "area_town_name": "衣笠街道町",
        "area_lat": 35.038164,
        "area_lng": 135.733964
    },
    {
        "area_city_code": 26101,
        "area_city_name": "京都市北区",
        "area_town_code": "261010143000",
        "area_town_name": "衣笠鏡石町",
        "area_lat": 35.048723,
        "area_lng": 135.733925
    },
    {
        "area_city_code": 26101,
        "area_city_name": "京都市北区",
        "area_town_code": "261010144000",
        "area_town_name": "衣笠北荒見町",
        "area_lat": 35.039719,
        "area_lng": 135.736056
    },
    {
        "area_city_code": 26101,
        "area_city_name": "京都市北区",
        "area_town_code": "261010145000",
        "area_town_name": "衣笠北高橋町",
        "area_lat": 35.036702,
        "area_lng": 135.734065
    },
    {
        "area_city_code": 26101,
        "area_city_name": "京都市北区",
        "area_town_code": "261010146000",
        "area_town_name": "衣笠北天神森町",
        "area_lat": 35.038219,
        "area_lng": 135.732523
    },
    {
        "area_city_code": 26101,
        "area_city_name": "京都市北区",
        "area_town_code": "261010147000",
        "area_town_name": "衣笠衣笠山町",
        "area_lat": 35.036066,
        "area_lng": 135.723991
    },
    {
        "area_city_code": 26101,
        "area_city_name": "京都市北区",
        "area_town_code": "261010148000",
        "area_town_name": "衣笠御所ノ内町",
        "area_lat": 35.040219,
        "area_lng": 135.733601
    },
    {
        "area_city_code": 26101,
        "area_city_name": "京都市北区",
        "area_town_code": "261010149000",
        "area_town_name": "衣笠総門町",
        "area_lat": 35.036675,
        "area_lng": 135.730134
    },
    {
        "area_city_code": 26101,
        "area_city_name": "京都市北区",
        "area_town_code": "261010150000",
        "area_town_name": "衣笠高橋町",
        "area_lat": 35.035395,
        "area_lng": 135.733879
    },
    {
        "area_city_code": 26101,
        "area_city_name": "京都市北区",
        "area_town_code": "261010151000",
        "area_town_name": "衣笠天神森町",
        "area_lat": 35.035952,
        "area_lng": 135.732118
    },
    {
        "area_city_code": 26101,
        "area_city_name": "京都市北区",
        "area_town_code": "261010152000",
        "area_town_name": "衣笠西御所ノ内町",
        "area_lat": 35.040526,
        "area_lng": 135.732483
    },
    {
        "area_city_code": 26101,
        "area_city_name": "京都市北区",
        "area_town_code": "261010153000",
        "area_town_name": "衣笠西尊上院町",
        "area_lat": 35.042376,
        "area_lng": 135.732896
    },
    {
        "area_city_code": 26101,
        "area_city_name": "京都市北区",
        "area_town_code": "261010154000",
        "area_town_name": "衣笠西馬場町",
        "area_lat": 35.037464,
        "area_lng": 135.728461
    },
    {
        "area_city_code": 26101,
        "area_city_name": "京都市北区",
        "area_town_code": "261010155000",
        "area_town_name": "衣笠西開キ町",
        "area_lat": 35.042499,
        "area_lng": 135.734848
    },
    {
        "area_city_code": 26101,
        "area_city_name": "京都市北区",
        "area_town_code": "261010156000",
        "area_town_name": "衣笠馬場町",
        "area_lat": 35.038308,
        "area_lng": 135.731253
    },
    {
        "area_city_code": 26101,
        "area_city_name": "京都市北区",
        "area_town_code": "261010157000",
        "area_town_name": "衣笠東御所ノ内町",
        "area_lat": 35.040167,
        "area_lng": 135.734897
    },
    {
        "area_city_code": 26101,
        "area_city_name": "京都市北区",
        "area_town_code": "261010158000",
        "area_town_name": "衣笠東尊上院町",
        "area_lat": 35.0425,
        "area_lng": 135.73388
    },
    {
        "area_city_code": 26101,
        "area_city_name": "京都市北区",
        "area_town_code": "261010159000",
        "area_town_name": "衣笠東開キ町",
        "area_lat": 35.042403,
        "area_lng": 135.735862
    },
    {
        "area_city_code": 26101,
        "area_city_name": "京都市北区",
        "area_town_code": "261010160000",
        "area_town_name": "衣笠氷室町",
        "area_lat": 35.040223,
        "area_lng": 135.725779
    },
    {
        "area_city_code": 26101,
        "area_city_name": "京都市北区",
        "area_town_code": "261010161000",
        "area_town_name": "衣笠開キ町",
        "area_lat": 35.044637,
        "area_lng": 135.734544
    },
    {
        "area_city_code": 26101,
        "area_city_name": "京都市北区",
        "area_town_code": "261010162000",
        "area_town_name": "金閣寺町",
        "area_lat": 35.039524,
        "area_lng": 135.729533
    },
    {
        "area_city_code": 26101,
        "area_city_name": "京都市北区",
        "area_town_code": "261010163000",
        "area_town_name": "雲ケ畑出谷町",
        "area_lat": 35.141394,
        "area_lng": 135.719284
    },
    {
        "area_city_code": 26101,
        "area_city_name": "京都市北区",
        "area_town_code": "261010164000",
        "area_town_name": "雲ケ畑中津川町",
        "area_lat": 35.137443,
        "area_lng": 135.736373
    },
    {
        "area_city_code": 26101,
        "area_city_name": "京都市北区",
        "area_town_code": "261010165000",
        "area_town_name": "雲ケ畑中畑町",
        "area_lat": 35.110586,
        "area_lng": 135.716725
    },
    {
        "area_city_code": 26101,
        "area_city_name": "京都市北区",
        "area_town_code": "261010166000",
        "area_town_name": "鞍馬口町",
        "area_lat": 35.037963,
        "area_lng": 135.764689
    },
    {
        "area_city_code": 26101,
        "area_city_name": "京都市北区",
        "area_town_code": "261010167000",
        "area_town_name": "小松原北町",
        "area_lat": 35.032374,
        "area_lng": 135.726781
    },
    {
        "area_city_code": 26101,
        "area_city_name": "京都市北区",
        "area_town_code": "261010168000",
        "area_town_name": "小松原南町",
        "area_lat": 35.028866,
        "area_lng": 135.728726
    },
    {
        "area_city_code": 26101,
        "area_city_name": "京都市北区",
        "area_town_code": "261010169000",
        "area_town_name": "小山板倉町",
        "area_lat": 35.046474,
        "area_lng": 135.756044
    },
    {
        "area_city_code": 26101,
        "area_city_name": "京都市北区",
        "area_town_code": "261010170000",
        "area_town_name": "小山上板倉町",
        "area_lat": 35.048168,
        "area_lng": 135.756018
    },
    {
        "area_city_code": 26101,
        "area_city_name": "京都市北区",
        "area_town_code": "261010171000",
        "area_town_name": "小山上内河原町",
        "area_lat": 35.04798,
        "area_lng": 135.758907
    },
    {
        "area_city_code": 26101,
        "area_city_name": "京都市北区",
        "area_town_code": "261010172000",
        "area_town_name": "小山上初音町",
        "area_lat": 35.04815,
        "area_lng": 135.754655
    },
    {
        "area_city_code": 26101,
        "area_city_name": "京都市北区",
        "area_town_code": "261010173000",
        "area_town_name": "小山上花ノ木町",
        "area_lat": 35.048245,
        "area_lng": 135.757446
    },
    {
        "area_city_code": 26101,
        "area_city_name": "京都市北区",
        "area_town_code": "261010174000",
        "area_town_name": "小山上総町",
        "area_lat": 35.042548,
        "area_lng": 135.759065
    },
    {
        "area_city_code": 26101,
        "area_city_name": "京都市北区",
        "area_town_code": "261010175000",
        "area_town_name": "小山北大野町",
        "area_lat": 35.043207,
        "area_lng": 135.754511
    },
    {
        "area_city_code": 26101,
        "area_city_name": "京都市北区",
        "area_town_code": "261010176000",
        "area_town_name": "小山北上総町",
        "area_lat": 35.045021,
        "area_lng": 135.758779
    },
    {
        "area_city_code": 26101,
        "area_city_name": "京都市北区",
        "area_town_code": "261010177000",
        "area_town_name": "小山北玄以町",
        "area_lat": 35.052885,
        "area_lng": 135.754863
    },
    {
        "area_city_code": 26101,
        "area_city_name": "京都市北区",
        "area_town_code": "261010178000",
        "area_town_name": "小山下板倉町",
        "area_lat": 35.044898,
        "area_lng": 135.755953
    },
    {
        "area_city_code": 26101,
        "area_city_name": "京都市北区",
        "area_town_code": "261010179000",
        "area_town_name": "小山下内河原町",
        "area_lat": 35.044741,
        "area_lng": 135.760928
    },
    {
        "area_city_code": 26101,
        "area_city_name": "京都市北区",
        "area_town_code": "261010180000",
        "area_town_name": "小山下初音町",
        "area_lat": 35.044877,
        "area_lng": 135.754584
    },
    {
        "area_city_code": 26101,
        "area_city_name": "京都市北区",
        "area_town_code": "261010181000",
        "area_town_name": "小山下花ノ木町",
        "area_lat": 35.044917,
        "area_lng": 135.757274
    },
    {
        "area_city_code": 26101,
        "area_city_name": "京都市北区",
        "area_town_code": "261010182000",
        "area_town_name": "小山下総町",
        "area_lat": 35.03923,
        "area_lng": 135.758962
    },
    {
        "area_city_code": 26101,
        "area_city_name": "京都市北区",
        "area_town_code": "261010183000",
        "area_town_name": "小山町",
        "area_lat": 35.037876,
        "area_lng": 135.758398
    },
    {
        "area_city_code": 26101,
        "area_city_name": "京都市北区",
        "area_town_code": "261010184000",
        "area_town_name": "小山中溝町",
        "area_lat": 35.038537,
        "area_lng": 135.756077
    },
    {
        "area_city_code": 26101,
        "area_city_name": "京都市北区",
        "area_town_code": "261010185000",
        "area_town_name": "小山西大野町",
        "area_lat": 35.041884,
        "area_lng": 135.753978
    },
    {
        "area_city_code": 26101,
        "area_city_name": "京都市北区",
        "area_town_code": "261010186000",
        "area_town_name": "小山西上総町",
        "area_lat": 35.043611,
        "area_lng": 135.756409
    },
    {
        "area_city_code": 26101,
        "area_city_name": "京都市北区",
        "area_town_code": "261010187000",
        "area_town_name": "小山西玄以町",
        "area_lat": 35.051417,
        "area_lng": 135.754466
    },
    {
        "area_city_code": 26101,
        "area_city_name": "京都市北区",
        "area_town_code": "261010188000",
        "area_town_name": "小山西花池町",
        "area_lat": 35.040733,
        "area_lng": 135.760058
    },
    {
        "area_city_code": 26101,
        "area_city_name": "京都市北区",
        "area_town_code": "261010189000",
        "area_town_name": "小山西元町",
        "area_lat": 35.049943,
        "area_lng": 135.75455
    },
    {
        "area_city_code": 26101,
        "area_city_name": "京都市北区",
        "area_town_code": "261010190000",
        "area_town_name": "小山初音町",
        "area_lat": 35.04648,
        "area_lng": 135.754704
    },
    {
        "area_city_code": 26101,
        "area_city_name": "京都市北区",
        "area_town_code": "261010191000",
        "area_town_name": "小山花ノ木町",
        "area_lat": 35.046566,
        "area_lng": 135.75772
    },
    {
        "area_city_code": 26101,
        "area_city_name": "京都市北区",
        "area_town_code": "261010192000",
        "area_town_name": "小山東大野町",
        "area_lat": 35.042509,
        "area_lng": 135.756434
    },
    {
        "area_city_code": 26101,
        "area_city_name": "京都市北区",
        "area_town_code": "261010193000",
        "area_town_name": "小山東玄以町",
        "area_lat": 35.051747,
        "area_lng": 135.756139
    },
    {
        "area_city_code": 26101,
        "area_city_name": "京都市北区",
        "area_town_code": "261010194000",
        "area_town_name": "小山東花池町",
        "area_lat": 35.04202,
        "area_lng": 135.761292
    },
    {
        "area_city_code": 26101,
        "area_city_name": "京都市北区",
        "area_town_code": "261010195000",
        "area_town_name": "小山東元町",
        "area_lat": 35.050389,
        "area_lng": 135.757342
    },
    {
        "area_city_code": 26101,
        "area_city_name": "京都市北区",
        "area_town_code": "261010196000",
        "area_town_name": "小山堀池町",
        "area_lat": 35.039874,
        "area_lng": 135.761822
    },
    {
        "area_city_code": 26101,
        "area_city_name": "京都市北区",
        "area_town_code": "261010197000",
        "area_town_name": "小山南大野町",
        "area_lat": 35.040104,
        "area_lng": 135.756034
    },
    {
        "area_city_code": 26101,
        "area_city_name": "京都市北区",
        "area_town_code": "261010198000",
        "area_town_name": "小山南上総町",
        "area_lat": 35.040588,
        "area_lng": 135.758267
    },
    {
        "area_city_code": 26101,
        "area_city_name": "京都市北区",
        "area_town_code": "261010199000",
        "area_town_name": "小山元町",
        "area_lat": 35.050018,
        "area_lng": 135.755893
    },
    {
        "area_city_code": 26101,
        "area_city_name": "京都市北区",
        "area_town_code": "261010200000",
        "area_town_name": "紫竹牛若町",
        "area_lat": 35.048239,
        "area_lng": 135.744997
    },
    {
        "area_city_code": 26101,
        "area_city_name": "京都市北区",
        "area_town_code": "261010201000",
        "area_town_name": "紫竹上梅ノ木町",
        "area_lat": 35.048088,
        "area_lng": 135.753098
    },
    {
        "area_city_code": 26101,
        "area_city_name": "京都市北区",
        "area_town_code": "261010202000",
        "area_town_name": "紫竹上高才町",
        "area_lat": 35.051432,
        "area_lng": 135.753144
    },
    {
        "area_city_code": 26101,
        "area_city_name": "京都市北区",
        "area_town_code": "261010203000",
        "area_town_name": "紫竹上芝本町",
        "area_lat": 35.051159,
        "area_lng": 135.750231
    },
    {
        "area_city_code": 26101,
        "area_city_name": "京都市北区",
        "area_town_code": "261010204000",
        "area_town_name": "紫竹上園生町",
        "area_lat": 35.054182,
        "area_lng": 135.7499
    },
    {
        "area_city_code": 26101,
        "area_city_name": "京都市北区",
        "area_town_code": "261010205000",
        "area_town_name": "紫竹上竹殿町",
        "area_lat": 35.053948,
        "area_lng": 135.748551
    },
    {
        "area_city_code": 26101,
        "area_city_name": "京都市北区",
        "area_town_code": "261010206000",
        "area_town_name": "紫竹上長目町",
        "area_lat": 35.054572,
        "area_lng": 135.752949
    },
    {
        "area_city_code": 26101,
        "area_city_name": "京都市北区",
        "area_town_code": "261010207000",
        "area_town_name": "紫竹上ノ岸町",
        "area_lat": 35.054348,
        "area_lng": 135.751372
    },
    {
        "area_city_code": 26101,
        "area_city_name": "京都市北区",
        "area_town_code": "261010208000",
        "area_town_name": "紫竹上堀川町",
        "area_lat": 35.056011,
        "area_lng": 135.751334
    },
    {
        "area_city_code": 26101,
        "area_city_name": "京都市北区",
        "area_town_code": "261010209000",
        "area_town_name": "紫竹上本町",
        "area_lat": 35.051426,
        "area_lng": 135.75171
    },
    {
        "area_city_code": 26101,
        "area_city_name": "京都市北区",
        "area_town_code": "261010210000",
        "area_town_name": "紫竹上緑町",
        "area_lat": 35.051316,
        "area_lng": 135.748478
    },
    {
        "area_city_code": 26101,
        "area_city_name": "京都市北区",
        "area_town_code": "261010211000",
        "area_town_name": "紫竹北栗栖町",
        "area_lat": 35.051833,
        "area_lng": 135.743406
    },
    {
        "area_city_code": 26101,
        "area_city_name": "京都市北区",
        "area_town_code": "261010212000",
        "area_town_name": "紫竹北大門町",
        "area_lat": 35.053352,
        "area_lng": 135.745523
    },
    {
        "area_city_code": 26101,
        "area_city_name": "京都市北区",
        "area_town_code": "261010213000",
        "area_town_name": "紫竹栗栖町",
        "area_lat": 35.049992,
        "area_lng": 135.743418
    },
    {
        "area_city_code": 26101,
        "area_city_name": "京都市北区",
        "area_town_code": "261010214000",
        "area_town_name": "紫竹下梅ノ木町",
        "area_lat": 35.046422,
        "area_lng": 135.753145
    },
    {
        "area_city_code": 26101,
        "area_city_name": "京都市北区",
        "area_town_code": "261010215000",
        "area_town_name": "紫竹下高才町",
        "area_lat": 35.049835,
        "area_lng": 135.753117
    },
    {
        "area_city_code": 26101,
        "area_city_name": "京都市北区",
        "area_town_code": "261010216000",
        "area_town_name": "紫竹下芝本町",
        "area_lat": 35.049646,
        "area_lng": 135.749901
    },
    {
        "area_city_code": 26101,
        "area_city_name": "京都市北区",
        "area_town_code": "261010217000",
        "area_town_name": "紫竹下園生町",
        "area_lat": 35.052648,
        "area_lng": 135.749918
    },
    {
        "area_city_code": 26101,
        "area_city_name": "京都市北区",
        "area_town_code": "261010218000",
        "area_town_name": "紫竹下竹殿町",
        "area_lat": 35.052628,
        "area_lng": 135.748532
    },
    {
        "area_city_code": 26101,
        "area_city_name": "京都市北区",
        "area_town_code": "261010219000",
        "area_town_name": "紫竹下長目町",
        "area_lat": 35.052824,
        "area_lng": 135.753003
    },
    {
        "area_city_code": 26101,
        "area_city_name": "京都市北区",
        "area_town_code": "261010220000",
        "area_town_name": "紫竹下ノ岸町",
        "area_lat": 35.052784,
        "area_lng": 135.751453
    },
    {
        "area_city_code": 26101,
        "area_city_name": "京都市北区",
        "area_town_code": "261010221000",
        "area_town_name": "紫竹下本町",
        "area_lat": 35.04983,
        "area_lng": 135.751522
    },
    {
        "area_city_code": 26101,
        "area_city_name": "京都市北区",
        "area_town_code": "261010222000",
        "area_town_name": "紫竹下緑町",
        "area_lat": 35.049771,
        "area_lng": 135.748192
    },
    {
        "area_city_code": 26101,
        "area_city_name": "京都市北区",
        "area_town_code": "261010223000",
        "area_town_name": "紫竹西南町",
        "area_lat": 35.046787,
        "area_lng": 135.746076
    },
    {
        "area_city_code": 26101,
        "area_city_name": "京都市北区",
        "area_town_code": "261010224000",
        "area_town_name": "紫竹西北町",
        "area_lat": 35.049688,
        "area_lng": 135.746701
    },
    {
        "area_city_code": 26101,
        "area_city_name": "京都市北区",
        "area_town_code": "261010225000",
        "area_town_name": "紫竹大門町",
        "area_lat": 35.051901,
        "area_lng": 135.746125
    },
    {
        "area_city_code": 26101,
        "area_city_name": "京都市北区",
        "area_town_code": "261010226000",
        "area_town_name": "紫竹高縄町",
        "area_lat": 35.046384,
        "area_lng": 135.750043
    },
    {
        "area_city_code": 26101,
        "area_city_name": "京都市北区",
        "area_town_code": "261010227000",
        "area_town_name": "紫竹竹殿町",
        "area_lat": 35.053692,
        "area_lng": 135.747279
    },
    {
        "area_city_code": 26101,
        "area_city_name": "京都市北区",
        "area_town_code": "261010228000",
        "area_town_name": "紫竹西栗栖町",
        "area_lat": 35.051792,
        "area_lng": 135.741938
    },
    {
        "area_city_code": 26101,
        "area_city_name": "京都市北区",
        "area_town_code": "261010229000",
        "area_town_name": "紫竹西大門町",
        "area_lat": 35.051862,
        "area_lng": 135.744805
    },
    {
        "area_city_code": 26101,
        "area_city_name": "京都市北区",
        "area_town_code": "261010230000",
        "area_town_name": "紫竹西高縄町",
        "area_lat": 35.04639,
        "area_lng": 135.748308
    },
    {
        "area_city_code": 26101,
        "area_city_name": "京都市北区",
        "area_town_code": "261010231000",
        "area_town_name": "紫竹西野山町",
        "area_lat": 35.050177,
        "area_lng": 135.740684
    },
    {
        "area_city_code": 26101,
        "area_city_name": "京都市北区",
        "area_town_code": "261010232000",
        "area_town_name": "紫竹西野山東町",
        "area_lat": 35.049929,
        "area_lng": 135.741807
    },
    {
        "area_city_code": 26101,
        "area_city_name": "京都市北区",
        "area_town_code": "261010233000",
        "area_town_name": "紫竹西桃ノ本町",
        "area_lat": 35.048103,
        "area_lng": 135.748512
    },
    {
        "area_city_code": 26101,
        "area_city_name": "京都市北区",
        "area_town_code": "261010234000",
        "area_town_name": "紫竹東栗栖町",
        "area_lat": 35.050044,
        "area_lng": 135.745108
    },
    {
        "area_city_code": 26101,
        "area_city_name": "京都市北区",
        "area_town_code": "261010235000",
        "area_town_name": "紫竹東大門町",
        "area_lat": 35.052168,
        "area_lng": 135.747215
    },
    {
        "area_city_code": 26101,
        "area_city_name": "京都市北区",
        "area_town_code": "261010236000",
        "area_town_name": "紫竹東高縄町",
        "area_lat": 35.046454,
        "area_lng": 135.751564
    },
    {
        "area_city_code": 26101,
        "area_city_name": "京都市北区",
        "area_town_code": "261010237000",
        "area_town_name": "紫竹東桃ノ本町",
        "area_lat": 35.048065,
        "area_lng": 135.75157
    },
    {
        "area_city_code": 26101,
        "area_city_name": "京都市北区",
        "area_town_code": "261010238000",
        "area_town_name": "紫竹桃ノ本町",
        "area_lat": 35.048083,
        "area_lng": 135.75013
    },
    {
        "area_city_code": 26101,
        "area_city_name": "京都市北区",
        "area_town_code": "261010239000",
        "area_town_name": "上善寺門前町",
        "area_lat": 35.038745,
        "area_lng": 135.763077
    },
    {
        "area_city_code": 26101,
        "area_city_name": "京都市北区",
        "area_town_code": "261010240000",
        "area_town_name": "新御霊口町",
        "area_lat": 35.03778,
        "area_lng": 135.761806
    },
    {
        "area_city_code": 26101,
        "area_city_name": "京都市北区",
        "area_town_code": "261010241000",
        "area_town_name": "杉阪北尾",
        "area_lat": 35.106384,
        "area_lng": 135.693251
    },
    {
        "area_city_code": 26101,
        "area_city_name": "京都市北区",
        "area_town_code": "261010242000",
        "area_town_name": "杉阪道風町",
        "area_lat": 35.091302,
        "area_lng": 135.703796
    },
    {
        "area_city_code": 26101,
        "area_city_name": "京都市北区",
        "area_town_code": "261010243000",
        "area_town_name": "杉阪東谷",
        "area_lat": 35.099161,
        "area_lng": 135.706028
    },
    {
        "area_city_code": 26101,
        "area_city_name": "京都市北区",
        "area_town_code": "261010244000",
        "area_town_name": "杉阪南谷",
        "area_lat": 35.091177,
        "area_lng": 135.699958
    },
    {
        "area_city_code": 26101,
        "area_city_name": "京都市北区",
        "area_town_code": "261010245000",
        "area_town_name": "杉阪都町",
        "area_lat": 35.097127,
        "area_lng": 135.69793
    },
    {
        "area_city_code": 26101,
        "area_city_name": "京都市北区",
        "area_town_code": "261010246000",
        "area_town_name": "大将軍一条町",
        "area_lat": 35.025517,
        "area_lng": 135.72838
    },
    {
        "area_city_code": 26101,
        "area_city_name": "京都市北区",
        "area_town_code": "261010247000",
        "area_town_name": "大将軍川端町",
        "area_lat": 35.025025,
        "area_lng": 135.73229
    },
    {
        "area_city_code": 26101,
        "area_city_name": "京都市北区",
        "area_town_code": "261010248000",
        "area_town_name": "大将軍坂田町",
        "area_lat": 35.024339,
        "area_lng": 135.725775
    },
    {
        "area_city_code": 26101,
        "area_city_name": "京都市北区",
        "area_town_code": "261010249000",
        "area_town_name": "大将軍西鷹司町",
        "area_lat": 35.023134,
        "area_lng": 135.728378
    },
    {
        "area_city_code": 26101,
        "area_city_name": "京都市北区",
        "area_town_code": "261010250000",
        "area_town_name": "大将軍西町",
        "area_lat": 35.024765,
        "area_lng": 135.73073
    },
    {
        "area_city_code": 26101,
        "area_city_name": "京都市北区",
        "area_town_code": "261010251000",
        "area_town_name": "大将軍東鷹司町",
        "area_lat": 35.023113,
        "area_lng": 135.73153
    },
    {
        "area_city_code": 26101,
        "area_city_name": "京都市北区",
        "area_town_code": "261010252000",
        "area_town_name": "大将軍南一条町",
        "area_lat": 35.024262,
        "area_lng": 135.728097
    },
    {
        "area_city_code": 26101,
        "area_city_name": "京都市北区",
        "area_town_code": "261010253000",
        "area_town_name": "鷹峯赤坂",
        "area_lat": 35.070264,
        "area_lng": 135.713184
    },
    {
        "area_city_code": 26101,
        "area_city_name": "京都市北区",
        "area_town_code": "261010254000",
        "area_town_name": "鷹峯一ノ坂",
        "area_lat": 35.058892,
        "area_lng": 135.72189
    },
    {
        "area_city_code": 26101,
        "area_city_name": "京都市北区",
        "area_town_code": "261010255000",
        "area_town_name": "鷹峯牛ケ首",
        "area_lat": 35.076206,
        "area_lng": 135.711838
    },
    {
        "area_city_code": 26101,
        "area_city_name": "京都市北区",
        "area_town_code": "261010256000",
        "area_town_name": "鷹峯扇ケ原",
        "area_lat": 35.076585,
        "area_lng": 135.696356
    },
    {
        "area_city_code": 26101,
        "area_city_name": "京都市北区",
        "area_town_code": "261010257000",
        "area_town_name": "鷹峯大谷町",
        "area_lat": 35.06599,
        "area_lng": 135.710905
    },
    {
        "area_city_code": 26101,
        "area_city_name": "京都市北区",
        "area_town_code": "261010258000",
        "area_town_name": "鷹峯大山",
        "area_lat": 35.077417,
        "area_lng": 135.691931
    },
    {
        "area_city_code": 26101,
        "area_city_name": "京都市北区",
        "area_town_code": "261010259000",
        "area_town_name": "鷹峯奥長谷",
        "area_lat": 35.079604,
        "area_lng": 135.708041
    },
    {
        "area_city_code": 26101,
        "area_city_name": "京都市北区",
        "area_town_code": "261010260000",
        "area_town_name": "鷹峯株地",
        "area_lat": 35.080401,
        "area_lng": 135.702077
    },
    {
        "area_city_code": 26101,
        "area_city_name": "京都市北区",
        "area_town_code": "261010261000",
        "area_town_name": "鷹峯株地天ケ峰",
        "area_lat": 35.082225,
        "area_lng": 135.69993
    },
    {
        "area_city_code": 26101,
        "area_city_name": "京都市北区",
        "area_town_code": "261010262000",
        "area_town_name": "鷹峯上ノ町",
        "area_lat": 35.04804,
        "area_lng": 135.736045
    },
    {
        "area_city_code": 26101,
        "area_city_name": "京都市北区",
        "area_town_code": "261010263000",
        "area_town_name": "鷹峯冠岩",
        "area_lat": 35.064711,
        "area_lng": 135.714547
    },
    {
        "area_city_code": 26101,
        "area_city_name": "京都市北区",
        "area_town_code": "261010264000",
        "area_town_name": "鷹峯北鷹峯町",
        "area_lat": 35.055101,
        "area_lng": 135.731407
    },
    {
        "area_city_code": 26101,
        "area_city_name": "京都市北区",
        "area_town_code": "261010265000",
        "area_town_name": "鷹峯木ノ畑町",
        "area_lat": 35.044799,
        "area_lng": 135.737192
    },
    {
        "area_city_code": 26101,
        "area_city_name": "京都市北区",
        "area_town_code": "261010266000",
        "area_town_name": "鷹峯旧土居町",
        "area_lat": 35.046504,
        "area_lng": 135.736104
    },
    {
        "area_city_code": 26101,
        "area_city_name": "京都市北区",
        "area_town_code": "261010267000",
        "area_town_name": "鷹峯黒門町",
        "area_lat": 35.051548,
        "area_lng": 135.735145
    },
    {
        "area_city_code": 26101,
        "area_city_name": "京都市北区",
        "area_town_code": "261010268000",
        "area_town_name": "鷹峯光悦町",
        "area_lat": 35.05304,
        "area_lng": 135.730967
    },
    {
        "area_city_code": 26101,
        "area_city_name": "京都市北区",
        "area_town_code": "261010269000",
        "area_town_name": "鷹峯護法ケ谷",
        "area_lat": 35.056952,
        "area_lng": 135.711684
    },
    {
        "area_city_code": 26101,
        "area_city_name": "京都市北区",
        "area_town_code": "261010270000",
        "area_town_name": "鷹峯逆二ツ岩町",
        "area_lat": 35.08833,
        "area_lng": 135.695944
    },
    {
        "area_city_code": 26101,
        "area_city_name": "京都市北区",
        "area_town_code": "261010271000",
        "area_town_name": "鷹峯笹ケ尾",
        "area_lat": 35.0811,
        "area_lng": 135.704911
    },
    {
        "area_city_code": 26101,
        "area_city_name": "京都市北区",
        "area_town_code": "261010272000",
        "area_town_name": "鷹峯皿谷",
        "area_lat": 35.084077,
        "area_lng": 135.70803
    },
    {
        "area_city_code": 26101,
        "area_city_name": "京都市北区",
        "area_town_code": "261010273000",
        "area_town_name": "鷹峯地獄谷",
        "area_lat": 35.082232,
        "area_lng": 135.696898
    },
    {
        "area_city_code": 26101,
        "area_city_name": "京都市北区",
        "area_town_code": "261010274000",
        "area_town_name": "鷹峯滑地",
        "area_lat": 35.068243,
        "area_lng": 135.715239
    },
    {
        "area_city_code": 26101,
        "area_city_name": "京都市北区",
        "area_town_code": "261010275000",
        "area_town_name": "鷹峯千束町",
        "area_lat": 35.055386,
        "area_lng": 135.726767
    },
    {
        "area_city_code": 26101,
        "area_city_name": "京都市北区",
        "area_town_code": "261010276000",
        "area_town_name": "鷹峯大日町",
        "area_lat": 35.075111,
        "area_lng": 135.70757
    },
    {
        "area_city_code": 26101,
        "area_city_name": "京都市北区",
        "area_town_code": "261010277000",
        "area_town_name": "鷹峯土天井町",
        "area_lat": 35.051402,
        "area_lng": 135.733242
    },
    {
        "area_city_code": 26101,
        "area_city_name": "京都市北区",
        "area_town_code": "261010278000",
        "area_town_name": "鷹峯堂ノ庭町",
        "area_lat": 35.065957,
        "area_lng": 135.718104
    },
    {
        "area_city_code": 26101,
        "area_city_name": "京都市北区",
        "area_town_code": "261010279000",
        "area_town_name": "鷹峯長尾",
        "area_lat": 35.075594,
        "area_lng": 135.702108
    },
    {
        "area_city_code": 26101,
        "area_city_name": "京都市北区",
        "area_town_code": "261010280000",
        "area_town_name": "鷹峯長坂",
        "area_lat": 35.062722,
        "area_lng": 135.7193
    },
    {
        "area_city_code": 26101,
        "area_city_name": "京都市北区",
        "area_town_code": "261010281000",
        "area_town_name": "鷹峯西流尾",
        "area_lat": 35.068871,
        "area_lng": 135.70741
    },
    {
        "area_city_code": 26101,
        "area_city_name": "京都市北区",
        "area_town_code": "261010282000",
        "area_town_name": "鷹峯西菩提",
        "area_lat": 35.070658,
        "area_lng": 135.696085
    },
    {
        "area_city_code": 26101,
        "area_city_name": "京都市北区",
        "area_town_code": "261010283000",
        "area_town_name": "鷹峯八ケ所",
        "area_lat": 35.086988,
        "area_lng": 135.700535
    },
    {
        "area_city_code": 26101,
        "area_city_name": "京都市北区",
        "area_town_code": "261010284000",
        "area_town_name": "鷹峯東奥長谷",
        "area_lat": 35.080772,
        "area_lng": 135.71135
    },
    {
        "area_city_code": 26101,
        "area_city_name": "京都市北区",
        "area_town_code": "261010285000",
        "area_town_name": "鷹峯藤林町",
        "area_lat": 35.048972,
        "area_lng": 135.73722
    },
    {
        "area_city_code": 26101,
        "area_city_name": "京都市北区",
        "area_town_code": "261010286000",
        "area_town_name": "鷹峯船水",
        "area_lat": 35.072444,
        "area_lng": 135.713258
    },
    {
        "area_city_code": 26101,
        "area_city_name": "京都市北区",
        "area_town_code": "261010287000",
        "area_town_name": "鷹峯菩提",
        "area_lat": 35.072638,
        "area_lng": 135.699754
    },
    {
        "area_city_code": 26101,
        "area_city_name": "京都市北区",
        "area_town_code": "261010288000",
        "area_town_name": "鷹峯仏谷",
        "area_lat": 35.057287,
        "area_lng": 135.716141
    },
    {
        "area_city_code": 26101,
        "area_city_name": "京都市北区",
        "area_town_code": "261010289000",
        "area_town_name": "鷹峯堀越町",
        "area_lat": 35.064407,
        "area_lng": 135.707339
    },
    {
        "area_city_code": 26101,
        "area_city_name": "京都市北区",
        "area_town_code": "261010290000",
        "area_town_name": "鷹峯御蔵尾",
        "area_lat": 35.070261,
        "area_lng": 135.70396
    },
    {
        "area_city_code": 26101,
        "area_city_name": "京都市北区",
        "area_town_code": "261010291000",
        "area_town_name": "鷹峯南鷹峯町",
        "area_lat": 35.053496,
        "area_lng": 135.733634
    },
    {
        "area_city_code": 26101,
        "area_city_name": "京都市北区",
        "area_town_code": "261010292000",
        "area_town_name": "鷹峯桃山",
        "area_lat": 35.054721,
        "area_lng": 135.721415
    },
    {
        "area_city_code": 26101,
        "area_city_name": "京都市北区",
        "area_town_code": "261010293000",
        "area_town_name": "鷹峯焼尾",
        "area_lat": 35.083742,
        "area_lng": 135.696384
    },
    {
        "area_city_code": 26101,
        "area_city_name": "京都市北区",
        "area_town_code": "261010294000",
        "area_town_name": "長乗西町",
        "area_lat": 35.037663,
        "area_lng": 135.756401
    },
    {
        "area_city_code": 26101,
        "area_city_name": "京都市北区",
        "area_town_code": "261010295000",
        "area_town_name": "長乗東町",
        "area_lat": 35.037671,
        "area_lng": 135.757149
    },
    {
        "area_city_code": 26101,
        "area_city_name": "京都市北区",
        "area_town_code": "261010296000",
        "area_town_name": "天寧寺門前町",
        "area_lat": 35.037552,
        "area_lng": 135.763677
    },
    {
        "area_city_code": 26101,
        "area_city_name": "京都市北区",
        "area_town_code": "261010297000",
        "area_town_name": "等持院北町",
        "area_lat": 35.032028,
        "area_lng": 135.724095
    },
    {
        "area_city_code": 26101,
        "area_city_name": "京都市北区",
        "area_town_code": "261010298000",
        "area_town_name": "等持院中町",
        "area_lat": 35.028834,
        "area_lng": 135.725372
    },
    {
        "area_city_code": 26101,
        "area_city_name": "京都市北区",
        "area_town_code": "261010299000",
        "area_town_name": "等持院西町",
        "area_lat": 35.028682,
        "area_lng": 135.723332
    },
    {
        "area_city_code": 26101,
        "area_city_name": "京都市北区",
        "area_town_code": "261010300000",
        "area_town_name": "等持院東町",
        "area_lat": 35.029082,
        "area_lng": 135.726908
    },
    {
        "area_city_code": 26101,
        "area_city_name": "京都市北区",
        "area_town_code": "261010301000",
        "area_town_name": "等持院南町",
        "area_lat": 35.026814,
        "area_lng": 135.725333
    },
    {
        "area_city_code": 26101,
        "area_city_name": "京都市北区",
        "area_town_code": "261010302000",
        "area_town_name": "中川奥山",
        "area_lat": 35.090298,
        "area_lng": 135.675356
    },
    {
        "area_city_code": 26101,
        "area_city_name": "京都市北区",
        "area_town_code": "261010303000",
        "area_town_name": "中川川登",
        "area_lat": 35.100299,
        "area_lng": 135.68035
    },
    {
        "area_city_code": 26101,
        "area_city_name": "京都市北区",
        "area_town_code": "261010304000",
        "area_town_name": "中川北山町",
        "area_lat": 35.087988,
        "area_lng": 135.688271
    },
    {
        "area_city_code": 26101,
        "area_city_name": "京都市北区",
        "area_town_code": "261010305000",
        "area_town_name": "中川中山",
        "area_lat": 35.095351,
        "area_lng": 135.686413
    },
    {
        "area_city_code": 26101,
        "area_city_name": "京都市北区",
        "area_town_code": "261010306000",
        "area_town_name": "中川西ノ谷",
        "area_lat": 35.08512,
        "area_lng": 135.678849
    },
    {
        "area_city_code": 26101,
        "area_city_name": "京都市北区",
        "area_town_code": "261010307000",
        "area_town_name": "中川西山",
        "area_lat": 35.084006,
        "area_lng": 135.684837
    },
    {
        "area_city_code": 26101,
        "area_city_name": "京都市北区",
        "area_town_code": "261010308000",
        "area_town_name": "中川東山",
        "area_lat": 35.087665,
        "area_lng": 135.691275
    },
    {
        "area_city_code": 26101,
        "area_city_name": "京都市北区",
        "area_town_code": "261010309000",
        "area_town_name": "中川水谷",
        "area_lat": 35.097157,
        "area_lng": 135.668432
    },
    {
        "area_city_code": 26101,
        "area_city_name": "京都市北区",
        "area_town_code": "261010310000",
        "area_town_name": "西賀茂井ノ口町",
        "area_lat": 35.070083,
        "area_lng": 135.742335
    },
    {
        "area_city_code": 26101,
        "area_city_name": "京都市北区",
        "area_town_code": "261010311000",
        "area_town_name": "西賀茂今原町",
        "area_lat": 35.064063,
        "area_lng": 135.739519
    },
    {
        "area_city_code": 26101,
        "area_city_name": "京都市北区",
        "area_town_code": "261010312000",
        "area_town_name": "西賀茂岩門",
        "area_lat": 35.065327,
        "area_lng": 135.732283
    },
    {
        "area_city_code": 26101,
        "area_city_name": "京都市北区",
        "area_town_code": "261010313000",
        "area_town_name": "西賀茂鴬谷",
        "area_lat": 35.086931,
        "area_lng": 135.718786
    },
    {
        "area_city_code": 26101,
        "area_city_name": "京都市北区",
        "area_town_code": "261010314000",
        "area_town_name": "西賀茂卯ノ谷",
        "area_lat": 35.091968,
        "area_lng": 135.716829
    },
    {
        "area_city_code": 26101,
        "area_city_name": "京都市北区",
        "area_town_code": "261010315000",
        "area_town_name": "西賀茂烏帽子岩",
        "area_lat": 35.077207,
        "area_lng": 135.734185
    },
    {
        "area_city_code": 26101,
        "area_city_name": "京都市北区",
        "area_town_code": "261010316000",
        "area_town_name": "西賀茂大栗町",
        "area_lat": 35.061485,
        "area_lng": 135.745332
    },
    {
        "area_city_code": 26101,
        "area_city_name": "京都市北区",
        "area_town_code": "261010317000",
        "area_town_name": "西賀茂大道口町",
        "area_lat": 35.063735,
        "area_lng": 135.743285
    },
    {
        "area_city_code": 26101,
        "area_city_name": "京都市北区",
        "area_town_code": "261010318000",
        "area_town_name": "西賀茂大深町",
        "area_lat": 35.061459,
        "area_lng": 135.741476
    },
    {
        "area_city_code": 26101,
        "area_city_name": "京都市北区",
        "area_town_code": "261010319000",
        "area_town_name": "西賀茂尾横",
        "area_lat": 35.091554,
        "area_lng": 135.724769
    },
    {
        "area_city_code": 26101,
        "area_city_name": "京都市北区",
        "area_town_code": "261010320000",
        "area_town_name": "西賀茂蛙ケ谷",
        "area_lat": 35.076437,
        "area_lng": 135.737314
    },
    {
        "area_city_code": 26101,
        "area_city_name": "京都市北区",
        "area_town_code": "261010321000",
        "area_town_name": "西賀茂柿ノ木町",
        "area_lat": 35.063425,
        "area_lng": 135.746256
    },
    {
        "area_city_code": 26101,
        "area_city_name": "京都市北区",
        "area_town_code": "261010322000",
        "area_town_name": "西賀茂笠松",
        "area_lat": 35.07789,
        "area_lng": 135.721372
    },
    {
        "area_city_code": 26101,
        "area_city_name": "京都市北区",
        "area_town_code": "261010323000",
        "area_town_name": "西賀茂蟹ケ坂町",
        "area_lat": 35.070662,
        "area_lng": 135.740904
    },
    {
        "area_city_code": 26101,
        "area_city_name": "京都市北区",
        "area_town_code": "261010324000",
        "area_town_name": "西賀茂鹿ノ下町",
        "area_lat": 35.061908,
        "area_lng": 135.747331
    },
    {
        "area_city_code": 26101,
        "area_city_name": "京都市北区",
        "area_town_code": "261010325000",
        "area_town_name": "西賀茂上庄田町",
        "area_lat": 35.074793,
        "area_lng": 135.739518
    },
    {
        "area_city_code": 26101,
        "area_city_name": "京都市北区",
        "area_town_code": "261010326000",
        "area_town_name": "西賀茂川上町",
        "area_lat": 35.065426,
        "area_lng": 135.743037
    },
    {
        "area_city_code": 26101,
        "area_city_name": "京都市北区",
        "area_town_code": "261010327000",
        "area_town_name": "西賀茂勧請",
        "area_lat": 35.104943,
        "area_lng": 135.727962
    },
    {
        "area_city_code": 26101,
        "area_city_name": "京都市北区",
        "area_town_code": "261010328000",
        "area_town_name": "西賀茂北今原町",
        "area_lat": 35.066154,
        "area_lng": 135.739679
    },
    {
        "area_city_code": 26101,
        "area_city_name": "京都市北区",
        "area_town_code": "261010329000",
        "area_town_name": "西賀茂北川上町",
        "area_lat": 35.067446,
        "area_lng": 135.741125
    },
    {
        "area_city_code": 26101,
        "area_city_name": "京都市北区",
        "area_town_code": "261010330000",
        "area_town_name": "西賀茂北鎮守菴町",
        "area_lat": 35.06206,
        "area_lng": 135.739356
    },
    {
        "area_city_code": 26101,
        "area_city_name": "京都市北区",
        "area_town_code": "261010331000",
        "area_town_name": "西賀茂北山ノ森町",
        "area_lat": 35.067107,
        "area_lng": 135.743437
    },
    {
        "area_city_code": 26101,
        "area_city_name": "京都市北区",
        "area_town_code": "261010332000",
        "area_town_name": "西賀茂小峠",
        "area_lat": 35.083407,
        "area_lng": 135.731862
    },
    {
        "area_city_code": 26101,
        "area_city_name": "京都市北区",
        "area_town_code": "261010333000",
        "area_town_name": "西賀茂下庄田町",
        "area_lat": 35.078391,
        "area_lng": 135.74014
    },
    {
        "area_city_code": 26101,
        "area_city_name": "京都市北区",
        "area_town_code": "261010334000",
        "area_town_name": "西賀茂城山",
        "area_lat": 35.081116,
        "area_lng": 135.719825
    },
    {
        "area_city_code": 26101,
        "area_city_name": "京都市北区",
        "area_town_code": "261010335000",
        "area_town_name": "西賀茂神光院町",
        "area_lat": 35.059744,
        "area_lng": 135.74332
    },
    {
        "area_city_code": 26101,
        "area_city_name": "京都市北区",
        "area_town_code": "261010336000",
        "area_town_name": "西賀茂角社町",
        "area_lat": 35.059489,
        "area_lng": 135.741879
    },
    {
        "area_city_code": 26101,
        "area_city_name": "京都市北区",
        "area_town_code": "261010337000",
        "area_town_name": "西賀茂谷中",
        "area_lat": 35.102669,
        "area_lng": 135.726815
    },
    {
        "area_city_code": 26101,
        "area_city_name": "京都市北区",
        "area_town_code": "261010338000",
        "area_town_name": "西賀茂檀ノ尾",
        "area_lat": 35.080022,
        "area_lng": 135.724726
    },
    {
        "area_city_code": 26101,
        "area_city_name": "京都市北区",
        "area_town_code": "261010339000",
        "area_town_name": "西賀茂鎮守菴町",
        "area_lat": 35.060227,
        "area_lng": 135.739908
    },
    {
        "area_city_code": 26101,
        "area_city_name": "京都市北区",
        "area_town_code": "261010340000",
        "area_town_name": "西賀茂栩谷",
        "area_lat": 35.09718,
        "area_lng": 135.724305
    },
    {
        "area_city_code": 26101,
        "area_city_name": "京都市北区",
        "area_town_code": "261010341000",
        "area_town_name": "西賀茂中川上町",
        "area_lat": 35.065945,
        "area_lng": 135.741486
    },
    {
        "area_city_code": 26101,
        "area_city_name": "京都市北区",
        "area_town_code": "261010342000",
        "area_town_name": "西賀茂西中尾",
        "area_lat": 35.084852,
        "area_lng": 135.714333
    },
    {
        "area_city_code": 26101,
        "area_city_name": "京都市北区",
        "area_town_code": "261010343000",
        "area_town_name": "西賀茂西二ノ坂",
        "area_lat": 35.076436,
        "area_lng": 135.72442
    },
    {
        "area_city_code": 26101,
        "area_city_name": "京都市北区",
        "area_town_code": "261010344000",
        "area_town_name": "西賀茂西萩原",
        "area_lat": 35.072193,
        "area_lng": 135.7307
    },
    {
        "area_city_code": 26101,
        "area_city_name": "京都市北区",
        "area_town_code": "261010345000",
        "area_town_name": "西賀茂西氷室町",
        "area_lat": 35.081901,
        "area_lng": 135.721752
    },
    {
        "area_city_code": 26101,
        "area_city_name": "京都市北区",
        "area_town_code": "261010346000",
        "area_town_name": "西賀茂西山",
        "area_lat": 35.075556,
        "area_lng": 135.727831
    },
    {
        "area_city_code": 26101,
        "area_city_name": "京都市北区",
        "area_town_code": "261010347000",
        "area_town_name": "西賀茂唄ノ尾",
        "area_lat": 35.098983,
        "area_lng": 135.729899
    },
    {
        "area_city_code": 26101,
        "area_city_name": "京都市北区",
        "area_town_code": "261010348000",
        "area_town_name": "西賀茂榿ノ木町",
        "area_lat": 35.060244,
        "area_lng": 135.748088
    },
    {
        "area_city_code": 26101,
        "area_city_name": "京都市北区",
        "area_town_code": "261010349000",
        "area_town_name": "西賀茂東柿ノ木町",
        "area_lat": 35.064665,
        "area_lng": 135.746532
    },
    {
        "area_city_code": 26101,
        "area_city_name": "京都市北区",
        "area_town_code": "261010350000",
        "area_town_name": "西賀茂毘沙門山",
        "area_lat": 35.061099,
        "area_lng": 135.736906
    },
    {
        "area_city_code": 26101,
        "area_city_name": "京都市北区",
        "area_town_code": "261010351000",
        "area_town_name": "西賀茂樋ノ口町",
        "area_lat": 35.073755,
        "area_lng": 135.741322
    },
    {
        "area_city_code": 26101,
        "area_city_name": "京都市北区",
        "area_town_code": "261010352000",
        "area_town_name": "西賀茂檜谷",
        "area_lat": 35.079229,
        "area_lng": 135.730721
    },
    {
        "area_city_code": 26101,
        "area_city_name": "京都市北区",
        "area_town_code": "261010353000",
        "area_town_name": "西賀茂氷室町",
        "area_lat": 35.085089,
        "area_lng": 135.723297
    },
    {
        "area_city_code": 26101,
        "area_city_name": "京都市北区",
        "area_town_code": "261010354000",
        "area_town_name": "西賀茂船山",
        "area_lat": 35.065958,
        "area_lng": 135.736529
    },
    {
        "area_city_code": 26101,
        "area_city_name": "京都市北区",
        "area_town_code": "261010355000",
        "area_town_name": "西賀茂坊ノ後町",
        "area_lat": 35.061833,
        "area_lng": 135.743118
    },
    {
        "area_city_code": 26101,
        "area_city_name": "京都市北区",
        "area_town_code": "261010356000",
        "area_town_name": "西賀茂蓬来谷",
        "area_lat": 35.087201,
        "area_lng": 135.724345
    },
    {
        "area_city_code": 26101,
        "area_city_name": "京都市北区",
        "area_town_code": "261010357000",
        "area_town_name": "西賀茂中島町",
        "area_lat": 35.076888,
        "area_lng": 135.741985
    },
    {
        "area_city_code": 26101,
        "area_city_name": "京都市北区",
        "area_town_code": "261010358000",
        "area_town_name": "西賀茂傍示ケ尾",
        "area_lat": 35.086784,
        "area_lng": 135.730016
    },
    {
        "area_city_code": 26101,
        "area_city_name": "京都市北区",
        "area_town_code": "261010359000",
        "area_town_name": "西賀茂松茸島",
        "area_lat": 35.102169,
        "area_lng": 135.729061
    },
    {
        "area_city_code": 26101,
        "area_city_name": "京都市北区",
        "area_town_code": "261010360000",
        "area_town_name": "西賀茂丸川町",
        "area_lat": 35.060205,
        "area_lng": 135.744955
    },
    {
        "area_city_code": 26101,
        "area_city_name": "京都市北区",
        "area_town_code": "261010361000",
        "area_town_name": "西賀茂円峰",
        "area_lat": 35.071429,
        "area_lng": 135.73715
    },
    {
        "area_city_code": 26101,
        "area_city_name": "京都市北区",
        "area_town_code": "261010362000",
        "area_town_name": "西賀茂万寿峠",
        "area_lat": 35.093195,
        "area_lng": 135.72943
    },
    {
        "area_city_code": 26101,
        "area_city_name": "京都市北区",
        "area_town_code": "261010363000",
        "area_town_name": "西賀茂水垣町",
        "area_lat": 35.062709,
        "area_lng": 135.74486
    },
    {
        "area_city_code": 26101,
        "area_city_name": "京都市北区",
        "area_town_code": "261010364000",
        "area_town_name": "西賀茂南今原町",
        "area_lat": 35.063137,
        "area_lng": 135.740661
    },
    {
        "area_city_code": 26101,
        "area_city_name": "京都市北区",
        "area_town_code": "261010365000",
        "area_town_name": "西賀茂南大栗町",
        "area_lat": 35.06025,
        "area_lng": 135.746488
    },
    {
        "area_city_code": 26101,
        "area_city_name": "京都市北区",
        "area_town_code": "261010366000",
        "area_town_name": "西賀茂南川上町",
        "area_lat": 35.064417,
        "area_lng": 135.741604
    },
    {
        "area_city_code": 26101,
        "area_city_name": "京都市北区",
        "area_town_code": "261010367000",
        "area_town_name": "西賀茂宮ノ谷",
        "area_lat": 35.079479,
        "area_lng": 135.715209
    },
    {
        "area_city_code": 26101,
        "area_city_name": "京都市北区",
        "area_town_code": "261010368000",
        "area_town_name": "西賀茂宮山",
        "area_lat": 35.082927,
        "area_lng": 135.723959
    },
    {
        "area_city_code": 26101,
        "area_city_name": "京都市北区",
        "area_town_code": "261010369000",
        "area_town_name": "西賀茂妙見堂",
        "area_lat": 35.069494,
        "area_lng": 135.733887
    },
    {
        "area_city_code": 26101,
        "area_city_name": "京都市北区",
        "area_town_code": "261010370000",
        "area_town_name": "西賀茂山ノ森町",
        "area_lat": 35.065153,
        "area_lng": 135.744714
    },
    {
        "area_city_code": 26101,
        "area_city_name": "京都市北区",
        "area_town_code": "261010371000",
        "area_town_name": "西賀茂鑓磨岩",
        "area_lat": 35.075023,
        "area_lng": 135.715792
    },
    {
        "area_city_code": 26101,
        "area_city_name": "京都市北区",
        "area_town_code": "261010372000",
        "area_town_name": "西賀茂由利ノ向",
        "area_lat": 35.090266,
        "area_lng": 135.733457
    },
    {
        "area_city_code": 26101,
        "area_city_name": "京都市北区",
        "area_town_code": "261010373000",
        "area_town_name": "平野上八丁柳町",
        "area_lat": 35.03231,
        "area_lng": 135.730133
    },
    {
        "area_city_code": 26101,
        "area_city_name": "京都市北区",
        "area_town_code": "261010374000",
        "area_town_name": "平野上柳町",
        "area_lat": 35.03498,
        "area_lng": 135.726671
    },
    {
        "area_city_code": 26101,
        "area_city_name": "京都市北区",
        "area_town_code": "261010375000",
        "area_town_name": "平野桜木町",
        "area_lat": 35.035425,
        "area_lng": 135.730322
    },
    {
        "area_city_code": 26101,
        "area_city_name": "京都市北区",
        "area_town_code": "261010376000",
        "area_town_name": "平野鳥居前町",
        "area_lat": 35.032453,
        "area_lng": 135.734105
    },
    {
        "area_city_code": 26101,
        "area_city_name": "京都市北区",
        "area_town_code": "261010377000",
        "area_town_name": "平野八丁柳町",
        "area_lat": 35.03096,
        "area_lng": 135.730063
    },
    {
        "area_city_code": 26101,
        "area_city_name": "京都市北区",
        "area_town_code": "261010378000",
        "area_town_name": "平野東柳町",
        "area_lat": 35.03385,
        "area_lng": 135.729609
    },
    {
        "area_city_code": 26101,
        "area_city_name": "京都市北区",
        "area_town_code": "261010379000",
        "area_town_name": "平野宮北町",
        "area_lat": 35.033589,
        "area_lng": 135.732602
    },
    {
        "area_city_code": 26101,
        "area_city_name": "京都市北区",
        "area_town_code": "261010380000",
        "area_town_name": "平野宮敷町",
        "area_lat": 35.035271,
        "area_lng": 135.728468
    },
    {
        "area_city_code": 26101,
        "area_city_name": "京都市北区",
        "area_town_code": "261010381000",
        "area_town_name": "平野宮西町",
        "area_lat": 35.033888,
        "area_lng": 135.731087
    },
    {
        "area_city_code": 26101,
        "area_city_name": "京都市北区",
        "area_town_code": "261010382000",
        "area_town_name": "平野宮本町",
        "area_lat": 35.031618,
        "area_lng": 135.73237
    },
    {
        "area_city_code": 26101,
        "area_city_name": "京都市北区",
        "area_town_code": "261010383000",
        "area_town_name": "真弓善福",
        "area_lat": 35.123086,
        "area_lng": 135.706303
    },
    {
        "area_city_code": 26101,
        "area_city_name": "京都市北区",
        "area_town_code": "261010384000",
        "area_town_name": "真弓八幡町",
        "area_lat": 35.121346,
        "area_lng": 135.701875
    },
    {
        "area_city_code": 26101,
        "area_city_name": "京都市北区",
        "area_town_code": "261010385000",
        "area_town_name": "紫野今宮町",
        "area_lat": 35.045997,
        "area_lng": 135.742145
    },
    {
        "area_city_code": 26101,
        "area_city_name": "京都市北区",
        "area_town_code": "261010386000",
        "area_town_name": "紫野上野町",
        "area_lat": 35.046882,
        "area_lng": 135.743718
    },
    {
        "area_city_code": 26101,
        "area_city_name": "京都市北区",
        "area_town_code": "261010387000",
        "area_town_name": "紫野雲林院町",
        "area_lat": 35.040142,
        "area_lng": 135.748843
    },
    {
        "area_city_code": 26101,
        "area_city_name": "京都市北区",
        "area_town_code": "261010388000",
        "area_town_name": "紫野上柏野町",
        "area_lat": 35.036574,
        "area_lng": 135.737494
    },
    {
        "area_city_code": 26101,
        "area_city_name": "京都市北区",
        "area_town_code": "261010389000",
        "area_town_name": "紫野上御所田町",
        "area_lat": 35.041805,
        "area_lng": 135.751573
    },
    {
        "area_city_code": 26101,
        "area_city_name": "京都市北区",
        "area_town_code": "261010390000",
        "area_town_name": "紫野上石龍町",
        "area_lat": 35.044794,
        "area_lng": 135.750029
    },
    {
        "area_city_code": 26101,
        "area_city_name": "京都市北区",
        "area_town_code": "261010391000",
        "area_town_name": "紫野上築山町",
        "area_lat": 35.040845,
        "area_lng": 135.745775
    },
    {
        "area_city_code": 26101,
        "area_city_name": "京都市北区",
        "area_town_code": "261010392000",
        "area_town_name": "紫野上鳥田町",
        "area_lat": 35.044805,
        "area_lng": 135.751633
    },
    {
        "area_city_code": 26101,
        "area_city_name": "京都市北区",
        "area_town_code": "261010393000",
        "area_town_name": "紫野上御輿町",
        "area_lat": 35.041831,
        "area_lng": 135.739092
    },
    {
        "area_city_code": 26101,
        "area_city_name": "京都市北区",
        "area_town_code": "261010394000",
        "area_town_name": "紫野上門前町",
        "area_lat": 35.044748,
        "area_lng": 135.748102
    },
    {
        "area_city_code": 26101,
        "area_city_name": "京都市北区",
        "area_town_code": "261010395000",
        "area_town_name": "紫野上柳町",
        "area_lat": 35.044839,
        "area_lng": 135.75317
    },
    {
        "area_city_code": 26101,
        "area_city_name": "京都市北区",
        "area_town_code": "261010396000",
        "area_town_name": "紫野上若草町",
        "area_lat": 35.041919,
        "area_lng": 135.740553
    },
    {
        "area_city_code": 26101,
        "area_city_name": "京都市北区",
        "area_town_code": "261010397000",
        "area_town_name": "紫野北花ノ坊町",
        "area_lat": 35.042526,
        "area_lng": 135.737793
    },
    {
        "area_city_code": 26101,
        "area_city_name": "京都市北区",
        "area_town_code": "261010398000",
        "area_town_name": "紫野北舟岡町",
        "area_lat": 35.038423,
        "area_lng": 135.742678
    },
    {
        "area_city_code": 26101,
        "area_city_name": "京都市北区",
        "area_town_code": "261010399000",
        "area_town_name": "紫野郷ノ上町",
        "area_lat": 35.037086,
        "area_lng": 135.738106
    },
    {
        "area_city_code": 26101,
        "area_city_name": "京都市北区",
        "area_town_code": "261010400000",
        "area_town_name": "紫野下柏野町",
        "area_lat": 35.033623,
        "area_lng": 135.737422
    },
    {
        "area_city_code": 26101,
        "area_city_name": "京都市北区",
        "area_town_code": "261010401000",
        "area_town_name": "紫野下石龍町",
        "area_lat": 35.041956,
        "area_lng": 135.74989
    },
    {
        "area_city_code": 26101,
        "area_city_name": "京都市北区",
        "area_town_code": "261010402000",
        "area_town_name": "紫野下築山町",
        "area_lat": 35.039437,
        "area_lng": 135.746325
    },
    {
        "area_city_code": 26101,
        "area_city_name": "京都市北区",
        "area_town_code": "261010403000",
        "area_town_name": "紫野下鳥田町",
        "area_lat": 35.043228,
        "area_lng": 135.75169
    },
    {
        "area_city_code": 26101,
        "area_city_name": "京都市北区",
        "area_town_code": "261010404000",
        "area_town_name": "紫野下御輿町",
        "area_lat": 35.040814,
        "area_lng": 135.739288
    },
    {
        "area_city_code": 26101,
        "area_city_name": "京都市北区",
        "area_town_code": "261010405000",
        "area_town_name": "紫野下門前町",
        "area_lat": 35.04182,
        "area_lng": 135.748248
    },
    {
        "area_city_code": 26101,
        "area_city_name": "京都市北区",
        "area_town_code": "261010406000",
        "area_town_name": "紫野下柳町",
        "area_lat": 35.043285,
        "area_lng": 135.753133
    },
    {
        "area_city_code": 26101,
        "area_city_name": "京都市北区",
        "area_town_code": "261010407000",
        "area_town_name": "紫野下若草町",
        "area_lat": 35.040806,
        "area_lng": 135.740704
    },
    {
        "area_city_code": 26101,
        "area_city_name": "京都市北区",
        "area_town_code": "261010408000",
        "area_town_name": "紫野十二坊町",
        "area_lat": 35.037796,
        "area_lng": 135.740161
    },
    {
        "area_city_code": 26101,
        "area_city_name": "京都市北区",
        "area_town_code": "261010409000",
        "area_town_name": "紫野石龍町",
        "area_lat": 35.043273,
        "area_lng": 135.750165
    },
    {
        "area_city_code": 26101,
        "area_city_name": "京都市北区",
        "area_town_code": "261010410000",
        "area_town_name": "紫野泉堂町",
        "area_lat": 35.048064,
        "area_lng": 135.74129
    },
    {
        "area_city_code": 26101,
        "area_city_name": "京都市北区",
        "area_town_code": "261010411000",
        "area_town_name": "紫野大徳寺町",
        "area_lat": 35.043187,
        "area_lng": 135.742817
    },
    {
        "area_city_code": 26101,
        "area_city_name": "京都市北区",
        "area_town_code": "261010412000",
        "area_town_name": "紫野中柏野町",
        "area_lat": 35.035005,
        "area_lng": 135.737868
    },
    {
        "area_city_code": 26101,
        "area_city_name": "京都市北区",
        "area_town_code": "261010413000",
        "area_town_name": "紫野西御所田町",
        "area_lat": 35.040262,
        "area_lng": 135.751126
    },
    {
        "area_city_code": 26101,
        "area_city_name": "京都市北区",
        "area_town_code": "261010414000",
        "area_town_name": "紫野西泉堂町",
        "area_lat": 35.048443,
        "area_lng": 135.739581
    },
    {
        "area_city_code": 26101,
        "area_city_name": "京都市北区",
        "area_town_code": "261010415000",
        "area_town_name": "紫野西土居町",
        "area_lat": 35.036128,
        "area_lng": 135.73606
    },
    {
        "area_city_code": 26101,
        "area_city_name": "京都市北区",
        "area_town_code": "261010416000",
        "area_town_name": "紫野西野町",
        "area_lat": 35.041148,
        "area_lng": 135.742378
    },
    {
        "area_city_code": 26101,
        "area_city_name": "京都市北区",
        "area_town_code": "261010417000",
        "area_town_name": "紫野西藤ノ森町",
        "area_lat": 35.037356,
        "area_lng": 135.746234
    },
    {
        "area_city_code": 26101,
        "area_city_name": "京都市北区",
        "area_town_code": "261010418000",
        "area_town_name": "紫野西舟岡町",
        "area_lat": 35.039692,
        "area_lng": 135.739548
    },
    {
        "area_city_code": 26101,
        "area_city_name": "京都市北区",
        "area_town_code": "261010419000",
        "area_town_name": "紫野西蓮台野町",
        "area_lat": 35.046369,
        "area_lng": 135.738244
    },
    {
        "area_city_code": 26101,
        "area_city_name": "京都市北区",
        "area_town_code": "261010420000",
        "area_town_name": "紫野花ノ坊町",
        "area_lat": 35.040605,
        "area_lng": 135.737641
    },
    {
        "area_city_code": 26101,
        "area_city_name": "京都市北区",
        "area_town_code": "261010421000",
        "area_town_name": "紫野東御所田町",
        "area_lat": 35.039861,
        "area_lng": 135.753474
    },
    {
        "area_city_code": 26101,
        "area_city_name": "京都市北区",
        "area_town_code": "261010422000",
        "area_town_name": "紫野東泉堂町",
        "area_lat": 35.048564,
        "area_lng": 135.742718
    },
    {
        "area_city_code": 26101,
        "area_city_name": "京都市北区",
        "area_town_code": "261010423000",
        "area_town_name": "紫野東野町",
        "area_lat": 35.040953,
        "area_lng": 135.744017
    },
    {
        "area_city_code": 26101,
        "area_city_name": "京都市北区",
        "area_town_code": "261010424000",
        "area_town_name": "紫野東藤ノ森町",
        "area_lat": 35.037363,
        "area_lng": 135.747172
    },
    {
        "area_city_code": 26101,
        "area_city_name": "京都市北区",
        "area_town_code": "261010425000",
        "area_town_name": "紫野東舟岡町",
        "area_lat": 35.03959,
        "area_lng": 135.744304
    },
    {
        "area_city_code": 26101,
        "area_city_name": "京都市北区",
        "area_town_code": "261010426000",
        "area_town_name": "紫野東蓮台野町",
        "area_lat": 35.046258,
        "area_lng": 135.739987
    },
    {
        "area_city_code": 26101,
        "area_city_name": "京都市北区",
        "area_town_code": "261010427000",
        "area_town_name": "紫野南花ノ坊町",
        "area_lat": 35.038435,
        "area_lng": 135.73698
    },
    {
        "area_city_code": 26101,
        "area_city_name": "京都市北区",
        "area_town_code": "261010428000",
        "area_town_name": "紫野南舟岡町",
        "area_lat": 35.036798,
        "area_lng": 135.744294
    },
    {
        "area_city_code": 26101,
        "area_city_name": "京都市北区",
        "area_town_code": "261010429000",
        "area_town_name": "紫野宮西町",
        "area_lat": 35.038475,
        "area_lng": 135.752137
    },
    {
        "area_city_code": 26101,
        "area_city_name": "京都市北区",
        "area_town_code": "261010430000",
        "area_town_name": "紫野宮東町",
        "area_lat": 35.038023,
        "area_lng": 135.753537
    },
    {
        "area_city_code": 26101,
        "area_city_name": "京都市北区",
        "area_town_code": "261010431000",
        "area_town_name": "紫野門前町",
        "area_lat": 35.04335,
        "area_lng": 135.748096
    },
    {
        "area_city_code": 26102,
        "area_city_name": "京都市上京区",
        "area_town_code": "261020001000",
        "area_town_name": "相生町",
        "area_lat": 35.031139,
        "area_lng": 135.769041
    },
    {
        "area_city_code": 26102,
        "area_city_name": "京都市上京区",
        "area_town_code": "261020002000",
        "area_town_name": "愛染寺町",
        "area_lat": 35.023434,
        "area_lng": 135.743465
    },
    {
        "area_city_code": 26102,
        "area_city_name": "京都市上京区",
        "area_town_code": "261020003000",
        "area_town_name": "飛鳥井町",
        "area_lat": 35.029842,
        "area_lng": 135.753079
    },
    {
        "area_city_code": 26102,
        "area_city_name": "京都市上京区",
        "area_town_code": "261020004000",
        "area_town_name": "油橋詰町",
        "area_lat": 35.025653,
        "area_lng": 135.753523
    },
    {
        "area_city_code": 26102,
        "area_city_name": "京都市上京区",
        "area_town_code": "261020005000",
        "area_town_name": "尼ケ崎横町",
        "area_lat": 35.021598,
        "area_lng": 135.742387
    },
    {
        "area_city_code": 26102,
        "area_city_name": "京都市上京区",
        "area_town_code": "261020006000",
        "area_town_name": "阿弥陀寺町",
        "area_lat": 35.03222,
        "area_lng": 135.749331
    },
    {
        "area_city_code": 26102,
        "area_city_name": "京都市上京区",
        "area_town_code": "261020007000",
        "area_town_name": "阿弥陀寺前町",
        "area_lat": 35.03331,
        "area_lng": 135.76599
    },
    {
        "area_city_code": 26102,
        "area_city_name": "京都市上京区",
        "area_town_code": "261020008000",
        "area_town_name": "有春町",
        "area_lat": 35.023716,
        "area_lng": 135.754295
    },
    {
        "area_city_code": 26102,
        "area_city_name": "京都市上京区",
        "area_town_code": "261020009000",
        "area_town_name": "有馬町",
        "area_lat": 35.030378,
        "area_lng": 135.745478
    },
    {
        "area_city_code": 26102,
        "area_city_name": "京都市上京区",
        "area_town_code": "261020010000",
        "area_town_name": "安楽小路町",
        "area_lat": 35.032849,
        "area_lng": 135.755488
    },
    {
        "area_city_code": 26102,
        "area_city_name": "京都市上京区",
        "area_town_code": "261020011000",
        "area_town_name": "家永町",
        "area_lat": 35.020743,
        "area_lng": 135.749078
    },
    {
        "area_city_code": 26102,
        "area_city_name": "京都市上京区",
        "area_town_code": "261020012000",
        "area_town_name": "伊佐町",
        "area_lat": 35.032834,
        "area_lng": 135.74737
    },
    {
        "area_city_code": 26102,
        "area_city_name": "京都市上京区",
        "area_town_code": "261020013000",
        "area_town_name": "石薬師町",
        "area_lat": 35.027471,
        "area_lng": 135.749063
    },
    {
        "area_city_code": 26102,
        "area_city_name": "京都市上京区",
        "area_town_code": "261020014000",
        "area_town_name": "伊勢殿構町",
        "area_lat": 35.026553,
        "area_lng": 135.743506
    },
    {
        "area_city_code": 26102,
        "area_city_name": "京都市上京区",
        "area_town_code": "261020015000",
        "area_town_name": "伊勢屋町",
        "area_lat": 35.017112,
        "area_lng": 135.769074
    },
    {
        "area_city_code": 26102,
        "area_city_name": "京都市上京区",
        "area_town_code": "261020016000",
        "area_town_name": "井田町",
        "area_lat": 35.034754,
        "area_lng": 135.742738
    },
    {
        "area_city_code": 26102,
        "area_city_name": "京都市上京区",
        "area_town_code": "261020017000",
        "area_town_name": "一観音町",
        "area_lat": 35.027087,
        "area_lng": 135.739757
    },
    {
        "area_city_code": 26102,
        "area_city_name": "京都市上京区",
        "area_town_code": "261020018000",
        "area_town_name": "一条殿町",
        "area_lat": 35.027147,
        "area_lng": 135.756102
    },
    {
        "area_city_code": 26102,
        "area_city_name": "京都市上京区",
        "area_town_code": "261020019000",
        "area_town_name": "一条横町",
        "area_lat": 35.026402,
        "area_lng": 135.75396
    },
    {
        "area_city_code": 26102,
        "area_city_name": "京都市上京区",
        "area_town_code": "261020020000",
        "area_town_name": "一番町",
        "area_lat": 35.024854,
        "area_lng": 135.738679
    },
    {
        "area_city_code": 26102,
        "area_city_name": "京都市上京区",
        "area_town_code": "261020021000",
        "area_town_name": "一松町",
        "area_lat": 35.027136,
        "area_lng": 135.757086
    },
    {
        "area_city_code": 26102,
        "area_city_name": "京都市上京区",
        "area_town_code": "261020022000",
        "area_town_name": "一色町",
        "area_lat": 35.031076,
        "area_lng": 135.745196
    },