[
    {
        "area_city_code": 36201,
        "area_city_name": "徳島市",
        "area_town_code": "362010001001",
        "area_town_name": "藍場町一丁目",
        "area_lat": 34.073407,
        "area_lng": 134.548083
    },
    {
        "area_city_code": 36201,
        "area_city_name": "徳島市",
        "area_town_code": "362010001002",
        "area_town_name": "藍場町二丁目",
        "area_lat": 34.074604,
        "area_lng": 134.546918
    },
    {
        "area_city_code": 36201,
        "area_city_name": "徳島市",
        "area_town_code": "362010002001",
        "area_town_name": "秋田町一丁目",
        "area_lat": 34.06588,
        "area_lng": 134.549536
    },
    {
        "area_city_code": 36201,
        "area_city_name": "徳島市",
        "area_town_code": "362010002002",
        "area_town_name": "秋田町二丁目",
        "area_lat": 34.064247,
        "area_lng": 134.549739
    },
    {
        "area_city_code": 36201,
        "area_city_name": "徳島市",
        "area_town_code": "362010002003",
        "area_town_name": "秋田町三丁目",
        "area_lat": 34.062963,
        "area_lng": 134.549342
    },
    {
        "area_city_code": 36201,
        "area_city_name": "徳島市",
        "area_town_code": "362010002004",
        "area_town_name": "秋田町四丁目",
        "area_lat": 34.061556,
        "area_lng": 134.549272
    },
    {
        "area_city_code": 36201,
        "area_city_name": "徳島市",
        "area_town_code": "362010002005",
        "area_town_name": "秋田町五丁目",
        "area_lat": 34.059945,
        "area_lng": 134.549161
    },
    {
        "area_city_code": 36201,
        "area_city_name": "徳島市",
        "area_town_code": "362010002006",
        "area_town_name": "秋田町六丁目",
        "area_lat": 34.058606,
        "area_lng": 134.549099
    },
    {
        "area_city_code": 36201,
        "area_city_name": "徳島市",
        "area_town_code": "362010003001",
        "area_town_name": "鮎喰町一丁目",
        "area_lat": 34.072534,
        "area_lng": 134.503629
    },
    {
        "area_city_code": 36201,
        "area_city_name": "徳島市",
        "area_town_code": "362010003002",
        "area_town_name": "鮎喰町二丁目",
        "area_lat": 34.072533,
        "area_lng": 134.500579
    },
    {
        "area_city_code": 36201,
        "area_city_name": "徳島市",
        "area_town_code": "362010004001",
        "area_town_name": "安宅一丁目",
        "area_lat": 34.070565,
        "area_lng": 134.571522
    },
    {
        "area_city_code": 36201,
        "area_city_name": "徳島市",
        "area_town_code": "362010004002",
        "area_town_name": "安宅二丁目",
        "area_lat": 34.070649,
        "area_lng": 134.57533
    },
    {
        "area_city_code": 36201,
        "area_city_name": "徳島市",
        "area_town_code": "362010004003",
        "area_town_name": "安宅三丁目",
        "area_lat": 34.069668,
        "area_lng": 134.578881
    },
    {
        "area_city_code": 36201,
        "area_city_name": "徳島市",
        "area_town_code": "362010005000",
        "area_town_name": "飯谷町",
        "area_lat": 33.973595,
        "area_lng": 134.551232
    },
    {
        "area_city_code": 36201,
        "area_city_name": "徳島市",
        "area_town_code": "362010006001",
        "area_town_name": "伊賀町一丁目",
        "area_lat": 34.06649,
        "area_lng": 134.544631
    },
    {
        "area_city_code": 36201,
        "area_city_name": "徳島市",
        "area_town_code": "362010006002",
        "area_town_name": "伊賀町二丁目",
        "area_lat": 34.064678,
        "area_lng": 134.544501
    },
    {
        "area_city_code": 36201,
        "area_city_name": "徳島市",
        "area_town_code": "362010006003",
        "area_town_name": "伊賀町三丁目",
        "area_lat": 34.063149,
        "area_lng": 134.544225
    },
    {
        "area_city_code": 36201,
        "area_city_name": "徳島市",
        "area_town_code": "362010006004",
        "area_town_name": "伊賀町四丁目",
        "area_lat": 34.06202,
        "area_lng": 134.544435
    },
    {
        "area_city_code": 36201,
        "area_city_name": "徳島市",
        "area_town_code": "362010007000",
        "area_town_name": "一宮町",
        "area_lat": 34.029041,
        "area_lng": 134.470661
    },
    {
        "area_city_code": 36201,
        "area_city_name": "徳島市",
        "area_town_code": "362010008001",
        "area_town_name": "一番町一丁目",
        "area_lat": 34.072065,
        "area_lng": 134.55333
    },
    {
        "area_city_code": 36201,
        "area_city_name": "徳島市",
        "area_town_code": "362010008002",
        "area_town_name": "一番町二丁目",
        "area_lat": 34.072452,
        "area_lng": 134.552237
    },
    {
        "area_city_code": 36201,
        "area_city_name": "徳島市",
        "area_town_code": "362010008003",
        "area_town_name": "一番町三丁目",
        "area_lat": 34.072937,
        "area_lng": 134.551306
    },
    {
        "area_city_code": 36201,
        "area_city_name": "徳島市",
        "area_town_code": "362010009001",
        "area_town_name": "伊月町一丁目",
        "area_lat": 34.065464,
        "area_lng": 134.551552
    },
    {
        "area_city_code": 36201,
        "area_city_name": "徳島市",
        "area_town_code": "362010009002",
        "area_town_name": "伊月町二丁目",
        "area_lat": 34.064245,
        "area_lng": 134.551071
    },
    {
        "area_city_code": 36201,
        "area_city_name": "徳島市",
        "area_town_code": "362010009003",
        "area_town_name": "伊月町三丁目",
        "area_lat": 34.062682,
        "area_lng": 134.550088
    },
    {
        "area_city_code": 36201,
        "area_city_name": "徳島市",
        "area_town_code": "362010009004",
        "area_town_name": "伊月町四丁目",
        "area_lat": 34.06132,
        "area_lng": 134.550014
    },
    {
        "area_city_code": 36201,
        "area_city_name": "徳島市",
        "area_town_code": "362010009005",
        "area_town_name": "伊月町五丁目",
        "area_lat": 34.059829,
        "area_lng": 134.549786
    },
    {
        "area_city_code": 36201,
        "area_city_name": "徳島市",
        "area_town_code": "362010009006",
        "area_town_name": "伊月町六丁目",
        "area_lat": 34.05872,
        "area_lng": 134.549781
    },
    {
        "area_city_code": 36201,
        "area_city_name": "徳島市",
        "area_town_code": "362010010000",
        "area_town_name": "応神町応神産業団地",
        "area_lat": 34.122362,
        "area_lng": 134.523069
    },
    {
        "area_city_code": 36201,
        "area_city_name": "徳島市",
        "area_town_code": "362010011000",
        "area_town_name": "応神町中原",
        "area_lat": 34.108295,
        "area_lng": 134.535315
    },
    {
        "area_city_code": 36201,
        "area_city_name": "徳島市",
        "area_town_code": "362010012000",
        "area_town_name": "応神町西貞方",
        "area_lat": 34.115518,
        "area_lng": 134.509651
    },
    {
        "area_city_code": 36201,
        "area_city_name": "徳島市",
        "area_town_code": "362010013000",
        "area_town_name": "応神町東貞方",
        "area_lat": 34.113959,
        "area_lng": 134.518757
    },
    {
        "area_city_code": 36201,
        "area_city_name": "徳島市",
        "area_town_code": "362010014000",
        "area_town_name": "応神町古川",
        "area_lat": 34.103249,
        "area_lng": 134.549209
    },
    {
        "area_city_code": 36201,
        "area_city_name": "徳島市",
        "area_town_code": "362010015000",
        "area_town_name": "応神町吉成",
        "area_lat": 34.114119,
        "area_lng": 134.530526
    },
    {
        "area_city_code": 36201,
        "area_city_name": "徳島市",
        "area_town_code": "362010016000",
        "area_town_name": "大谷町",
        "area_lat": 34.032825,
        "area_lng": 134.533428
    },
    {
        "area_city_code": 36201,
        "area_city_name": "徳島市",
        "area_town_code": "362010017000",
        "area_town_name": "大原町",
        "area_lat": 34.027678,
        "area_lng": 134.576657
    },
    {
        "area_city_code": 36201,
        "area_city_name": "徳島市",
        "area_town_code": "362010018000",
        "area_town_name": "大松町",
        "area_lat": 34.026142,
        "area_lng": 134.555503
    },
    {
        "area_city_code": 36201,
        "area_city_name": "徳島市",
        "area_town_code": "362010019001",
        "area_town_name": "大道一丁目",
        "area_lat": 34.066157,
        "area_lng": 134.547374
    },
    {
        "area_city_code": 36201,
        "area_city_name": "徳島市",
        "area_town_code": "362010019002",
        "area_town_name": "大道二丁目",
        "area_lat": 34.064642,
        "area_lng": 134.547248
    },
    {
        "area_city_code": 36201,
        "area_city_name": "徳島市",
        "area_town_code": "362010019003",
        "area_town_name": "大道三丁目",
        "area_lat": 34.063023,
        "area_lng": 134.547249
    },
    {
        "area_city_code": 36201,
        "area_city_name": "徳島市",
        "area_town_code": "362010019004",
        "area_town_name": "大道四丁目",
        "area_lat": 34.06168,
        "area_lng": 134.547218
    },
    {
        "area_city_code": 36201,
        "area_city_name": "徳島市",
        "area_town_code": "362010020001",
        "area_town_name": "沖浜一丁目",
        "area_lat": 34.054986,
        "area_lng": 134.553132
    },
    {
        "area_city_code": 36201,
        "area_city_name": "徳島市",
        "area_town_code": "362010020002",
        "area_town_name": "沖浜二丁目",
        "area_lat": 34.053034,
        "area_lng": 134.552153
    },
    {
        "area_city_code": 36201,
        "area_city_name": "徳島市",
        "area_town_code": "362010020003",
        "area_town_name": "沖浜三丁目",
        "area_lat": 34.050414,
        "area_lng": 134.551156
    },
    {
        "area_city_code": 36201,
        "area_city_name": "徳島市",
        "area_town_code": "362010021000",
        "area_town_name": "沖浜町",
        "area_lat": 34.053244,
        "area_lng": 134.549406
    },
    {
        "area_city_code": 36201,
        "area_city_name": "徳島市",
        "area_town_code": "362010022001",
        "area_town_name": "沖浜東一丁目",
        "area_lat": 34.054473,
        "area_lng": 134.554984
    },
    {
        "area_city_code": 36201,
        "area_city_name": "徳島市",
        "area_town_code": "362010022002",
        "area_town_name": "沖浜東二丁目",
        "area_lat": 34.052382,
        "area_lng": 134.554529
    },
    {
        "area_city_code": 36201,
        "area_city_name": "徳島市",
        "area_town_code": "362010022003",
        "area_town_name": "沖浜東三丁目",
        "area_lat": 34.050379,
        "area_lng": 134.553806
    },
    {
        "area_city_code": 36201,
        "area_city_name": "徳島市",
        "area_town_code": "362010023001",
        "area_town_name": "籠屋町一丁目",
        "area_lat": 34.068791,
        "area_lng": 134.548157
    },
    {
        "area_city_code": 36201,
        "area_city_name": "徳島市",
        "area_town_code": "362010023002",
        "area_town_name": "籠屋町二丁目",
        "area_lat": 34.067835,
        "area_lng": 134.547987
    },
    {
        "area_city_code": 36201,
        "area_city_name": "徳島市",
        "area_town_code": "362010024001",
        "area_town_name": "春日一丁目",
        "area_lat": 34.093815,
        "area_lng": 134.535301
    },
    {
        "area_city_code": 36201,
        "area_city_name": "徳島市",
        "area_town_code": "362010024002",
        "area_town_name": "春日二丁目",
        "area_lat": 34.092941,
        "area_lng": 134.528822
    },
    {
        "area_city_code": 36201,
        "area_city_name": "徳島市",
        "area_town_code": "362010024003",
        "area_town_name": "春日三丁目",
        "area_lat": 34.09185,
        "area_lng": 134.525445
    },
    {
        "area_city_code": 36201,
        "area_city_name": "徳島市",
        "area_town_code": "362010025000",
        "area_town_name": "春日町",
        "area_lat": 34.099467,
        "area_lng": 134.535684
    },
    {
        "area_city_code": 36201,
        "area_city_name": "徳島市",
        "area_town_code": "362010026000",
        "area_town_name": "方上町",
        "area_lat": 34.018722,
        "area_lng": 134.530676
    },
    {
        "area_city_code": 36201,
        "area_city_name": "徳島市",
        "area_town_code": "362010027001",
        "area_town_name": "かちどき橋一丁目",
        "area_lat": 34.06535,
        "area_lng": 134.556761
    },
    {
        "area_city_code": 36201,
        "area_city_name": "徳島市",
        "area_town_code": "362010027002",
        "area_town_name": "かちどき橋二丁目",
        "area_lat": 34.062808,
        "area_lng": 134.55574
    },
    {
        "area_city_code": 36201,
        "area_city_name": "徳島市",
        "area_town_code": "362010027003",
        "area_town_name": "かちどき橋三丁目",
        "area_lat": 34.060984,
        "area_lng": 134.554746
    },
    {
        "area_city_code": 36201,
        "area_city_name": "徳島市",
        "area_town_code": "362010027004",
        "area_town_name": "かちどき橋四丁目",
        "area_lat": 34.059722,
        "area_lng": 134.554215
    },
    {
        "area_city_code": 36201,
        "area_city_name": "徳島市",
        "area_town_code": "362010027005",
        "area_town_name": "かちどき橋五丁目",
        "area_lat": 34.058741,
        "area_lng": 134.553908
    },
    {
        "area_city_code": 36201,
        "area_city_name": "徳島市",
        "area_town_code": "362010027006",
        "area_town_name": "かちどき橋六丁目",
        "area_lat": 34.057462,
        "area_lng": 134.553612
    },
    {
        "area_city_code": 36201,
        "area_city_name": "徳島市",
        "area_town_code": "362010028000",
        "area_town_name": "勝占町",
        "area_lat": 34.018971,
        "area_lng": 134.549956
    },
    {
        "area_city_code": 36201,
        "area_city_name": "徳島市",
        "area_town_code": "362010029001",
        "area_town_name": "金沢一丁目",
        "area_lat": 34.078461,
        "area_lng": 134.583015
    },
    {
        "area_city_code": 36201,
        "area_city_name": "徳島市",
        "area_town_code": "362010029002",
        "area_town_name": "金沢二丁目",
        "area_lat": 34.077046,
        "area_lng": 134.587536
    },
    {
        "area_city_code": 36201,
        "area_city_name": "徳島市",
        "area_town_code": "362010030000",
        "area_town_name": "上八万町",
        "area_lat": 34.033361,
        "area_lng": 134.506754
    },
    {
        "area_city_code": 36201,
        "area_city_name": "徳島市",
        "area_town_code": "362010031001",
        "area_town_name": "上吉野町一丁目",
        "area_lat": 34.088734,
        "area_lng": 134.5617
    },
    {
        "area_city_code": 36201,
        "area_city_name": "徳島市",
        "area_town_code": "362010031002",
        "area_town_name": "上吉野町二丁目",
        "area_lat": 34.089723,
        "area_lng": 134.559829
    },
    {
        "area_city_code": 36201,
        "area_city_name": "徳島市",
        "area_town_code": "362010031003",
        "area_town_name": "上吉野町三丁目",
        "area_lat": 34.090744,
        "area_lng": 134.556474
    },
    {
        "area_city_code": 36201,
        "area_city_name": "徳島市",
        "area_town_code": "362010032000",
        "area_town_name": "加茂名町",
        "area_lat": 34.058538,
        "area_lng": 134.507412
    },
    {
        "area_city_code": 36201,
        "area_city_name": "徳島市",
        "area_town_code": "362010033000",
        "area_town_name": "川内町",
        "area_lat": 34.106079,
        "area_lng": 134.57436
    },
    {
        "area_city_code": 36201,
        "area_city_name": "徳島市",
        "area_town_code": "362010034001",
        "area_town_name": "北沖洲一丁目",
        "area_lat": 34.070624,
        "area_lng": 134.583076
    },
    {
        "area_city_code": 36201,
        "area_city_name": "徳島市",
        "area_town_code": "362010034002",
        "area_town_name": "北沖洲二丁目",
        "area_lat": 34.073826,
        "area_lng": 134.591007
    },
    {
        "area_city_code": 36201,
        "area_city_name": "徳島市",
        "area_town_code": "362010034003",
        "area_town_name": "北沖洲三丁目",
        "area_lat": 34.068389,
        "area_lng": 134.589798
    },
    {
        "area_city_code": 36201,
        "area_city_name": "徳島市",
        "area_town_code": "362010034004",
        "area_town_name": "北沖洲四丁目",
        "area_lat": 34.071653,
        "area_lng": 134.595098
    },
    {
        "area_city_code": 36201,
        "area_city_name": "徳島市",
        "area_town_code": "362010035000",
        "area_town_name": "北佐古一番町",
        "area_lat": 34.081792,
        "area_lng": 134.539392
    },
    {
        "area_city_code": 36201,
        "area_city_name": "徳島市",
        "area_town_code": "362010036000",
        "area_town_name": "北佐古二番町",
        "area_lat": 34.082845,
        "area_lng": 134.535894
    },
    {
        "area_city_code": 36201,
        "area_city_name": "徳島市",
        "area_town_code": "362010037001",
        "area_town_name": "北島田町一丁目",
        "area_lat": 34.087473,
        "area_lng": 134.515713
    },
    {
        "area_city_code": 36201,
        "area_city_name": "徳島市",
        "area_town_code": "362010037002",
        "area_town_name": "北島田町二丁目",
        "area_lat": 34.085757,
        "area_lng": 134.513046
    },
    {
        "area_city_code": 36201,
        "area_city_name": "徳島市",
        "area_town_code": "362010037003",
        "area_town_name": "北島田町三丁目",
        "area_lat": 34.089053,
        "area_lng": 134.511653
    },
    {
        "area_city_code": 36201,
        "area_city_name": "徳島市",
        "area_town_code": "362010038001",
        "area_town_name": "北常三島町一丁目",
        "area_lat": 34.081152,
        "area_lng": 134.561069
    },
    {
        "area_city_code": 36201,
        "area_city_name": "徳島市",
        "area_town_code": "362010038002",
        "area_town_name": "北常三島町二丁目",
        "area_lat": 34.081562,
        "area_lng": 134.562719
    },
    {
        "area_city_code": 36201,
        "area_city_name": "徳島市",
        "area_town_code": "362010038003",
        "area_town_name": "北常三島町三丁目",
        "area_lat": 34.08138,
        "area_lng": 134.565825
    },
    {
        "area_city_code": 36201,
        "area_city_name": "徳島市",
        "area_town_code": "362010039001",
        "area_town_name": "北田宮一丁目",
        "area_lat": 34.091693,
        "area_lng": 134.546924
    },
    {
        "area_city_code": 36201,
        "area_city_name": "徳島市",
        "area_town_code": "362010039002",
        "area_town_name": "北田宮二丁目",
        "area_lat": 34.091273,
        "area_lng": 134.54188
    },
    {
        "area_city_code": 36201,
        "area_city_name": "徳島市",
        "area_town_code": "362010039003",
        "area_town_name": "北田宮三丁目",
        "area_lat": 34.089315,
        "area_lng": 134.536918
    },
    {
        "area_city_code": 36201,
        "area_city_name": "徳島市",
        "area_town_code": "362010039004",
        "area_town_name": "北田宮四丁目",
        "area_lat": 34.088826,
        "area_lng": 134.531675
    },
    {
        "area_city_code": 36201,
        "area_city_name": "徳島市",
        "area_town_code": "362010040001",
        "area_town_name": "北出来島町一丁目",
        "area_lat": 34.078575,
        "area_lng": 134.547647
    },
    {
        "area_city_code": 36201,
        "area_city_name": "徳島市",
        "area_town_code": "362010040002",
        "area_town_name": "北出来島町二丁目",
        "area_lat": 34.079506,
        "area_lng": 134.546021
    },
    {
        "area_city_code": 36201,
        "area_city_name": "徳島市",
        "area_town_code": "362010041001",
        "area_town_name": "北前川町一丁目",
        "area_lat": 34.080426,
        "area_lng": 134.555766
    },
    {
        "area_city_code": 36201,
        "area_city_name": "徳島市",
        "area_town_code": "362010041002",
        "area_town_name": "北前川町二丁目",
        "area_lat": 34.080517,
        "area_lng": 134.554853
    },
    {
        "area_city_code": 36201,
        "area_city_name": "徳島市",
        "area_town_code": "362010041003",
        "area_town_name": "北前川町三丁目",
        "area_lat": 34.081067,
        "area_lng": 134.552903
    },
    {
        "area_city_code": 36201,
        "area_city_name": "徳島市",
        "area_town_code": "362010041004",
        "area_town_name": "北前川町四丁目",
        "area_lat": 34.081455,
        "area_lng": 134.550082
    },
    {
        "area_city_code": 36201,
        "area_city_name": "徳島市",
        "area_town_code": "362010041005",
        "area_town_name": "北前川町五丁目",
        "area_lat": 34.081891,
        "area_lng": 134.548762
    },
    {
        "area_city_code": 36201,
        "area_city_name": "徳島市",
        "area_town_code": "362010042001",
        "area_town_name": "北矢三町一丁目",
        "area_lat": 34.087612,
        "area_lng": 134.527534
    },
    {
        "area_city_code": 36201,
        "area_city_name": "徳島市",
        "area_town_code": "362010042002",
        "area_town_name": "北矢三町二丁目",
        "area_lat": 34.089093,
        "area_lng": 134.523714
    },
    {
        "area_city_code": 36201,
        "area_city_name": "徳島市",
        "area_town_code": "362010042003",
        "area_town_name": "北矢三町三丁目",
        "area_lat": 34.088492,
        "area_lng": 134.520906
    },
    {
        "area_city_code": 36201,
        "area_city_name": "徳島市",
        "area_town_code": "362010042004",
        "area_town_name": "北矢三町四丁目",
        "area_lat": 34.087214,
        "area_lng": 134.518233
    },
    {
        "area_city_code": 36201,
        "area_city_name": "徳島市",
        "area_town_code": "362010043000",
        "area_town_name": "北山町",
        "area_lat": 34.026984,
        "area_lng": 134.533686
    },
    {
        "area_city_code": 36201,
        "area_city_name": "徳島市",
        "area_town_code": "362010044000",
        "area_town_name": "銀座",
        "area_lat": 34.068476,
        "area_lng": 134.549255
    },
    {
        "area_city_code": 36201,
        "area_city_name": "徳島市",
        "area_town_code": "362010045001",
        "area_town_name": "蔵本町一丁目",
        "area_lat": 34.077262,
        "area_lng": 134.519947
    },
    {
        "area_city_code": 36201,
        "area_city_name": "徳島市",
        "area_town_code": "362010045002",
        "area_town_name": "蔵本町二丁目",
        "area_lat": 34.076377,
        "area_lng": 134.517683
    },
    {
        "area_city_code": 36201,
        "area_city_name": "徳島市",
        "area_town_code": "362010045003",
        "area_town_name": "蔵本町三丁目",
        "area_lat": 34.078066,
        "area_lng": 134.516565
    },
    {
        "area_city_code": 36201,
        "area_city_name": "徳島市",
        "area_town_code": "362010046001",
        "area_town_name": "蔵本元町一丁目",
        "area_lat": 34.078747,
        "area_lng": 134.519835
    },
    {
        "area_city_code": 36201,
        "area_city_name": "徳島市",
        "area_town_code": "362010046002",
        "area_town_name": "蔵本元町二丁目",
        "area_lat": 34.08009,
        "area_lng": 134.518462
    },
    {
        "area_city_code": 36201,
        "area_city_name": "徳島市",
        "area_town_code": "362010046003",
        "area_town_name": "蔵本元町三丁目",
        "area_lat": 34.081813,
        "area_lng": 134.518761
    },
    {
        "area_city_code": 36201,
        "area_city_name": "徳島市",
        "area_town_code": "362010047000",
        "area_town_name": "国府町池尻",
        "area_lat": 34.078615,
        "area_lng": 134.470808
    },
    {
        "area_city_code": 36201,
        "area_city_name": "徳島市",
        "area_town_code": "362010048000",
        "area_town_name": "国府町井戸",
        "area_lat": 34.083273,
        "area_lng": 134.484761
    },
    {
        "area_city_code": 36201,
        "area_city_name": "徳島市",
        "area_town_code": "362010049000",
        "area_town_name": "国府町延命",
        "area_lat": 34.049181,
        "area_lng": 134.481075
    },
    {
        "area_city_code": 36201,
        "area_city_name": "徳島市",
        "area_town_code": "362010050000",
        "area_town_name": "国府町川原田",
        "area_lat": 34.090992,
        "area_lng": 134.472214
    },
    {
        "area_city_code": 36201,
        "area_city_name": "徳島市",
        "area_town_code": "362010051000",
        "area_town_name": "国府町観音寺",
        "area_lat": 34.069936,
        "area_lng": 134.472055
    },
    {
        "area_city_code": 36201,
        "area_city_name": "徳島市",
        "area_town_code": "362010052000",
        "area_town_name": "国府町北岩延",
        "area_lat": 34.084461,
        "area_lng": 134.492529
    },
    {
        "area_city_code": 36201,
        "area_city_name": "徳島市",
        "area_town_code": "362010053000",
        "area_town_name": "国府町府中",
        "area_lat": 34.073489,
        "area_lng": 134.480068
    },
    {
        "area_city_code": 36201,
        "area_city_name": "徳島市",
        "area_town_code": "362010054000",
        "area_town_name": "国府町桜間",
        "area_lat": 34.083199,
        "area_lng": 134.465958
    },
    {
        "area_city_code": 36201,
        "area_city_name": "徳島市",
        "area_town_code": "362010055000",
        "area_town_name": "国府町佐野塚",
        "area_lat": 34.106666,
        "area_lng": 134.463405
    },
    {
        "area_city_code": 36201,
        "area_city_name": "徳島市",
        "area_town_code": "362010056000",
        "area_town_name": "国府町敷地",
        "area_lat": 34.075793,
        "area_lng": 134.466976
    },
    {
        "area_city_code": 36201,
        "area_city_name": "徳島市",
        "area_town_code": "362010057000",
        "area_town_name": "国府町芝原",
        "area_lat": 34.093154,
        "area_lng": 134.46304
    },
    {
        "area_city_code": 36201,
        "area_city_name": "徳島市",
        "area_town_code": "362010058000",
        "area_town_name": "国府町中",
        "area_lat": 34.061892,
        "area_lng": 134.479174
    },
    {
        "area_city_code": 36201,
        "area_city_name": "徳島市",
        "area_town_code": "362010059000",
        "area_town_name": "国府町西黒田",
        "area_lat": 34.104038,
        "area_lng": 134.468679
    },
    {
        "area_city_code": 36201,
        "area_city_name": "徳島市",
        "area_town_code": "362010060000",
        "area_town_name": "国府町西高輪",
        "area_lat": 34.090434,
        "area_lng": 134.478169
    },
    {
        "area_city_code": 36201,
        "area_city_name": "徳島市",
        "area_town_code": "362010061000",
        "area_town_name": "国府町西矢野",
        "area_lat": 34.053284,
        "area_lng": 134.46982
    },
    {
        "area_city_code": 36201,
        "area_city_name": "徳島市",
        "area_town_code": "362010062000",
        "area_town_name": "国府町花園",
        "area_lat": 34.092693,
        "area_lng": 134.486348
    },
    {
        "area_city_code": 36201,
        "area_city_name": "徳島市",
        "area_town_code": "362010063000",
        "area_town_name": "国府町早淵",
        "area_lat": 34.062182,
        "area_lng": 134.485669
    },
    {
        "area_city_code": 36201,
        "area_city_name": "徳島市",
        "area_town_code": "362010064000",
        "area_town_name": "国府町日開",
        "area_lat": 34.082153,
        "area_lng": 134.476552
    },
    {
        "area_city_code": 36201,
        "area_city_name": "徳島市",
        "area_town_code": "362010065000",
        "area_town_name": "国府町東黒田",
        "area_lat": 34.103923,
        "area_lng": 134.480223
    },
    {
        "area_city_code": 36201,
        "area_city_name": "徳島市",
        "area_town_code": "362010066000",
        "area_town_name": "国府町東高輪",
        "area_lat": 34.092864,
        "area_lng": 134.48091
    },
    {
        "area_city_code": 36201,
        "area_city_name": "徳島市",
        "area_town_code": "362010067000",
        "area_town_name": "国府町南岩延",
        "area_lat": 34.079205,
        "area_lng": 134.497096
    },
    {
        "area_city_code": 36201,
        "area_city_name": "徳島市",
        "area_town_code": "362010068000",
        "area_town_name": "国府町矢野",
        "area_lat": 34.060551,
        "area_lng": 134.473426
    },
    {
        "area_city_code": 36201,
        "area_city_name": "徳島市",
        "area_town_code": "362010069000",
        "area_town_name": "国府町竜王",
        "area_lat": 34.093164,
        "area_lng": 134.454437
    },
    {
        "area_city_code": 36201,
        "area_city_name": "徳島市",
        "area_town_code": "362010070000",
        "area_town_name": "国府町和田",
        "area_lat": 34.073631,
        "area_lng": 134.490211
    },
    {
        "area_city_code": 36201,
        "area_city_name": "徳島市",
        "area_town_code": "362010071000",
        "area_town_name": "紺屋町",
        "area_lat": 34.067119,
        "area_lng": 134.548716
    },
    {
        "area_city_code": 36201,
        "area_city_name": "徳島市",
        "area_town_code": "362010072000",
        "area_town_name": "雑賀町",
        "area_lat": 34.036384,
        "area_lng": 134.557319
    },
    {
        "area_city_code": 36201,
        "area_city_name": "徳島市",
        "area_town_code": "362010073001",
        "area_town_name": "幸町一丁目",
        "area_lat": 34.071485,
        "area_lng": 134.554704
    },
    {
        "area_city_code": 36201,
        "area_city_name": "徳島市",
        "area_town_code": "362010073002",
        "area_town_name": "幸町二丁目",
        "area_lat": 34.070168,
        "area_lng": 134.554799
    },
    {
        "area_city_code": 36201,
        "area_city_name": "徳島市",
        "area_town_code": "362010073003",
        "area_town_name": "幸町三丁目",
        "area_lat": 34.068384,
        "area_lng": 134.554865
    },
    {
        "area_city_code": 36201,
        "area_city_name": "徳島市",
        "area_town_code": "362010074001",
        "area_town_name": "栄町一丁目",
        "area_lat": 34.065868,
        "area_lng": 134.548774
    },
    {
        "area_city_code": 36201,
        "area_city_name": "徳島市",
        "area_town_code": "362010074002",
        "area_town_name": "栄町二丁目",
        "area_lat": 34.064303,
        "area_lng": 134.548724
    },
    {
        "area_city_code": 36201,
        "area_city_name": "徳島市",
        "area_town_code": "362010074003",
        "area_town_name": "栄町三丁目",
        "area_lat": 34.063056,
        "area_lng": 134.548657
    },
    {
        "area_city_code": 36201,
        "area_city_name": "徳島市",
        "area_town_code": "362010074004",
        "area_town_name": "栄町四丁目",
        "area_lat": 34.061611,
        "area_lng": 134.548566
    },
    {
        "area_city_code": 36201,
        "area_city_name": "徳島市",
        "area_town_code": "362010074005",
        "area_town_name": "栄町五丁目",
        "area_lat": 34.060232,
        "area_lng": 134.548516
    },
    {
        "area_city_code": 36201,
        "area_city_name": "徳島市",
        "area_town_code": "362010074006",
        "area_town_name": "栄町六丁目",
        "area_lat": 34.058774,
        "area_lng": 134.54843
    },
    {
        "area_city_code": 36201,
        "area_city_name": "徳島市",
        "area_town_code": "362010075000",
        "area_town_name": "佐古一番町",
        "area_lat": 34.07789,
        "area_lng": 134.541324
    },
    {
        "area_city_code": 36201,
        "area_city_name": "徳島市",
        "area_town_code": "362010076000",
        "area_town_name": "佐古二番町",
        "area_lat": 34.078435,
        "area_lng": 134.538503
    },
    {
        "area_city_code": 36201,
        "area_city_name": "徳島市",
        "area_town_code": "362010077000",
        "area_town_name": "佐古三番町",
        "area_lat": 34.078658,
        "area_lng": 134.535981
    },
    {
        "area_city_code": 36201,
        "area_city_name": "徳島市",
        "area_town_code": "362010078000",
        "area_town_name": "佐古四番町",
        "area_lat": 34.078794,
        "area_lng": 134.53344
    },
    {
        "area_city_code": 36201,
        "area_city_name": "徳島市",
        "area_town_code": "362010079000",
        "area_town_name": "佐古五番町",
        "area_lat": 34.078881,
        "area_lng": 134.530965
    },
    {
        "area_city_code": 36201,
        "area_city_name": "徳島市",
        "area_town_code": "362010080000",
        "area_town_name": "佐古六番町",
        "area_lat": 34.078277,
        "area_lng": 134.527334
    },
    {
        "area_city_code": 36201,
        "area_city_name": "徳島市",
        "area_town_code": "362010081000",
        "area_town_name": "佐古七番町",
        "area_lat": 34.078066,
        "area_lng": 134.524224
    },
    {
        "area_city_code": 36201,
        "area_city_name": "徳島市",
        "area_town_code": "362010082000",
        "area_town_name": "佐古八番町",
        "area_lat": 34.077777,
        "area_lng": 134.521891
    },
    {
        "area_city_code": 36201,
        "area_city_name": "徳島市",
        "area_town_code": "362010083000",
        "area_town_name": "佐古山町",
        "area_lat": 34.070256,
        "area_lng": 134.523048
    },
    {
        "area_city_code": 36201,
        "area_city_name": "徳島市",
        "area_town_code": "362010084000",
        "area_town_name": "三軒屋町",
        "area_lat": 34.034571,
        "area_lng": 134.548027
    },
    {
        "area_city_code": 36201,
        "area_city_name": "徳島市",
        "area_town_code": "362010085000",
        "area_town_name": "渋野町",
        "area_lat": 34.007617,
        "area_lng": 134.52501
    },
    {
        "area_city_code": 36201,
        "area_city_name": "徳島市",
        "area_town_code": "362010086001",
        "area_town_name": "下助任町一丁目",
        "area_lat": 34.081371,
        "area_lng": 134.557339
    },
    {
        "area_city_code": 36201,
        "area_city_name": "徳島市",
        "area_town_code": "362010086002",
        "area_town_name": "下助任町二丁目",
        "area_lat": 34.082206,
        "area_lng": 134.555723
    },
    {
        "area_city_code": 36201,
        "area_city_name": "徳島市",
        "area_town_code": "362010086003",
        "area_town_name": "下助任町三丁目",
        "area_lat": 34.082212,
        "area_lng": 134.55344
    },
    {
        "area_city_code": 36201,
        "area_city_name": "徳島市",
        "area_town_code": "362010086004",
        "area_town_name": "下助任町四丁目",
        "area_lat": 34.083209,
        "area_lng": 134.550482
    },
    {
        "area_city_code": 36201,
        "area_city_name": "徳島市",
        "area_town_code": "362010086005",
        "area_town_name": "下助任町五丁目",
        "area_lat": 34.08287,
        "area_lng": 134.54903
    },
    {
        "area_city_code": 36201,
        "area_city_name": "徳島市",
        "area_town_code": "362010087000",
        "area_town_name": "下町",
        "area_lat": 34.031425,
        "area_lng": 134.48427
    },
    {
        "area_city_code": 36201,
        "area_city_name": "徳島市",
        "area_town_code": "362010088001",
        "area_town_name": "城東町一丁目",
        "area_lat": 34.074611,
        "area_lng": 134.573574
    },
    {
        "area_city_code": 36201,
        "area_city_name": "徳島市",
        "area_town_code": "362010088002",
        "area_town_name": "城東町二丁目",
        "area_lat": 34.073713,
        "area_lng": 134.57662
    },
    {
        "area_city_code": 36201,
        "area_city_name": "徳島市",
        "area_town_code": "362010089001",
        "area_town_name": "城南町一丁目",
        "area_lat": 34.056591,
        "area_lng": 134.539827
    },
    {
        "area_city_code": 36201,
        "area_city_name": "徳島市",
        "area_town_code": "362010089002",
        "area_town_name": "城南町二丁目",
        "area_lat": 34.054987,
        "area_lng": 134.541308
    },
    {
        "area_city_code": 36201,
        "area_city_name": "徳島市",
        "area_town_code": "362010089003",
        "area_town_name": "城南町三丁目",
        "area_lat": 34.053798,
        "area_lng": 134.539101
    },
    {
        "area_city_code": 36201,
        "area_city_name": "徳島市",
        "area_town_code": "362010089004",
        "area_town_name": "城南町四丁目",
        "area_lat": 34.052378,
        "area_lng": 134.540864
    },
    {
        "area_city_code": 36201,
        "area_city_name": "徳島市",
        "area_town_code": "362010090001",
        "area_town_name": "庄町一丁目",
        "area_lat": 34.075593,
        "area_lng": 134.514487
    },
    {
        "area_city_code": 36201,
        "area_city_name": "徳島市",
        "area_town_code": "362010090002",
        "area_town_name": "庄町二丁目",
        "area_lat": 34.076427,
        "area_lng": 134.511819
    },
    {
        "area_city_code": 36201,
        "area_city_name": "徳島市",
        "area_town_code": "362010090003",
        "area_town_name": "庄町三丁目",
        "area_lat": 34.075486,
        "area_lng": 134.510408
    },
    {
        "area_city_code": 36201,
        "area_city_name": "徳島市",
        "area_town_code": "362010090004",
        "area_town_name": "庄町四丁目",
        "area_lat": 34.075149,
        "area_lng": 134.508302
    },
    {
        "area_city_code": 36201,
        "area_city_name": "徳島市",
        "area_town_code": "362010090005",
        "area_town_name": "庄町五丁目",
        "area_lat": 34.074546,
        "area_lng": 134.505725
    },
    {
        "area_city_code": 36201,
        "area_city_name": "徳島市",
        "area_town_code": "362010091000",
        "area_town_name": "丈六町",
        "area_lat": 34.008359,
        "area_lng": 134.5494
    },
    {
        "area_city_code": 36201,
        "area_city_name": "徳島市",
        "area_town_code": "362010092001",
        "area_town_name": "昭和町一丁目",
        "area_lat": 34.064492,
        "area_lng": 134.557767
    },
    {
        "area_city_code": 36201,
        "area_city_name": "徳島市",
        "area_town_code": "362010092002",
        "area_town_name": "昭和町二丁目",
        "area_lat": 34.064223,
        "area_lng": 134.559152
    },
    {
        "area_city_code": 36201,
        "area_city_name": "徳島市",
        "area_town_code": "362010092003",
        "area_town_name": "昭和町三丁目",
        "area_lat": 34.063503,
        "area_lng": 134.560566
    },
    {
        "area_city_code": 36201,
        "area_city_name": "徳島市",
        "area_town_code": "362010092004",
        "area_town_name": "昭和町四丁目",
        "area_lat": 34.062744,
        "area_lng": 134.56203
    },
    {
        "area_city_code": 36201,
        "area_city_name": "徳島市",
        "area_town_code": "362010092005",
        "area_town_name": "昭和町五丁目",
        "area_lat": 34.061319,
        "area_lng": 134.56343
    },
    {
        "area_city_code": 36201,
        "area_city_name": "徳島市",
        "area_town_code": "362010092006",
        "area_town_name": "昭和町六丁目",
        "area_lat": 34.059357,
        "area_lng": 134.565383
    },
    {
        "area_city_code": 36201,
        "area_city_name": "徳島市",
        "area_town_code": "362010092007",
        "area_town_name": "昭和町七丁目",
        "area_lat": 34.058683,
        "area_lng": 134.567631
    },
    {
        "area_city_code": 36201,
        "area_city_name": "徳島市",
        "area_town_code": "362010092008",
        "area_town_name": "昭和町八丁目",
        "area_lat": 34.057123,
        "area_lng": 134.572554
    },
    {
        "area_city_code": 36201,
        "area_city_name": "徳島市",
        "area_town_code": "362010093001",
        "area_town_name": "新内町一丁目",
        "area_lat": 34.069755,
        "area_lng": 134.552791
    },
    {
        "area_city_code": 36201,
        "area_city_name": "徳島市",
        "area_town_code": "362010093002",
        "area_town_name": "新内町二丁目",
        "area_lat": 34.070367,
        "area_lng": 134.55092
    },
    {
        "area_city_code": 36201,
        "area_city_name": "徳島市",
        "area_town_code": "362010094001",
        "area_town_name": "新蔵町一丁目",
        "area_lat": 34.070208,
        "area_lng": 134.55795
    },
    {
        "area_city_code": 36201,
        "area_city_name": "徳島市",
        "area_town_code": "362010094002",
        "area_town_name": "新蔵町二丁目",
        "area_lat": 34.070088,
        "area_lng": 134.559834
    },
    {
        "area_city_code": 36201,
        "area_city_name": "徳島市",
        "area_town_code": "362010094003",
        "area_town_name": "新蔵町三丁目",
        "area_lat": 34.069866,
        "area_lng": 134.561506
    },
    {
        "area_city_code": 36201,
        "area_city_name": "徳島市",
        "area_town_code": "362010095001",
        "area_town_name": "新浜町一丁目",
        "area_lat": 34.051736,
        "area_lng": 134.570302
    },
    {
        "area_city_code": 36201,
        "area_city_name": "徳島市",
        "area_town_code": "362010095002",
        "area_town_name": "新浜町二丁目",
        "area_lat": 34.049875,
        "area_lng": 134.568398
    },
    {
        "area_city_code": 36201,
        "area_city_name": "徳島市",
        "area_town_code": "362010095003",
        "area_town_name": "新浜町三丁目",
        "area_lat": 34.048028,
        "area_lng": 134.56723
    },
    {
        "area_city_code": 36201,
        "area_city_name": "徳島市",
        "area_town_code": "362010095004",
        "area_town_name": "新浜町四丁目",
        "area_lat": 34.051047,
        "area_lng": 134.565834
    },
    {
        "area_city_code": 36201,
        "area_city_name": "徳島市",
        "area_town_code": "362010096001",
        "area_town_name": "新浜本町一丁目",
        "area_lat": 34.043999,
        "area_lng": 134.572639
    },
    {
        "area_city_code": 36201,
        "area_city_name": "徳島市",
        "area_town_code": "362010096002",
        "area_town_name": "新浜本町二丁目",
        "area_lat": 34.04347,
        "area_lng": 134.568054
    },
    {
        "area_city_code": 36201,
        "area_city_name": "徳島市",
        "area_town_code": "362010096003",
        "area_town_name": "新浜本町三丁目",
        "area_lat": 34.046519,
        "area_lng": 134.566181
    },
    {
        "area_city_code": 36201,
        "area_city_name": "徳島市",
        "area_town_code": "362010096004",
        "area_town_name": "新浜本町四丁目",
        "area_lat": 34.047324,
        "area_lng": 134.570722
    },
    {
        "area_city_code": 36201,
        "area_city_name": "徳島市",
        "area_town_code": "362010097001",
        "area_town_name": "新町橋一丁目",
        "area_lat": 34.071047,
        "area_lng": 134.547433
    },
    {
        "area_city_code": 36201,
        "area_city_name": "徳島市",
        "area_town_code": "362010097002",
        "area_town_name": "新町橋二丁目",
        "area_lat": 34.070233,
        "area_lng": 134.545677
    },
    {
        "area_city_code": 36201,
        "area_city_name": "徳島市",
        "area_town_code": "362010098001",
        "area_town_name": "新南福島一丁目",
        "area_lat": 34.067043,
        "area_lng": 134.565161
    },
    {
        "area_city_code": 36201,
        "area_city_name": "徳島市",
        "area_town_code": "362010098002",
        "area_town_name": "新南福島二丁目",
        "area_lat": 34.067203,
        "area_lng": 134.567822
    },
    {
        "area_city_code": 36201,
        "area_city_name": "徳島市",
        "area_town_code": "362010099001",
        "area_town_name": "末広一丁目",
        "area_lat": 34.064176,
        "area_lng": 134.569115
    },
    {
        "area_city_code": 36201,
        "area_city_name": "徳島市",
        "area_town_code": "362010099002",
        "area_town_name": "末広二丁目",
        "area_lat": 34.06499,
        "area_lng": 134.573685
    },
    {
        "area_city_code": 36201,
        "area_city_name": "徳島市",
        "area_town_code": "362010099003",
        "area_town_name": "末広三丁目",
        "area_lat": 34.067141,
        "area_lng": 134.575932
    },
    {
        "area_city_code": 36201,
        "area_city_name": "徳島市",
        "area_town_code": "362010099004",
        "area_town_name": "末広四丁目",
        "area_lat": 34.065849,
        "area_lng": 134.579558
    },
    {
        "area_city_code": 36201,
        "area_city_name": "徳島市",
        "area_town_code": "362010099005",
        "area_town_name": "末広五丁目",
        "area_lat": 34.063677,
        "area_lng": 134.577647
    },
    {
        "area_city_code": 36201,
        "area_city_name": "徳島市",
        "area_town_code": "362010100001",
        "area_town_name": "助任橋一丁目",
        "area_lat": 34.077164,
        "area_lng": 134.558121
    },
    {
        "area_city_code": 36201,
        "area_city_name": "徳島市",
        "area_town_code": "362010100002",
        "area_town_name": "助任橋二丁目",
        "area_lat": 34.07865,
        "area_lng": 134.55788
    },
    {
        "area_city_code": 36201,
        "area_city_name": "徳島市",
        "area_town_code": "362010100003",
        "area_town_name": "助任橋三丁目",
        "area_lat": 34.080289,
        "area_lng": 134.559269
    },
    {
        "area_city_code": 36201,
        "area_city_name": "徳島市",
        "area_town_code": "362010100004",
        "area_town_name": "助任橋四丁目",
        "area_lat": 34.081513,
        "area_lng": 134.560116
    },
    {
        "area_city_code": 36201,
        "area_city_name": "徳島市",
        "area_town_code": "362010101001",
        "area_town_name": "助任本町一丁目",
        "area_lat": 34.07751,
        "area_lng": 134.556552
    },
    {
        "area_city_code": 36201,
        "area_city_name": "徳島市",
        "area_town_code": "362010101002",
        "area_town_name": "助任本町二丁目",
        "area_lat": 34.079056,
        "area_lng": 134.557467
    },
    {
        "area_city_code": 36201,
        "area_city_name": "徳島市",
        "area_town_code": "362010101003",
        "area_town_name": "助任本町三丁目",
        "area_lat": 34.080289,
        "area_lng": 134.558127
    },
    {
        "area_city_code": 36201,
        "area_city_name": "徳島市",
        "area_town_code": "362010101004",
        "area_town_name": "助任本町四丁目",
        "area_lat": 34.081697,
        "area_lng": 134.558969
    },
    {
        "area_city_code": 36201,
        "area_city_name": "徳島市",
        "area_town_code": "362010101005",
        "area_town_name": "助任本町五丁目",
        "area_lat": 34.082929,
        "area_lng": 134.559808
    },
    {
        "area_city_code": 36201,
        "area_city_name": "徳島市",
        "area_town_code": "362010101006",
        "area_town_name": "助任本町六丁目",
        "area_lat": 34.084588,
        "area_lng": 134.559829
    },
    {
        "area_city_code": 36201,
        "area_city_name": "徳島市",
        "area_town_code": "362010101007",
        "area_town_name": "助任本町七丁目",
        "area_lat": 34.08827,
        "area_lng": 134.563048
    },
    {
        "area_city_code": 36201,
        "area_city_name": "徳島市",
        "area_town_code": "362010102001",
        "area_town_name": "住吉一丁目",
        "area_lat": 34.074291,
        "area_lng": 134.564826
    },
    {
        "area_city_code": 36201,
        "area_city_name": "徳島市",
        "area_town_code": "362010102002",
        "area_town_name": "住吉二丁目",
        "area_lat": 34.076729,
        "area_lng": 134.56733
    },
    {
        "area_city_code": 36201,
        "area_city_name": "徳島市",
        "area_town_code": "362010102003",
        "area_town_name": "住吉三丁目",
        "area_lat": 34.075204,
        "area_lng": 134.570352
    },
    {
        "area_city_code": 36201,
        "area_city_name": "徳島市",
        "area_town_code": "362010102004",
        "area_town_name": "住吉四丁目",
        "area_lat": 34.083379,
        "area_lng": 134.571983
    },
    {
        "area_city_code": 36201,
        "area_city_name": "徳島市",
        "area_town_code": "362010102005",
        "area_town_name": "住吉五丁目",
        "area_lat": 34.081624,
        "area_lng": 134.575612
    },
    {
        "area_city_code": 36201,
        "area_city_name": "徳島市",
        "area_town_code": "362010102006",
        "area_town_name": "住吉六丁目",
        "area_lat": 34.080534,
        "area_lng": 134.579077
    },
    {
        "area_city_code": 36201,
        "area_city_name": "徳島市",
        "area_town_code": "362010103001",
        "area_town_name": "勢見町一丁目",
        "area_lat": 34.060628,
        "area_lng": 134.546502
    },
    {
        "area_city_code": 36201,
        "area_city_name": "徳島市",
        "area_town_code": "362010103002",
        "area_town_name": "勢見町二丁目",
        "area_lat": 34.060422,
        "area_lng": 134.544419
    },
    {
        "area_city_code": 36201,
        "area_city_name": "徳島市",
        "area_town_code": "362010104001",
        "area_town_name": "鷹匠町一丁目",
        "area_lat": 34.065921,
        "area_lng": 134.548067
    },
    {
        "area_city_code": 36201,
        "area_city_name": "徳島市",
        "area_town_code": "362010104002",
        "area_town_name": "鷹匠町二丁目",
        "area_lat": 34.064325,
        "area_lng": 134.548037
    },
    {
        "area_city_code": 36201,
        "area_city_name": "徳島市",
        "area_town_code": "362010104003",
        "area_town_name": "鷹匠町三丁目",
        "area_lat": 34.063025,
        "area_lng": 134.548043
    },
    {
        "area_city_code": 36201,
        "area_city_name": "徳島市",
        "area_town_code": "362010104004",
        "area_town_name": "鷹匠町四丁目",
        "area_lat": 34.061692,
        "area_lng": 134.547967
    },
    {
        "area_city_code": 36201,
        "area_city_name": "徳島市",
        "area_town_code": "362010104005",
        "area_town_name": "鷹匠町五丁目",
        "area_lat": 34.060083,
        "area_lng": 134.54791
    },
    {
        "area_city_code": 36201,
        "area_city_name": "徳島市",
        "area_town_code": "362010104006",
        "area_town_name": "鷹匠町六丁目",
        "area_lat": 34.05891,
        "area_lng": 134.547912
    },
    {
        "area_city_code": 36201,
        "area_city_name": "徳島市",
        "area_town_code": "362010105000",
        "area_town_name": "多家良町",
        "area_lat": 33.982638,
        "area_lng": 134.532583
    },
    {
        "area_city_code": 36201,
        "area_city_name": "徳島市",
        "area_town_code": "362010106001",
        "area_town_name": "中央通一丁目",
        "area_lat": 34.063529,
        "area_lng": 134.550228
    },
    {
        "area_city_code": 36201,
        "area_city_name": "徳島市",
        "area_town_code": "362010106002",
        "area_town_name": "中央通二丁目",
        "area_lat": 34.06315,
        "area_lng": 134.551512
    },
    {
        "area_city_code": 36201,
        "area_city_name": "徳島市",
        "area_town_code": "362010106003",
        "area_town_name": "中央通三丁目",
        "area_lat": 34.062258,
        "area_lng": 134.553475
    },
    {
        "area_city_code": 36201,
        "area_city_name": "徳島市",
        "area_town_code": "362010106004",
        "area_town_name": "中央通四丁目",
        "area_lat": 34.061924,
        "area_lng": 134.555115
    },
    {
        "area_city_code": 36201,
        "area_city_name": "徳島市",
        "area_town_code": "362010107000",
        "area_town_name": "津田海岸町",
        "area_lat": 34.045385,
        "area_lng": 134.586812
    },
    {
        "area_city_code": 36201,
        "area_city_name": "徳島市",
        "area_town_code": "362010108001",
        "area_town_name": "津田町一丁目",
        "area_lat": 34.052197,
        "area_lng": 134.582274
    },
    {
        "area_city_code": 36201,
        "area_city_name": "徳島市",
        "area_town_code": "362010108002",
        "area_town_name": "津田町二丁目",
        "area_lat": 34.048861,
        "area_lng": 134.581849
    },
    {
        "area_city_code": 36201,
        "area_city_name": "徳島市",
        "area_town_code": "362010108003",
        "area_town_name": "津田町三丁目",
        "area_lat": 34.046984,
        "area_lng": 134.581091
    },
    {
        "area_city_code": 36201,
        "area_city_name": "徳島市",
        "area_town_code": "362010108004",
        "area_town_name": "津田町四丁目",
        "area_lat": 34.043621,
        "area_lng": 134.580089
    },
    {
        "area_city_code": 36201,
        "area_city_name": "徳島市",
        "area_town_code": "362010109001",
        "area_town_name": "津田西町一丁目",
        "area_lat": 34.051368,
        "area_lng": 134.575755
    },
    {
        "area_city_code": 36201,
        "area_city_name": "徳島市",
        "area_town_code": "362010109002",
        "area_town_name": "津田西町二丁目",
        "area_lat": 34.048255,
        "area_lng": 134.574695
    },
    {
        "area_city_code": 36201,
        "area_city_name": "徳島市",
        "area_town_code": "362010110000",
        "area_town_name": "津田浜之町",
        "area_lat": 34.051246,
        "area_lng": 134.573095
    },
    {
        "area_city_code": 36201,
        "area_city_name": "徳島市",
        "area_town_code": "362010111001",
        "area_town_name": "津田本町一丁目",
        "area_lat": 34.052462,
        "area_lng": 134.578818
    },
    {
        "area_city_code": 36201,
        "area_city_name": "徳島市",
        "area_town_code": "362010111002",
        "area_town_name": "津田本町二丁目",
        "area_lat": 34.049806,
        "area_lng": 134.578384
    },
    {
        "area_city_code": 36201,
        "area_city_name": "徳島市",
        "area_town_code": "362010111003",
        "area_town_name": "津田本町三丁目",
        "area_lat": 34.047961,
        "area_lng": 134.577625
    },
    {
        "area_city_code": 36201,
        "area_city_name": "徳島市",
        "area_town_code": "362010111004",
        "area_town_name": "津田本町四丁目",
        "area_lat": 34.04607,
        "area_lng": 134.576212
    },
    {
        "area_city_code": 36201,
        "area_city_name": "徳島市",
        "area_town_code": "362010111005",
        "area_town_name": "津田本町五丁目",
        "area_lat": 34.043487,
        "area_lng": 134.576849
    },
    {
        "area_city_code": 36201,
        "area_city_name": "徳島市",
        "area_town_code": "362010112001",
        "area_town_name": "出来島本町一丁目",
        "area_lat": 34.077556,
        "area_lng": 134.54658
    },
    {
        "area_city_code": 36201,
        "area_city_name": "徳島市",
        "area_town_code": "362010112002",
        "area_town_name": "出来島本町二丁目",
        "area_lat": 34.078345,
        "area_lng": 134.545199
    },
    {
        "area_city_code": 36201,
        "area_city_name": "徳島市",
        "area_town_code": "362010112003",
        "area_town_name": "出来島本町三丁目",
        "area_lat": 34.079511,
        "area_lng": 134.544423
    },
    {
        "area_city_code": 36201,
        "area_city_name": "徳島市",
        "area_town_code": "362010112004",
        "area_town_name": "出来島本町四丁目",
        "area_lat": 34.079112,
        "area_lng": 134.543336
    },
    {
        "area_city_code": 36201,
        "area_city_name": "徳島市",
        "area_town_code": "362010113001",
        "area_town_name": "寺島本町西一丁目",
        "area_lat": 34.07431,
        "area_lng": 134.549645
    },
    {
        "area_city_code": 36201,
        "area_city_name": "徳島市",
        "area_town_code": "362010113002",
        "area_town_name": "寺島本町西二丁目",
        "area_lat": 34.075534,
        "area_lng": 134.54748
    },
    {
        "area_city_code": 36201,
        "area_city_name": "徳島市",
        "area_town_code": "362010114001",
        "area_town_name": "寺島本町東一丁目",
        "area_lat": 34.072726,
        "area_lng": 134.554008
    },
    {
        "area_city_code": 36201,
        "area_city_name": "徳島市",
        "area_town_code": "362010114002",
        "area_town_name": "寺島本町東二丁目",
        "area_lat": 34.073164,
        "area_lng": 134.552869
    },
    {
        "area_city_code": 36201,
        "area_city_name": "徳島市",
        "area_town_code": "362010114003",
        "area_town_name": "寺島本町東三丁目",
        "area_lat": 34.07382,
        "area_lng": 134.551706
    },
    {
        "area_city_code": 36201,
        "area_city_name": "徳島市",
        "area_town_code": "362010115000",
        "area_town_name": "寺町",
        "area_lat": 34.071766,
        "area_lng": 134.544472
    },
    {
        "area_city_code": 36201,
        "area_city_name": "徳島市",
        "area_town_code": "362010116000",
        "area_town_name": "問屋町",
        "area_lat": 34.048634,
        "area_lng": 134.548274
    },
    {
        "area_city_code": 36201,
        "area_city_name": "徳島市",
        "area_town_code": "362010117001",
        "area_town_name": "通町一丁目",
        "area_lat": 34.070931,
        "area_lng": 134.553238
    },
    {
        "area_city_code": 36201,
        "area_city_name": "徳島市",
        "area_town_code": "362010117002",
        "area_town_name": "通町二丁目",
        "area_lat": 34.071381,
        "area_lng": 134.551422
    },
    {
        "area_city_code": 36201,
        "area_city_name": "徳島市",
        "area_town_code": "362010117003",
        "area_town_name": "通町三丁目",
        "area_lat": 34.071834,
        "area_lng": 134.550275
    },
    {
        "area_city_code": 36201,
        "area_city_name": "徳島市",
        "area_town_code": "362010118001",
        "area_town_name": "徳島町一丁目",
        "area_lat": 34.071059,
        "area_lng": 134.557341
    },
    {
        "area_city_code": 36201,
        "area_city_name": "徳島市",
        "area_town_code": "362010118002",
        "area_town_name": "徳島町二丁目",
        "area_lat": 34.073167,
        "area_lng": 134.557671
    },
    {
        "area_city_code": 36201,
        "area_city_name": "徳島市",
        "area_town_code": "362010118003",
        "area_town_name": "徳島町三丁目",
        "area_lat": 34.075868,
        "area_lng": 134.557798
    },
    {
        "area_city_code": 36201,
        "area_city_name": "徳島市",
        "area_town_code": "362010119000",
        "area_town_name": "徳島町城内",
        "area_lat": 34.073662,
        "area_lng": 134.555244
    },
    {
        "area_city_code": 36201,
        "area_city_name": "徳島市",
        "area_town_code": "362010120001",
        "area_town_name": "徳島本町一丁目",
        "area_lat": 34.071781,
        "area_lng": 134.557456
    },
    {
        "area_city_code": 36201,
        "area_city_name": "徳島市",
        "area_town_code": "362010120002",
        "area_town_name": "徳島本町二丁目",
        "area_lat": 34.071675,
        "area_lng": 134.559235
    },
    {
        "area_city_code": 36201,
        "area_city_name": "徳島市",
        "area_town_code": "362010120003",
        "area_town_name": "徳島本町三丁目",
        "area_lat": 34.071502,
        "area_lng": 134.561404
    },
    {
        "area_city_code": 36201,
        "area_city_name": "徳島市",
        "area_town_code": "362010121001",
        "area_town_name": "富田橋一丁目",
        "area_lat": 34.065705,
        "area_lng": 134.553433
    },
    {
        "area_city_code": 36201,
        "area_city_name": "徳島市",
        "area_town_code": "362010121002",
        "area_town_name": "富田橋二丁目",
        "area_lat": 34.063712,
        "area_lng": 134.552693
    },
    {
        "area_city_code": 36201,
        "area_city_name": "徳島市",
        "area_town_code": "362010121003",
        "area_town_name": "富田橋三丁目",
        "area_lat": 34.061923,
        "area_lng": 134.55141
    },
    {
        "area_city_code": 36201,
        "area_city_name": "徳島市",
        "area_town_code": "362010121004",
        "area_town_name": "富田橋四丁目",
        "area_lat": 34.060718,
        "area_lng": 134.55138
    },
    {
        "area_city_code": 36201,
        "area_city_name": "徳島市",
        "area_town_code": "362010121005",
        "area_town_name": "富田橋五丁目",
        "area_lat": 34.059796,
        "area_lng": 134.550979
    },
    {
        "area_city_code": 36201,
        "area_city_name": "徳島市",
        "area_town_code": "362010121006",
        "area_town_name": "富田橋六丁目",
        "area_lat": 34.058822,
        "area_lng": 134.550643
    },
    {
        "area_city_code": 36201,
        "area_city_name": "徳島市",
        "area_town_code": "362010121007",
        "area_town_name": "富田橋七丁目",
        "area_lat": 34.05796,
        "area_lng": 134.548929
    },
    {
        "area_city_code": 36201,
        "area_city_name": "徳島市",
        "area_town_code": "362010121008",
        "area_town_name": "富田橋八丁目",
        "area_lat": 34.056446,
        "area_lng": 134.548136
    },
    {
        "area_city_code": 36201,
        "area_city_name": "徳島市",
        "area_town_code": "362010122001",
        "area_town_name": "富田浜一丁目",
        "area_lat": 34.067873,
        "area_lng": 134.551327
    },
    {
        "area_city_code": 36201,
        "area_city_name": "徳島市",
        "area_town_code": "362010122002",
        "area_town_name": "富田浜二丁目",
        "area_lat": 34.067231,
        "area_lng": 134.552937
    },
    {
        "area_city_code": 36201,
        "area_city_name": "徳島市",
        "area_town_code": "362010122003",
        "area_town_name": "富田浜三丁目",
        "area_lat": 34.066889,
        "area_lng": 134.554815
    },
    {
        "area_city_code": 36201,
        "area_city_name": "徳島市",
        "area_town_code": "362010122004",
        "area_town_name": "富田浜四丁目",
        "area_lat": 34.066662,
        "area_lng": 134.555876
    },
    {
        "area_city_code": 36201,
        "area_city_name": "徳島市",
        "area_town_code": "362010123001",
        "area_town_name": "富田町一丁目",
        "area_lat": 34.068144,
        "area_lng": 134.549219
    },
    {
        "area_city_code": 36201,
        "area_city_name": "徳島市",
        "area_town_code": "362010123002",
        "area_town_name": "富田町二丁目",
        "area_lat": 34.067727,
        "area_lng": 134.5489
    },
    {
        "area_city_code": 36201,
        "area_city_name": "徳島市",
        "area_town_code": "362010124001",
        "area_town_name": "中島田町一丁目",
        "area_lat": 34.081871,
        "area_lng": 134.515964
    },
    {
        "area_city_code": 36201,
        "area_city_name": "徳島市",
        "area_town_code": "362010124002",
        "area_town_name": "中島田町二丁目",
        "area_lat": 34.083281,
        "area_lng": 134.513835
    },
    {
        "area_city_code": 36201,
        "area_city_name": "徳島市",
        "area_town_code": "362010124003",
        "area_town_name": "中島田町三丁目",
        "area_lat": 34.083701,
        "area_lng": 134.510692
    },
    {
        "area_city_code": 36201,
        "area_city_name": "徳島市",
        "area_town_code": "362010124004",
        "area_town_name": "中島田町四丁目",
        "area_lat": 34.085121,
        "area_lng": 134.506568
    },
    {
        "area_city_code": 36201,
        "area_city_name": "徳島市",
        "area_town_code": "362010125001",
        "area_town_name": "中常三島町一丁目",
        "area_lat": 34.079597,
        "area_lng": 134.560223
    },
    {
        "area_city_code": 36201,
        "area_city_name": "徳島市",
        "area_town_code": "362010125002",
        "area_town_name": "中常三島町二丁目",
        "area_lat": 34.079673,
        "area_lng": 134.56261
    },
    {
        "area_city_code": 36201,
        "area_city_name": "徳島市",
        "area_town_code": "362010125003",
        "area_town_name": "中常三島町三丁目",
        "area_lat": 34.079103,
        "area_lng": 134.565208
    },
    {
        "area_city_code": 36201,
        "area_city_name": "徳島市",
        "area_town_code": "362010126001",
        "area_town_name": "中昭和町一丁目",
        "area_lat": 34.06211,
        "area_lng": 134.557017
    },
    {
        "area_city_code": 36201,
        "area_city_name": "徳島市",
        "area_town_code": "362010126002",
        "area_town_name": "中昭和町二丁目",
        "area_lat": 34.061551,
        "area_lng": 134.558031
    },
    {
        "area_city_code": 36201,
        "area_city_name": "徳島市",
        "area_town_code": "362010126003",
        "area_town_name": "中昭和町三丁目",
        "area_lat": 34.060647,
        "area_lng": 134.559071
    },
    {
        "area_city_code": 36201,
        "area_city_name": "徳島市",
        "area_town_code": "362010126004",
        "area_town_name": "中昭和町四丁目",
        "area_lat": 34.06092,
        "area_lng": 134.561142
    },
    {
        "area_city_code": 36201,
        "area_city_name": "徳島市",
        "area_town_code": "362010126005",
        "area_town_name": "中昭和町五丁目",
        "area_lat": 34.059967,
        "area_lng": 134.563322
    },
    {
        "area_city_code": 36201,
        "area_city_name": "徳島市",
        "area_town_code": "362010127001",
        "area_town_name": "中洲町一丁目",
        "area_lat": 34.068114,
        "area_lng": 134.55761
    },
    {
        "area_city_code": 36201,
        "area_city_name": "徳島市",
        "area_town_code": "362010127002",
        "area_town_name": "中洲町二丁目",
        "area_lat": 34.067857,
        "area_lng": 134.559525
    },
    {
        "area_city_code": 36201,
        "area_city_name": "徳島市",
        "area_town_code": "362010127003",
        "area_town_name": "中洲町三丁目",
        "area_lat": 34.067648,
        "area_lng": 134.561771
    },
    {
        "area_city_code": 36201,
        "area_city_name": "徳島市",
        "area_town_code": "362010128001",
        "area_town_name": "中通町一丁目",
        "area_lat": 34.07031,
        "area_lng": 134.55297
    },
    {
        "area_city_code": 36201,
        "area_city_name": "徳島市",
        "area_town_code": "362010128002",
        "area_town_name": "中通町二丁目",
        "area_lat": 34.070839,
        "area_lng": 134.551147
    },
    {
        "area_city_code": 36201,
        "area_city_name": "徳島市",
        "area_town_code": "362010128003",
        "area_town_name": "中通町三丁目",
        "area_lat": 34.071337,
        "area_lng": 134.550179
    },
    {
        "area_city_code": 36201,
        "area_city_name": "徳島市",
        "area_town_code": "362010129001",
        "area_town_name": "中徳島町一丁目",
        "area_lat": 34.072466,
        "area_lng": 134.560307
    },
    {
        "area_city_code": 36201,
        "area_city_name": "徳島市",
        "area_town_code": "362010129002",
        "area_town_name": "中徳島町二丁目",
        "area_lat": 34.07466,
        "area_lng": 134.559874
    },
    {
        "area_city_code": 36201,
        "area_city_name": "徳島市",
        "area_town_code": "362010130001",
        "area_town_name": "仲之町一丁目",
        "area_lat": 34.066731,
        "area_lng": 134.550898
    },
    {
        "area_city_code": 36201,
        "area_city_name": "徳島市",
        "area_town_code": "362010130002",
        "area_town_name": "仲之町二丁目",
        "area_lat": 34.066414,
        "area_lng": 134.552644
    },
    {
        "area_city_code": 36201,
        "area_city_name": "徳島市",
        "area_town_code": "362010130003",
        "area_town_name": "仲之町三丁目",
        "area_lat": 34.066019,
        "area_lng": 134.55441
    },
    {
        "area_city_code": 36201,
        "area_city_name": "徳島市",
        "area_town_code": "362010130004",
        "area_town_name": "仲之町四丁目",
        "area_lat": 34.065733,
        "area_lng": 134.555981
    },
    {
        "area_city_code": 36201,
        "area_city_name": "徳島市",
        "area_town_code": "362010131001",
        "area_town_name": "中前川町一丁目",
        "area_lat": 34.079299,
        "area_lng": 134.555805
    },
    {
        "area_city_code": 36201,
        "area_city_name": "徳島市",
        "area_town_code": "362010131002",
        "area_town_name": "中前川町二丁目",
        "area_lat": 34.079714,
        "area_lng": 134.554252
    },
    {
        "area_city_code": 36201,
        "area_city_name": "徳島市",
        "area_town_code": "362010131003",
        "area_town_name": "中前川町三丁目",
        "area_lat": 34.079851,
        "area_lng": 134.552623
    },
    {
        "area_city_code": 36201,
        "area_city_name": "徳島市",
        "area_town_code": "362010131004",
        "area_town_name": "中前川町四丁目",
        "area_lat": 34.080125,
        "area_lng": 134.549587
    },
    {
        "area_city_code": 36201,
        "area_city_name": "徳島市",
        "area_town_code": "362010131005",
        "area_town_name": "中前川町五丁目",
        "area_lat": 34.081553,
        "area_lng": 134.546594
    },
    {
        "area_city_code": 36201,
        "area_city_name": "徳島市",
        "area_town_code": "362010132001",
        "area_town_name": "中吉野町一丁目",
        "area_lat": 34.084402,
        "area_lng": 134.558253
    },
    {
        "area_city_code": 36201,
        "area_city_name": "徳島市",
        "area_town_code": "362010132002",
        "area_town_name": "中吉野町二丁目",
        "area_lat": 34.085215,
        "area_lng": 134.556668
    },
    {
        "area_city_code": 36201,
        "area_city_name": "徳島市",
        "area_town_code": "362010132003",
        "area_town_name": "中吉野町三丁目",
        "area_lat": 34.085804,
        "area_lng": 134.554201
    },
    {
        "area_city_code": 36201,
        "area_city_name": "徳島市",
        "area_town_code": "362010132004",
        "area_town_name": "中吉野町四丁目",
        "area_lat": 34.085668,
        "area_lng": 134.550051
    },
    {
        "area_city_code": 36201,
        "area_city_name": "徳島市",
        "area_town_code": "362010133001",
        "area_town_name": "二軒屋町一丁目",
        "area_lat": 34.060064,
        "area_lng": 134.54663
    },
    {
        "area_city_code": 36201,
        "area_city_name": "徳島市",
        "area_town_code": "362010133002",
        "area_town_name": "二軒屋町二丁目",
        "area_lat": 34.058528,
        "area_lng": 134.546451
    },
    {
        "area_city_code": 36201,
        "area_city_name": "徳島市",
        "area_town_code": "362010133003",
        "area_town_name": "二軒屋町三丁目",
        "area_lat": 34.057075,
        "area_lng": 134.546693
    },
    {
        "area_city_code": 36201,
        "area_city_name": "徳島市",
        "area_town_code": "362010134001",
        "area_town_name": "西新浜町一丁目",
        "area_lat": 34.045993,
        "area_lng": 134.561899
    },
    {
        "area_city_code": 36201,
        "area_city_name": "徳島市",
        "area_town_code": "362010134002",
        "area_town_name": "西新浜町二丁目",
        "area_lat": 34.041874,
        "area_lng": 134.559833
    },
    {
        "area_city_code": 36201,
        "area_city_name": "徳島市",
        "area_town_code": "362010135001",
        "area_town_name": "西新町一丁目",
        "area_lat": 34.071464,
        "area_lng": 134.546785
    },
    {
        "area_city_code": 36201,
        "area_city_name": "徳島市",
        "area_town_code": "362010135002",
        "area_town_name": "西新町二丁目",
        "area_lat": 34.072381,
        "area_lng": 134.546219
    },
    {
        "area_city_code": 36201,
        "area_city_name": "徳島市",
        "area_town_code": "362010135003",
        "area_town_name": "西新町三丁目",
        "area_lat": 34.073404,
        "area_lng": 134.545367
    },
    {
        "area_city_code": 36201,
        "area_city_name": "徳島市",
        "area_town_code": "362010135004",
        "area_town_name": "西新町四丁目",
        "area_lat": 34.074328,
        "area_lng": 134.54445
    },
    {
        "area_city_code": 36201,
        "area_city_name": "徳島市",
        "area_town_code": "362010135005",
        "area_town_name": "西新町五丁目",
        "area_lat": 34.075318,
        "area_lng": 134.543038
    },
    {
        "area_city_code": 36201,
        "area_city_name": "徳島市",
        "area_town_code": "362010136000",
        "area_town_name": "西須賀町",
        "area_lat": 34.02957,
        "area_lng": 134.547162
    },
    {
        "area_city_code": 36201,
        "area_city_name": "徳島市",
        "area_town_code": "362010137001",
        "area_town_name": "西船場町一丁目",
        "area_lat": 34.071896,
        "area_lng": 134.547543
    },
    {
        "area_city_code": 36201,
        "area_city_name": "徳島市",
        "area_town_code": "362010137002",
        "area_town_name": "西船場町二丁目",
        "area_lat": 34.072768,
        "area_lng": 134.546968
    },
    {
        "area_city_code": 36201,
        "area_city_name": "徳島市",
        "area_town_code": "362010137003",
        "area_town_name": "西船場町三丁目",
        "area_lat": 34.073845,
        "area_lng": 134.546
    },
    {
        "area_city_code": 36201,
        "area_city_name": "徳島市",
        "area_town_code": "362010137004",
        "area_town_name": "西船場町四丁目",
        "area_lat": 34.07474,
        "area_lng": 134.54513
    },
    {
        "area_city_code": 36201,
        "area_city_name": "徳島市",
        "area_town_code": "362010137005",
        "area_town_name": "西船場町五丁目",
        "area_lat": 34.075504,
        "area_lng": 134.544124
    },
    {
        "area_city_code": 36201,
        "area_city_name": "徳島市",
        "area_town_code": "362010138001",
        "area_town_name": "西大工町一丁目",
        "area_lat": 34.071142,
        "area_lng": 134.545895
    },
    {
        "area_city_code": 36201,
        "area_city_name": "徳島市",
        "area_town_code": "362010138002",
        "area_town_name": "西大工町二丁目",
        "area_lat": 34.072135,
        "area_lng": 134.545643
    },
    {
        "area_city_code": 36201,
        "area_city_name": "徳島市",
        "area_town_code": "362010138003",
        "area_town_name": "西大工町三丁目",
        "area_lat": 34.073128,
        "area_lng": 134.544863
    },
    {
        "area_city_code": 36201,
        "area_city_name": "徳島市",
        "area_town_code": "362010138004",
        "area_town_name": "西大工町四丁目",
        "area_lat": 34.073931,
        "area_lng": 134.543802
    },
    {
        "area_city_code": 36201,
        "area_city_name": "徳島市",
        "area_town_code": "362010138005",
        "area_town_name": "西大工町五丁目",
        "area_lat": 34.074732,
        "area_lng": 134.542761
    },
    {
        "area_city_code": 36201,
        "area_city_name": "徳島市",
        "area_town_code": "362010139000",
        "area_town_name": "西富田町",
        "area_lat": 34.062611,
        "area_lng": 134.541597
    },
    {
        "area_city_code": 36201,
        "area_city_name": "徳島市",
        "area_town_code": "362010140001",
        "area_town_name": "西二軒屋町一丁目",
        "area_lat": 34.057528,
        "area_lng": 134.545498
    },
    {
        "area_city_code": 36201,
        "area_city_name": "徳島市",
        "area_town_code": "362010140002",
        "area_town_name": "西二軒屋町二丁目",
        "area_lat": 34.058054,
        "area_lng": 134.54389
    },
    {
        "area_city_code": 36201,
        "area_city_name": "徳島市",
        "area_town_code": "362010141000",
        "area_town_name": "西山手町",
        "area_lat": 34.070817,
        "area_lng": 134.545227
    },
    {
        "area_city_code": 36201,
        "area_city_name": "徳島市",
        "area_town_code": "362010142000",
        "area_town_name": "入田町",
        "area_lat": 34.03894,
        "area_lng": 134.445609
    },
    {
        "area_city_code": 36201,
        "area_city_name": "徳島市",
        "area_town_code": "362010143001",
        "area_town_name": "幟町一丁目",
        "area_lat": 34.066436,
        "area_lng": 134.546554
    },
    {
        "area_city_code": 36201,
        "area_city_name": "徳島市",
        "area_town_code": "362010143002",
        "area_town_name": "幟町二丁目",
        "area_lat": 34.064611,
        "area_lng": 134.546445
    },
    {
        "area_city_code": 36201,
        "area_city_name": "徳島市",
        "area_town_code": "362010143003",
        "area_town_name": "幟町三丁目",
        "area_lat": 34.063068,
        "area_lng": 134.54641
    },
    {
        "area_city_code": 36201,
        "area_city_name": "徳島市",
        "area_town_code": "362010143004",
        "area_town_name": "幟町四丁目",
        "area_lat": 34.061678,
        "area_lng": 134.546244
    },
    {
        "area_city_code": 36201,
        "area_city_name": "徳島市",
        "area_town_code": "362010144000",
        "area_town_name": "八多町",
        "area_lat": 33.988499,
        "area_lng": 134.507867
    },
    {
        "area_city_code": 36201,
        "area_city_name": "徳島市",
        "area_town_code": "362010145000",
        "area_town_name": "八万町",
        "area_lat": 34.051273,
        "area_lng": 134.52537
    },
    {
        "area_city_code": 36201,
        "area_city_name": "徳島市",
        "area_town_code": "362010146001",
        "area_town_name": "万代町一丁目",
        "area_lat": 34.0661,
        "area_lng": 134.557923
    },
    {
        "area_city_code": 36201,
        "area_city_name": "徳島市",
        "area_town_code": "362010146002",
        "area_town_name": "万代町二丁目",
        "area_lat": 34.065599,
        "area_lng": 134.559755
    },
    {
        "area_city_code": 36201,
        "area_city_name": "徳島市",
        "area_town_code": "362010146003",
        "area_town_name": "万代町三丁目",
        "area_lat": 34.065429,
        "area_lng": 134.561491
    },
    {
        "area_city_code": 36201,
        "area_city_name": "徳島市",
        "area_town_code": "362010146004",
        "area_town_name": "万代町四丁目",
        "area_lat": 34.064996,
        "area_lng": 134.563535
    },
    {
        "area_city_code": 36201,
        "area_city_name": "徳島市",
        "area_town_code": "362010146005",
        "area_town_name": "万代町五丁目",
        "area_lat": 34.063566,
        "area_lng": 134.565872
    },
    {
        "area_city_code": 36201,
        "area_city_name": "徳島市",
        "area_town_code": "362010146006",
        "area_town_name": "万代町六丁目",
        "area_lat": 34.061616,
        "area_lng": 134.566948
    },
    {
        "area_city_code": 36201,
        "area_city_name": "徳島市",
        "area_town_code": "362010146007",
        "area_town_name": "万代町七丁目",
        "area_lat": 34.060036,
        "area_lng": 134.568856
    },
    {
        "area_city_code": 36201,
        "area_city_name": "徳島市",
        "area_town_code": "362010147001",
        "area_town_name": "東新町一丁目",
        "area_lat": 34.0702,
        "area_lng": 134.547808
    },
    {
        "area_city_code": 36201,
        "area_city_name": "徳島市",
        "area_town_code": "362010147002",
        "area_town_name": "東新町二丁目",
        "area_lat": 34.069237,
        "area_lng": 134.548736
    },
    {
        "area_city_code": 36201,
        "area_city_name": "徳島市",
        "area_town_code": "362010148001",
        "area_town_name": "東船場町一丁目",
        "area_lat": 34.070649,
        "area_lng": 134.548655
    },
    {
        "area_city_code": 36201,
        "area_city_name": "徳島市",
        "area_town_code": "362010148002",
        "area_town_name": "東船場町二丁目",
        "area_lat": 34.069313,
        "area_lng": 134.549683
    },
    {
        "area_city_code": 36201,
        "area_city_name": "徳島市",
        "area_town_code": "362010149001",
        "area_town_name": "東大工町一丁目",
        "area_lat": 34.069638,
        "area_lng": 134.546511
    },
    {
        "area_city_code": 36201,
        "area_city_name": "徳島市",
        "area_town_code": "362010149002",
        "area_town_name": "東大工町二丁目",
        "area_lat": 34.068698,
        "area_lng": 134.546874
    },
    {
        "area_city_code": 36201,
        "area_city_name": "徳島市",
        "area_town_code": "362010149003",
        "area_town_name": "東大工町三丁目",
        "area_lat": 34.067803,
        "area_lng": 134.547246
    },
    {
        "area_city_code": 36201,
        "area_city_name": "徳島市",
        "area_town_code": "362010150000",
        "area_town_name": "東出来島町",
        "area_lat": 34.077554,
        "area_lng": 134.548068
    },
    {
        "area_city_code": 36201,
        "area_city_name": "徳島市",
        "area_town_code": "362010151001",
        "area_town_name": "東山手町一丁目",
        "area_lat": 34.069299,
        "area_lng": 134.545574
    },
    {
        "area_city_code": 36201,
        "area_city_name": "徳島市",
        "area_town_code": "362010151002",
        "area_town_name": "東山手町二丁目",
        "area_lat": 34.068403,
        "area_lng": 134.54562
    },
    {
        "area_city_code": 36201,
        "area_city_name": "徳島市",
        "area_town_code": "362010151003",
        "area_town_name": "東山手町三丁目",
        "area_lat": 34.067926,
        "area_lng": 134.544187
    },
    {
        "area_city_code": 36201,
        "area_city_name": "徳島市",
        "area_town_code": "362010152001",
        "area_town_name": "東吉野町一丁目",
        "area_lat": 34.087119,
        "area_lng": 134.56418
    },
    {
        "area_city_code": 36201,
        "area_city_name": "徳島市",
        "area_town_code": "362010152002",
        "area_town_name": "東吉野町二丁目",
        "area_lat": 34.08643,
        "area_lng": 134.566221
    },
    {
        "area_city_code": 36201,
        "area_city_name": "徳島市",
        "area_town_code": "362010152003",
        "area_town_name": "東吉野町三丁目",
        "area_lat": 34.085575,
        "area_lng": 134.568372
    },
    {
        "area_city_code": 36201,
        "area_city_name": "徳島市",
        "area_town_code": "362010153000",
        "area_town_name": "眉山町",
        "area_lat": 34.069364,
        "area_lng": 134.54044
    },
    {
        "area_city_code": 36201,
        "area_city_name": "徳島市",
        "area_town_code": "362010154001",
        "area_town_name": "福島一丁目",
        "area_lat": 34.0707,
        "area_lng": 134.565124
    },
    {
        "area_city_code": 36201,
        "area_city_name": "徳島市",
        "area_town_code": "362010154002",
        "area_town_name": "福島二丁目",
        "area_lat": 34.070298,
        "area_lng": 134.568677
    },
    {
        "area_city_code": 36201,
        "area_city_name": "徳島市",
        "area_town_code": "362010155001",
        "area_town_name": "不動北町一丁目",
        "area_lat": 34.104216,
        "area_lng": 134.501972
    },
    {
        "area_city_code": 36201,
        "area_city_name": "徳島市",
        "area_town_code": "362010155002",
        "area_town_name": "不動北町二丁目",
        "area_lat": 34.102883,
        "area_lng": 134.492826
    },
    {
        "area_city_code": 36201,
        "area_city_name": "徳島市",
        "area_town_code": "362010156001",
        "area_town_name": "不動西町一丁目",
        "area_lat": 34.093542,
        "area_lng": 134.502011
    },
    {
        "area_city_code": 36201,
        "area_city_name": "徳島市",
        "area_town_code": "362010156002",
        "area_town_name": "不動西町二丁目",
        "area_lat": 34.088168,
        "area_lng": 134.502396
    },
    {
        "area_city_code": 36201,
        "area_city_name": "徳島市",
        "area_town_code": "362010156003",
        "area_town_name": "不動西町三丁目",
        "area_lat": 34.090832,
        "area_lng": 134.495647
    },
    {
        "area_city_code": 36201,
        "area_city_name": "徳島市",
        "area_town_code": "362010156004",
        "area_town_name": "不動西町四丁目",
        "area_lat": 34.094628,
        "area_lng": 134.492732
    },
    {
        "area_city_code": 36201,
        "area_city_name": "徳島市",
        "area_town_code": "362010157001",
        "area_town_name": "不動東町一丁目",
        "area_lat": 34.092372,
        "area_lng": 134.509986
    },
    {
        "area_city_code": 36201,
        "area_city_name": "徳島市",
        "area_town_code": "362010157002",
        "area_town_name": "不動東町二丁目",
        "area_lat": 34.09319,
        "area_lng": 134.511533
    },
    {
        "area_city_code": 36201,
        "area_city_name": "徳島市",
        "area_town_code": "362010157003",
        "area_town_name": "不動東町三丁目",
        "area_lat": 34.094007,
        "area_lng": 134.515677
    },
    {
        "area_city_code": 36201,
        "area_city_name": "徳島市",
        "area_town_code": "362010157004",
        "area_town_name": "不動東町四丁目",
        "area_lat": 34.101039,
        "area_lng": 134.511979
    },
    {
        "area_city_code": 36201,
        "area_city_name": "徳島市",
        "area_town_code": "362010157005",
        "area_town_name": "不動東町五丁目",
        "area_lat": 34.098402,
        "area_lng": 134.523311
    },
    {
        "area_city_code": 36201,
        "area_city_name": "徳島市",
        "area_town_code": "362010158001",
        "area_town_name": "不動本町一丁目",
        "area_lat": 34.092256,
        "area_lng": 134.507479
    },
    {
        "area_city_code": 36201,
        "area_city_name": "徳島市",
        "area_town_code": "362010158002",
        "area_town_name": "不動本町二丁目",
        "area_lat": 34.095492,
        "area_lng": 134.507025
    },
    {
        "area_city_code": 36201,
        "area_city_name": "徳島市",
        "area_town_code": "362010158003",
        "area_town_name": "不動本町三丁目",
        "area_lat": 34.098669,
        "area_lng": 134.50473
    },
    {
        "area_city_code": 36201,
        "area_city_name": "徳島市",
        "area_town_code": "362010159001",
        "area_town_name": "南内町一丁目",
        "area_lat": 34.068479,
        "area_lng": 134.552379
    },
    {
        "area_city_code": 36201,
        "area_city_name": "徳島市",
        "area_town_code": "362010159002",
        "area_town_name": "南内町二丁目",
        "area_lat": 34.069786,
        "area_lng": 134.55056
    },
    {
        "area_city_code": 36201,
        "area_city_name": "徳島市",
        "area_town_code": "362010159003",
        "area_town_name": "南内町三丁目",
        "area_lat": 34.070811,
        "area_lng": 134.549693
    },
    {
        "area_city_code": 36201,
        "area_city_name": "徳島市",
        "area_town_code": "362010160001",
        "area_town_name": "南沖洲一丁目",
        "area_lat": 34.064529,
        "area_lng": 134.583234
    },
    {
        "area_city_code": 36201,
        "area_city_name": "徳島市",
        "area_town_code": "362010160002",
        "area_town_name": "南沖洲二丁目",
        "area_lat": 34.063746,
        "area_lng": 134.586123
    },
    {
        "area_city_code": 36201,
        "area_city_name": "徳島市",
        "area_town_code": "362010160003",
        "area_town_name": "南沖洲三丁目",
        "area_lat": 34.062258,
        "area_lng": 134.588643
    },
    {
        "area_city_code": 36201,
        "area_city_name": "徳島市",
        "area_town_code": "362010160004",
        "area_town_name": "南沖洲四丁目",
        "area_lat": 34.058724,
        "area_lng": 134.587693
    },
    {
        "area_city_code": 36201,
        "area_city_name": "徳島市",
        "area_town_code": "362010160005",
        "area_town_name": "南沖洲五丁目",
        "area_lat": 34.058577,
        "area_lng": 134.582512
    },
    {
        "area_city_code": 36201,
        "area_city_name": "徳島市",
        "area_town_code": "362010161001",
        "area_town_name": "南蔵本町一丁目",
        "area_lat": 34.074911,
        "area_lng": 134.520378
    },
    {
        "area_city_code": 36201,
        "area_city_name": "徳島市",
        "area_town_code": "362010161002",
        "area_town_name": "南蔵本町二丁目",
        "area_lat": 34.072796,
        "area_lng": 134.520233
    },
    {
        "area_city_code": 36201,
        "area_city_name": "徳島市",
        "area_town_code": "362010161003",
        "area_town_name": "南蔵本町三丁目",
        "area_lat": 34.072274,
        "area_lng": 134.518378
    },
    {
        "area_city_code": 36201,
        "area_city_name": "徳島市",
        "area_town_code": "362010162000",
        "area_town_name": "南佐古一番町",
        "area_lat": 34.07531,
        "area_lng": 134.540617
    },
    {
        "area_city_code": 36201,
        "area_city_name": "徳島市",
        "area_town_code": "362010163000",
        "area_town_name": "南佐古二番町",
        "area_lat": 34.074959,
        "area_lng": 134.537644
    },
    {
        "area_city_code": 36201,
        "area_city_name": "徳島市",
        "area_town_code": "362010164000",
        "area_town_name": "南佐古三番町",
        "area_lat": 34.075209,
        "area_lng": 134.53375
    },
    {
        "area_city_code": 36201,
        "area_city_name": "徳島市",
        "area_town_code": "362010165000",
        "area_town_name": "南佐古四番町",
        "area_lat": 34.074572,
        "area_lng": 134.531289
    },
    {
        "area_city_code": 36201,
        "area_city_name": "徳島市",
        "area_town_code": "362010166000",
        "area_town_name": "南佐古五番町",
        "area_lat": 34.074573,
        "area_lng": 134.529355
    },
    {
        "area_city_code": 36201,
        "area_city_name": "徳島市",
        "area_town_code": "362010167000",
        "area_town_name": "南佐古六番町",
        "area_lat": 34.073675,
        "area_lng": 134.527721
    },
    {
        "area_city_code": 36201,
        "area_city_name": "徳島市",
        "area_town_code": "362010168000",
        "area_town_name": "南佐古七番町",
        "area_lat": 34.073114,
        "area_lng": 134.525121
    },
    {
        "area_city_code": 36201,
        "area_city_name": "徳島市",
        "area_town_code": "362010169000",
        "area_town_name": "南佐古八番町",
        "area_lat": 34.073759,
        "area_lng": 134.522354
    },
    {
        "area_city_code": 36201,
        "area_city_name": "徳島市",
        "area_town_code": "362010170001",
        "area_town_name": "南島田町一丁目",
        "area_lat": 34.079966,
        "area_lng": 134.51499
    },
    {
        "area_city_code": 36201,
        "area_city_name": "徳島市",
        "area_town_code": "362010170002",
        "area_town_name": "南島田町二丁目",
        "area_lat": 34.079959,
        "area_lng": 134.512035
    },
    {
        "area_city_code": 36201,
        "area_city_name": "徳島市",
        "area_town_code": "362010170003",
        "area_town_name": "南島田町三丁目",
        "area_lat": 34.079489,
        "area_lng": 134.508083
    },
    {
        "area_city_code": 36201,
        "area_city_name": "徳島市",
        "area_town_code": "362010170004",
        "area_town_name": "南島田町四丁目",
        "area_lat": 34.079495,
        "area_lng": 134.503792
    },
    {
        "area_city_code": 36201,
        "area_city_name": "徳島市",
        "area_town_code": "362010171001",
        "area_town_name": "南常三島町一丁目",
        "area_lat": 34.077358,
        "area_lng": 134.559927
    },
    {
        "area_city_code": 36201,
        "area_city_name": "徳島市",
        "area_town_code": "362010171002",
        "area_town_name": "南常三島町二丁目",
        "area_lat": 34.07745,
        "area_lng": 134.562356
    },
    {
        "area_city_code": 36201,
        "area_city_name": "徳島市",
        "area_town_code": "362010171003",
        "area_town_name": "南常三島町三丁目",
        "area_lat": 34.07724,
        "area_lng": 134.564725
    },
    {
        "area_city_code": 36201,
        "area_city_name": "徳島市",
        "area_town_code": "362010172001",
        "area_town_name": "南庄町一丁目",
        "area_lat": 34.071611,
        "area_lng": 134.515351
    },
    {
        "area_city_code": 36201,
        "area_city_name": "徳島市",
        "area_town_code": "362010172002",
        "area_town_name": "南庄町二丁目",
        "area_lat": 34.071428,
        "area_lng": 134.51354
    },
    {
        "area_city_code": 36201,
        "area_city_name": "徳島市",
        "area_town_code": "362010172003",
        "area_town_name": "南庄町三丁目",
        "area_lat": 34.071198,
        "area_lng": 134.510991
    },
    {
        "area_city_code": 36201,
        "area_city_name": "徳島市",
        "area_town_code": "362010172004",
        "area_town_name": "南庄町四丁目",
        "area_lat": 34.070063,
        "area_lng": 134.509022
    },
    {
        "area_city_code": 36201,
        "area_city_name": "徳島市",
        "area_town_code": "362010172005",
        "area_town_name": "南庄町五丁目",
        "area_lat": 34.069111,
        "area_lng": 134.506609
    },
    {
        "area_city_code": 36201,
        "area_city_name": "徳島市",
        "area_town_code": "362010173001",
        "area_town_name": "南昭和町一丁目",
        "area_lat": 34.058436,
        "area_lng": 134.554982
    },
    {
        "area_city_code": 36201,
        "area_city_name": "徳島市",
        "area_town_code": "362010173002",
        "area_town_name": "南昭和町二丁目",
        "area_lat": 34.05781,
        "area_lng": 134.55598
    },
    {
        "area_city_code": 36201,
        "area_city_name": "徳島市",
        "area_town_code": "362010173003",
        "area_town_name": "南昭和町三丁目",
        "area_lat": 34.056927,
        "area_lng": 134.557503
    },
    {
        "area_city_code": 36201,
        "area_city_name": "徳島市",
        "area_town_code": "362010173004",
        "area_town_name": "南昭和町四丁目",
        "area_lat": 34.056848,
        "area_lng": 134.56013
    },
    {
        "area_city_code": 36201,
        "area_city_name": "徳島市",
        "area_town_code": "362010173005",
        "area_town_name": "南昭和町五丁目",
        "area_lat": 34.056574,
        "area_lng": 134.562195
    },
    {
        "area_city_code": 36201,
        "area_city_name": "徳島市",
        "area_town_code": "362010173006",
        "area_town_name": "南昭和町六丁目",
        "area_lat": 34.056089,
        "area_lng": 134.564312
    },
    {
        "area_city_code": 36201,
        "area_city_name": "徳島市",
        "area_town_code": "362010173007",
        "area_town_name": "南昭和町七丁目",
        "area_lat": 34.05593,
        "area_lng": 134.566015
    },
    {
        "area_city_code": 36201,
        "area_city_name": "徳島市",
        "area_town_code": "362010174001",
        "area_town_name": "南新町一丁目",
        "area_lat": 34.069822,
        "area_lng": 134.547165
    },
    {
        "area_city_code": 36201,
        "area_city_name": "徳島市",
        "area_town_code": "362010174002",
        "area_town_name": "南新町二丁目",
        "area_lat": 34.068895,
        "area_lng": 134.547487
    },
    {
        "area_city_code": 36201,
        "area_city_name": "徳島市",
        "area_town_code": "362010175000",
        "area_town_name": "南末広町",
        "area_lat": 34.060616,
        "area_lng": 134.575296
    },
    {
        "area_city_code": 36201,
        "area_city_name": "徳島市",
        "area_town_code": "362010176001",
        "area_town_name": "南田宮一丁目",
        "area_lat": 34.084381,
        "area_lng": 134.545951
    },
    {
        "area_city_code": 36201,
        "area_city_name": "徳島市",
        "area_town_code": "362010176002",
        "area_town_name": "南田宮二丁目",
        "area_lat": 34.082695,
        "area_lng": 134.542586
    },
    {
        "area_city_code": 36201,
        "area_city_name": "徳島市",
        "area_town_code": "362010176003",
        "area_town_name": "南田宮三丁目",
        "area_lat": 34.085348,
        "area_lng": 134.537648
    },
    {
        "area_city_code": 36201,
        "area_city_name": "徳島市",
        "area_town_code": "362010176004",
        "area_town_name": "南田宮四丁目",
        "area_lat": 34.08423,
        "area_lng": 134.533508
    },
    {
        "area_city_code": 36201,
        "area_city_name": "徳島市",
        "area_town_code": "362010177001",
        "area_town_name": "南出来島町一丁目",
        "area_lat": 34.076302,
        "area_lng": 134.546149
    },
    {
        "area_city_code": 36201,
        "area_city_name": "徳島市",
        "area_town_code": "362010177002",
        "area_town_name": "南出来島町二丁目",
        "area_lat": 34.077193,
        "area_lng": 134.5443
    },
    {
        "area_city_code": 36201,
        "area_city_name": "徳島市",
        "area_town_code": "362010178001",
        "area_town_name": "南仲之町一丁目",
        "area_lat": 34.065954,
        "area_lng": 134.550666
    },
    {
        "area_city_code": 36201,
        "area_city_name": "徳島市",
        "area_town_code": "362010178002",
        "area_town_name": "南仲之町二丁目",
        "area_lat": 34.065685,
        "area_lng": 134.552509
    },
    {
        "area_city_code": 36201,
        "area_city_name": "徳島市",
        "area_town_code": "362010178003",
        "area_town_name": "南仲之町三丁目",
        "area_lat": 34.065395,
        "area_lng": 134.554417
    },
    {
        "area_city_code": 36201,
        "area_city_name": "徳島市",
        "area_town_code": "362010178004",
        "area_town_name": "南仲之町四丁目",
        "area_lat": 34.065052,
        "area_lng": 134.555707
    },
    {
        "area_city_code": 36201,
        "area_city_name": "徳島市",
        "area_town_code": "362010179000",
        "area_town_name": "南二軒屋町",
        "area_lat": 34.058121,
        "area_lng": 134.540914
    },
    {
        "area_city_code": 36201,
        "area_city_name": "徳島市",
        "area_town_code": "362010180001",
        "area_town_name": "南二軒屋町一丁目",
        "area_lat": 34.055275,
        "area_lng": 134.545819
    },
    {
        "area_city_code": 36201,
        "area_city_name": "徳島市",
        "area_town_code": "362010180002",
        "area_town_name": "南二軒屋町二丁目",
        "area_lat": 34.053211,
        "area_lng": 134.544845
    },
    {
        "area_city_code": 36201,
        "area_city_name": "徳島市",
        "area_town_code": "362010180003",
        "area_town_name": "南二軒屋町三丁目",
        "area_lat": 34.051546,
        "area_lng": 134.543758
    },
    {
        "area_city_code": 36201,
        "area_city_name": "徳島市",
        "area_town_code": "362010181001",
        "area_town_name": "南前川町一丁目",
        "area_lat": 34.077786,
        "area_lng": 134.555371
    },
    {
        "area_city_code": 36201,
        "area_city_name": "徳島市",
        "area_town_code": "362010181002",
        "area_town_name": "南前川町二丁目",
        "area_lat": 34.077929,
        "area_lng": 134.55356
    },
    {
        "area_city_code": 36201,
        "area_city_name": "徳島市",
        "area_town_code": "362010181003",
        "area_town_name": "南前川町三丁目",
        "area_lat": 34.078245,
        "area_lng": 134.551552
    },
    {
        "area_city_code": 36201,
        "area_city_name": "徳島市",
        "area_town_code": "362010181004",
        "area_town_name": "南前川町四丁目",
        "area_lat": 34.079043,
        "area_lng": 134.549207
    },
    {
        "area_city_code": 36201,
        "area_city_name": "徳島市",
        "area_town_code": "362010181005",
        "area_town_name": "南前川町五丁目",
        "area_lat": 34.079885,
        "area_lng": 134.546838
    },
    {
        "area_city_code": 36201,
        "area_city_name": "徳島市",
        "area_town_code": "362010182001",
        "area_town_name": "南矢三町一丁目",
        "area_lat": 34.083147,
        "area_lng": 134.52996
    },
    {
        "area_city_code": 36201,
        "area_city_name": "徳島市",
        "area_town_code": "362010182002",
        "area_town_name": "南矢三町二丁目",
        "area_lat": 34.082748,
        "area_lng": 134.525734
    },
    {
        "area_city_code": 36201,
        "area_city_name": "徳島市",
        "area_town_code": "362010182003",
        "area_town_name": "南矢三町三丁目",
        "area_lat": 34.082326,
        "area_lng": 134.52147
    },
    {
        "area_city_code": 36201,
        "area_city_name": "徳島市",
        "area_town_code": "362010183001",
        "area_town_name": "明神町一丁目",
        "area_lat": 34.064323,
        "area_lng": 134.555286
    },
    {
        "area_city_code": 36201,
        "area_city_name": "徳島市",
        "area_town_code": "362010183002",
        "area_town_name": "明神町二丁目",
        "area_lat": 34.063104,
        "area_lng": 134.554504
    },
    {
        "area_city_code": 36201,
        "area_city_name": "徳島市",
        "area_town_code": "362010183003",
        "area_town_name": "明神町三丁目",
        "area_lat": 34.061096,
        "area_lng": 134.553239
    },
    {
        "area_city_code": 36201,
        "area_city_name": "徳島市",
        "area_town_code": "362010183004",
        "area_town_name": "明神町四丁目",
        "area_lat": 34.06021,
        "area_lng": 134.552795
    },
    {
        "area_city_code": 36201,
        "area_city_name": "徳島市",
        "area_town_code": "362010183005",
        "area_town_name": "明神町五丁目",
        "area_lat": 34.059071,
        "area_lng": 134.552447
    },
    {
        "area_city_code": 36201,
        "area_city_name": "徳島市",
        "area_town_code": "362010183006",
        "area_town_name": "明神町六丁目",
        "area_lat": 34.057963,
        "area_lng": 134.551599
    },
    {
        "area_city_code": 36201,
        "area_city_name": "徳島市",
        "area_town_code": "362010184001",
        "area_town_name": "名東町一丁目",
        "area_lat": 34.063329,
        "area_lng": 134.503899
    },
    {
        "area_city_code": 36201,
        "area_city_name": "徳島市",
        "area_town_code": "362010184002",
        "area_town_name": "名東町二丁目",
        "area_lat": 34.063731,
        "area_lng": 134.495115
    },
    {
        "area_city_code": 36201,
        "area_city_name": "徳島市",
        "area_town_code": "362010184003",
        "area_town_name": "名東町三丁目",
        "area_lat": 34.054484,
        "area_lng": 134.491648
    },
    {
        "area_city_code": 36201,
        "area_city_name": "徳島市",
        "area_town_code": "362010185001",
        "area_town_name": "元町一丁目",
        "area_lat": 34.073116,
        "area_lng": 134.550238
    },
    {
        "area_city_code": 36201,
        "area_city_name": "徳島市",
        "area_town_code": "362010185002",
        "area_town_name": "元町二丁目",
        "area_lat": 34.072173,
        "area_lng": 134.549095
    },
    {
        "area_city_code": 36201,
        "area_city_name": "徳島市",
        "area_town_code": "362010186001",
        "area_town_name": "八百屋町一丁目",
        "area_lat": 34.071562,
        "area_lng": 134.553212
    },
    {
        "area_city_code": 36201,
        "area_city_name": "徳島市",
        "area_town_code": "362010186002",
        "area_town_name": "八百屋町二丁目",
        "area_lat": 34.071959,
        "area_lng": 134.551987
    },