[
    {
        "area_city_code": 39201,
        "area_city_name": "高知市",
        "area_town_code": "392010001000",
        "area_town_name": "相生町",
        "area_lat": 33.564618,
        "area_lng": 133.545765
    },
    {
        "area_city_code": 39201,
        "area_city_name": "高知市",
        "area_town_code": "392010002000",
        "area_town_name": "青柳町",
        "area_lat": 33.555077,
        "area_lng": 133.564955
    },
    {
        "area_city_code": 39201,
        "area_city_name": "高知市",
        "area_town_code": "392010003000",
        "area_town_name": "赤石町",
        "area_lat": 33.55728,
        "area_lng": 133.511038
    },
    {
        "area_city_code": 39201,
        "area_city_name": "高知市",
        "area_town_code": "392010004001",
        "area_town_name": "曙町一丁目",
        "area_lat": 33.550859,
        "area_lng": 133.491799
    },
    {
        "area_city_code": 39201,
        "area_city_name": "高知市",
        "area_town_code": "392010004002",
        "area_town_name": "曙町二丁目",
        "area_lat": 33.54933,
        "area_lng": 133.486354
    },
    {
        "area_city_code": 39201,
        "area_city_name": "高知市",
        "area_town_code": "392010005000",
        "area_town_name": "朝倉己",
        "area_lat": 33.533889,
        "area_lng": 133.488772
    },
    {
        "area_city_code": 39201,
        "area_city_name": "高知市",
        "area_town_code": "392010006000",
        "area_town_name": "朝倉甲",
        "area_lat": 33.540737,
        "area_lng": 133.498317
    },
    {
        "area_city_code": 39201,
        "area_city_name": "高知市",
        "area_town_code": "392010007000",
        "area_town_name": "朝倉丁",
        "area_lat": 33.546103,
        "area_lng": 133.479045
    },
    {
        "area_city_code": 39201,
        "area_city_name": "高知市",
        "area_town_code": "392010008001",
        "area_town_name": "朝倉西町一丁目",
        "area_lat": 33.542124,
        "area_lng": 133.48362
    },
    {
        "area_city_code": 39201,
        "area_city_name": "高知市",
        "area_town_code": "392010008002",
        "area_town_name": "朝倉西町二丁目",
        "area_lat": 33.539358,
        "area_lng": 133.479177
    },
    {
        "area_city_code": 39201,
        "area_city_name": "高知市",
        "area_town_code": "392010009000",
        "area_town_name": "朝倉東町",
        "area_lat": 33.545524,
        "area_lng": 133.497872
    },
    {
        "area_city_code": 39201,
        "area_city_name": "高知市",
        "area_town_code": "392010010000",
        "area_town_name": "朝倉丙",
        "area_lat": 33.553165,
        "area_lng": 133.480227
    },
    {
        "area_city_code": 39201,
        "area_city_name": "高知市",
        "area_town_code": "392010011000",
        "area_town_name": "朝倉戊",
        "area_lat": 33.538002,
        "area_lng": 133.487811
    },
    {
        "area_city_code": 39201,
        "area_city_name": "高知市",
        "area_town_code": "392010012001",
        "area_town_name": "朝倉本町一丁目",
        "area_lat": 33.548097,
        "area_lng": 133.491959
    },
    {
        "area_city_code": 39201,
        "area_city_name": "高知市",
        "area_town_code": "392010012002",
        "area_town_name": "朝倉本町二丁目",
        "area_lat": 33.546228,
        "area_lng": 133.487468
    },
    {
        "area_city_code": 39201,
        "area_city_name": "高知市",
        "area_town_code": "392010013000",
        "area_town_name": "朝倉南町",
        "area_lat": 33.542286,
        "area_lng": 133.494125
    },
    {
        "area_city_code": 39201,
        "area_city_name": "高知市",
        "area_town_code": "392010014000",
        "area_town_name": "朝倉横町",
        "area_lat": 33.545858,
        "area_lng": 133.49304
    },
    {
        "area_city_code": 39201,
        "area_city_name": "高知市",
        "area_town_code": "392010015000",
        "area_town_name": "旭駅前町",
        "area_lat": 33.5576,
        "area_lng": 133.50878
    },
    {
        "area_city_code": 39201,
        "area_city_name": "高知市",
        "area_town_code": "392010016000",
        "area_town_name": "旭上町",
        "area_lat": 33.556801,
        "area_lng": 133.504378
    },
    {
        "area_city_code": 39201,
        "area_city_name": "高知市",
        "area_town_code": "392010017000",
        "area_town_name": "旭天神町",
        "area_lat": 33.561063,
        "area_lng": 133.505452
    },
    {
        "area_city_code": 39201,
        "area_city_name": "高知市",
        "area_town_code": "392010018001",
        "area_town_name": "旭町一丁目",
        "area_lat": 33.556541,
        "area_lng": 133.513653
    },
    {
        "area_city_code": 39201,
        "area_city_name": "高知市",
        "area_town_code": "392010018002",
        "area_town_name": "旭町二丁目",
        "area_lat": 33.555685,
        "area_lng": 133.510717
    },
    {
        "area_city_code": 39201,
        "area_city_name": "高知市",
        "area_town_code": "392010018003",
        "area_town_name": "旭町三丁目",
        "area_lat": 33.556017,
        "area_lng": 133.506404
    },
    {
        "area_city_code": 39201,
        "area_city_name": "高知市",
        "area_town_code": "392010019000",
        "area_town_name": "薊野",
        "area_lat": 33.592491,
        "area_lng": 133.553876
    },
    {
        "area_city_code": 39201,
        "area_city_name": "高知市",
        "area_town_code": "392010020001",
        "area_town_name": "薊野北町一丁目",
        "area_lat": 33.580037,
        "area_lng": 133.550915
    },
    {
        "area_city_code": 39201,
        "area_city_name": "高知市",
        "area_town_code": "392010020002",
        "area_town_name": "薊野北町二丁目",
        "area_lat": 33.581636,
        "area_lng": 133.554952
    },
    {
        "area_city_code": 39201,
        "area_city_name": "高知市",
        "area_town_code": "392010020003",
        "area_town_name": "薊野北町三丁目",
        "area_lat": 33.583775,
        "area_lng": 133.553064
    },
    {
        "area_city_code": 39201,
        "area_city_name": "高知市",
        "area_town_code": "392010020004",
        "area_town_name": "薊野北町四丁目",
        "area_lat": 33.584614,
        "area_lng": 133.559657
    },
    {
        "area_city_code": 39201,
        "area_city_name": "高知市",
        "area_town_code": "392010021000",
        "area_town_name": "薊野中町",
        "area_lat": 33.580123,
        "area_lng": 133.559371
    },
    {
        "area_city_code": 39201,
        "area_city_name": "高知市",
        "area_town_code": "392010022001",
        "area_town_name": "薊野西町一丁目",
        "area_lat": 33.576272,
        "area_lng": 133.549439
    },
    {
        "area_city_code": 39201,
        "area_city_name": "高知市",
        "area_town_code": "392010022002",
        "area_town_name": "薊野西町二丁目",
        "area_lat": 33.575448,
        "area_lng": 133.554145
    },
    {
        "area_city_code": 39201,
        "area_city_name": "高知市",
        "area_town_code": "392010022003",
        "area_town_name": "薊野西町三丁目",
        "area_lat": 33.577402,
        "area_lng": 133.553751
    },
    {
        "area_city_code": 39201,
        "area_city_name": "高知市",
        "area_town_code": "392010023000",
        "area_town_name": "薊野東町",
        "area_lat": 33.581964,
        "area_lng": 133.563298
    },
    {
        "area_city_code": 39201,
        "area_city_name": "高知市",
        "area_town_code": "392010024000",
        "area_town_name": "薊野南町",
        "area_lat": 33.577141,
        "area_lng": 133.56067
    },
    {
        "area_city_code": 39201,
        "area_city_name": "高知市",
        "area_town_code": "392010025001",
        "area_town_name": "愛宕町一丁目",
        "area_lat": 33.566151,
        "area_lng": 133.537041
    },
    {
        "area_city_code": 39201,
        "area_city_name": "高知市",
        "area_town_code": "392010025002",
        "area_town_name": "愛宕町二丁目",
        "area_lat": 33.568313,
        "area_lng": 133.537895
    },
    {
        "area_city_code": 39201,
        "area_city_name": "高知市",
        "area_town_code": "392010025003",
        "area_town_name": "愛宕町三丁目",
        "area_lat": 33.571143,
        "area_lng": 133.537293
    },
    {
        "area_city_code": 39201,
        "area_city_name": "高知市",
        "area_town_code": "392010025004",
        "area_town_name": "愛宕町四丁目",
        "area_lat": 33.573987,
        "area_lng": 133.536724
    },
    {
        "area_city_code": 39201,
        "area_city_name": "高知市",
        "area_town_code": "392010026000",
        "area_town_name": "愛宕山",
        "area_lat": 33.57662,
        "area_lng": 133.537843
    },
    {
        "area_city_code": 39201,
        "area_city_name": "高知市",
        "area_town_code": "392010027000",
        "area_town_name": "愛宕山南町",
        "area_lat": 33.57384,
        "area_lng": 133.539633
    },
    {
        "area_city_code": 39201,
        "area_city_name": "高知市",
        "area_town_code": "392010028000",
        "area_town_name": "井口町",
        "area_lat": 33.558574,
        "area_lng": 133.516272
    },
    {
        "area_city_code": 39201,
        "area_city_name": "高知市",
        "area_town_code": "392010029000",
        "area_town_name": "池",
        "area_lat": 33.529069,
        "area_lng": 133.590469
    },
    {
        "area_city_code": 39201,
        "area_city_name": "高知市",
        "area_town_code": "392010030000",
        "area_town_name": "石立町",
        "area_lat": 33.553175,
        "area_lng": 133.515303
    },
    {
        "area_city_code": 39201,
        "area_city_name": "高知市",
        "area_town_code": "392010031000",
        "area_town_name": "和泉町",
        "area_lat": 33.571799,
        "area_lng": 133.541282
    },
    {
        "area_city_code": 39201,
        "area_city_name": "高知市",
        "area_town_code": "392010032000",
        "area_town_name": "伊勢崎町",
        "area_lat": 33.570452,
        "area_lng": 133.530356
    },
    {
        "area_city_code": 39201,
        "area_city_name": "高知市",
        "area_town_code": "392010033000",
        "area_town_name": "一宮",
        "area_lat": 33.596092,
        "area_lng": 133.573539
    },
    {
        "area_city_code": 39201,
        "area_city_name": "高知市",
        "area_town_code": "392010034001",
        "area_town_name": "一宮しなね一丁目",
        "area_lat": 33.591802,
        "area_lng": 133.573704
    },
    {
        "area_city_code": 39201,
        "area_city_name": "高知市",
        "area_town_code": "392010034002",
        "area_town_name": "一宮しなね二丁目",
        "area_lat": 33.592212,
        "area_lng": 133.577865
    },
    {
        "area_city_code": 39201,
        "area_city_name": "高知市",
        "area_town_code": "392010035000",
        "area_town_name": "一宮徳谷",
        "area_lat": 33.582724,
        "area_lng": 133.582777
    },
    {
        "area_city_code": 39201,
        "area_city_name": "高知市",
        "area_town_code": "392010036001",
        "area_town_name": "一宮中町一丁目",
        "area_lat": 33.583396,
        "area_lng": 133.570406
    },
    {
        "area_city_code": 39201,
        "area_city_name": "高知市",
        "area_town_code": "392010036002",
        "area_town_name": "一宮中町二丁目",
        "area_lat": 33.582485,
        "area_lng": 133.573427
    },
    {
        "area_city_code": 39201,
        "area_city_name": "高知市",
        "area_town_code": "392010036003",
        "area_town_name": "一宮中町三丁目",
        "area_lat": 33.586756,
        "area_lng": 133.575057
    },
    {
        "area_city_code": 39201,
        "area_city_name": "高知市",
        "area_town_code": "392010037001",
        "area_town_name": "一宮西町一丁目",
        "area_lat": 33.584226,
        "area_lng": 133.565498
    },
    {
        "area_city_code": 39201,
        "area_city_name": "高知市",
        "area_town_code": "392010037002",
        "area_town_name": "一宮西町二丁目",
        "area_lat": 33.587646,
        "area_lng": 133.567671
    },
    {
        "area_city_code": 39201,
        "area_city_name": "高知市",
        "area_town_code": "392010037003",
        "area_town_name": "一宮西町三丁目",
        "area_lat": 33.586172,
        "area_lng": 133.571149
    },
    {
        "area_city_code": 39201,
        "area_city_name": "高知市",
        "area_town_code": "392010037004",
        "area_town_name": "一宮西町四丁目",
        "area_lat": 33.590457,
        "area_lng": 133.570345
    },
    {
        "area_city_code": 39201,
        "area_city_name": "高知市",
        "area_town_code": "392010038001",
        "area_town_name": "一宮東町一丁目",
        "area_lat": 33.582554,
        "area_lng": 133.576603
    },
    {
        "area_city_code": 39201,
        "area_city_name": "高知市",
        "area_town_code": "392010038002",
        "area_town_name": "一宮東町二丁目",
        "area_lat": 33.58673,
        "area_lng": 133.580688
    },
    {
        "area_city_code": 39201,
        "area_city_name": "高知市",
        "area_town_code": "392010038003",
        "area_town_name": "一宮東町三丁目",
        "area_lat": 33.588459,
        "area_lng": 133.580875
    },
    {
        "area_city_code": 39201,
        "area_city_name": "高知市",
        "area_town_code": "392010038004",
        "area_town_name": "一宮東町四丁目",
        "area_lat": 33.589881,
        "area_lng": 133.582841
    },
    {
        "area_city_code": 39201,
        "area_city_name": "高知市",
        "area_town_code": "392010038005",
        "area_town_name": "一宮東町五丁目",
        "area_lat": 33.591376,
        "area_lng": 133.579811
    },
    {
        "area_city_code": 39201,
        "area_city_name": "高知市",
        "area_town_code": "392010039001",
        "area_town_name": "一宮南町一丁目",
        "area_lat": 33.578053,
        "area_lng": 133.565543
    },
    {
        "area_city_code": 39201,
        "area_city_name": "高知市",
        "area_town_code": "392010039002",
        "area_town_name": "一宮南町二丁目",
        "area_lat": 33.579281,
        "area_lng": 133.572391
    },
    {
        "area_city_code": 39201,
        "area_city_name": "高知市",
        "area_town_code": "392010040000",
        "area_town_name": "稲荷町",
        "area_lat": 33.555842,
        "area_lng": 133.560067
    },
    {
        "area_city_code": 39201,
        "area_city_name": "高知市",
        "area_town_code": "392010041000",
        "area_town_name": "入明町",
        "area_lat": 33.566141,
        "area_lng": 133.531276
    },
    {
        "area_city_code": 39201,
        "area_city_name": "高知市",
        "area_town_code": "392010042000",
        "area_town_name": "岩ヶ淵",
        "area_lat": 33.559599,
        "area_lng": 133.48679
    },
    {
        "area_city_code": 39201,
        "area_city_name": "高知市",
        "area_town_code": "392010043000",
        "area_town_name": "鵜来巣",
        "area_lat": 33.54113,
        "area_lng": 133.485668
    },
    {
        "area_city_code": 39201,
        "area_city_name": "高知市",
        "area_town_code": "392010044001",
        "area_town_name": "潮新町一丁目",
        "area_lat": 33.551504,
        "area_lng": 133.548694
    },
    {
        "area_city_code": 39201,
        "area_city_name": "高知市",
        "area_town_code": "392010044002",
        "area_town_name": "潮新町二丁目",
        "area_lat": 33.549888,
        "area_lng": 133.551038
    },
    {
        "area_city_code": 39201,
        "area_city_name": "高知市",
        "area_town_code": "392010045000",
        "area_town_name": "宇津野",
        "area_lat": 33.587581,
        "area_lng": 133.524292
    },
    {
        "area_city_code": 39201,
        "area_city_name": "高知市",
        "area_town_code": "392010046000",
        "area_town_name": "梅ノ辻",
        "area_lat": 33.554567,
        "area_lng": 133.542866
    },
    {
        "area_city_code": 39201,
        "area_city_name": "高知市",
        "area_town_code": "392010047000",
        "area_town_name": "浦戸",
        "area_lat": 33.496738,
        "area_lng": 133.569449
    },
    {
        "area_city_code": 39201,
        "area_city_name": "高知市",
        "area_town_code": "392010048000",
        "area_town_name": "永国寺町",
        "area_lat": 33.563696,
        "area_lng": 133.535326
    },
    {
        "area_city_code": 39201,
        "area_city_name": "高知市",
        "area_town_code": "392010049000",
        "area_town_name": "駅前町",
        "area_lat": 33.564972,
        "area_lng": 133.543507
    },
    {
        "area_city_code": 39201,
        "area_city_name": "高知市",
        "area_town_code": "392010050001",
        "area_town_name": "越前町一丁目",
        "area_lat": 33.559992,
        "area_lng": 133.525906
    },
    {
        "area_city_code": 39201,
        "area_city_name": "高知市",
        "area_town_code": "392010050002",
        "area_town_name": "越前町二丁目",
        "area_lat": 33.56236,
        "area_lng": 133.524074
    },
    {
        "area_city_code": 39201,
        "area_city_name": "高知市",
        "area_town_code": "392010051000",
        "area_town_name": "海老ノ丸",
        "area_lat": 33.563407,
        "area_lng": 133.566931
    },
    {
        "area_city_code": 39201,
        "area_city_name": "高知市",
        "area_town_code": "392010052000",
        "area_town_name": "円行寺",
        "area_lat": 33.590294,
        "area_lng": 133.507246
    },
    {
        "area_city_code": 39201,
        "area_city_name": "高知市",
        "area_town_code": "392010053001",
        "area_town_name": "大川筋一丁目",
        "area_lat": 33.564605,
        "area_lng": 133.539828
    },
    {
        "area_city_code": 39201,
        "area_city_name": "高知市",
        "area_town_code": "392010053002",
        "area_town_name": "大川筋二丁目",
        "area_lat": 33.564786,
        "area_lng": 133.532
    },
    {
        "area_city_code": 39201,
        "area_city_name": "高知市",
        "area_town_code": "392010054000",
        "area_town_name": "大谷",
        "area_lat": 33.558664,
        "area_lng": 133.493635
    },
    {
        "area_city_code": 39201,
        "area_city_name": "高知市",
        "area_town_code": "392010055000",
        "area_town_name": "大谷公園町",
        "area_lat": 33.535842,
        "area_lng": 133.480597
    },
    {
        "area_city_code": 39201,
        "area_city_name": "高知市",
        "area_town_code": "392010056000",
        "area_town_name": "大津乙",
        "area_lat": 33.571055,
        "area_lng": 133.594053
    },
    {
        "area_city_code": 39201,
        "area_city_name": "高知市",
        "area_town_code": "392010057000",
        "area_town_name": "大津甲",
        "area_lat": 33.575894,
        "area_lng": 133.612511
    },
    {
        "area_city_code": 39201,
        "area_city_name": "高知市",
        "area_town_code": "392010058001",
        "area_town_name": "追手筋一丁目",
        "area_lat": 33.561843,
        "area_lng": 133.540023
    },
    {
        "area_city_code": 39201,
        "area_city_name": "高知市",
        "area_town_code": "392010058002",
        "area_town_name": "追手筋二丁目",
        "area_lat": 33.561588,
        "area_lng": 133.535914
    },
    {
        "area_city_code": 39201,
        "area_city_name": "高知市",
        "area_town_code": "392010059000",
        "area_town_name": "大原町",
        "area_lat": 33.552806,
        "area_lng": 133.530372
    },
    {
        "area_city_code": 39201,
        "area_city_name": "高知市",
        "area_town_code": "392010060000",
        "area_town_name": "小倉町",
        "area_lat": 33.559853,
        "area_lng": 133.567573
    },
    {
        "area_city_code": 39201,
        "area_city_name": "高知市",
        "area_town_code": "392010061000",
        "area_town_name": "小津町",
        "area_lat": 33.564826,
        "area_lng": 133.529032
    },
    {
        "area_city_code": 39201,
        "area_city_name": "高知市",
        "area_town_code": "392010062001",
        "area_town_name": "帯屋町一丁目",
        "area_lat": 33.560597,
        "area_lng": 133.539783
    },
    {
        "area_city_code": 39201,
        "area_city_name": "高知市",
        "area_town_code": "392010062002",
        "area_town_name": "帯屋町二丁目",
        "area_lat": 33.55997,
        "area_lng": 133.535951
    },
    {
        "area_city_code": 39201,
        "area_city_name": "高知市",
        "area_town_code": "392010063001",
        "area_town_name": "加賀野井一丁目",
        "area_lat": 33.579509,
        "area_lng": 133.528351
    },
    {
        "area_city_code": 39201,
        "area_city_name": "高知市",
        "area_town_code": "392010063002",
        "area_town_name": "加賀野井二丁目",
        "area_lat": 33.579451,
        "area_lng": 133.5254
    },
    {
        "area_city_code": 39201,
        "area_city_name": "高知市",
        "area_town_code": "392010064000",
        "area_town_name": "鏡今井",
        "area_lat": 33.632433,
        "area_lng": 133.466713
    },
    {
        "area_city_code": 39201,
        "area_city_name": "高知市",
        "area_town_code": "392010065000",
        "area_town_name": "鏡梅ノ木",
        "area_lat": 33.594648,
        "area_lng": 133.415466
    },
    {
        "area_city_code": 39201,
        "area_city_name": "高知市",
        "area_town_code": "392010066000",
        "area_town_name": "鏡大河内",
        "area_lat": 33.585076,
        "area_lng": 133.478076
    },
    {
        "area_city_code": 39201,
        "area_city_name": "高知市",
        "area_town_code": "392010067000",
        "area_town_name": "鏡大利",
        "area_lat": 33.611197,
        "area_lng": 133.487647
    },
    {
        "area_city_code": 39201,
        "area_city_name": "高知市",
        "area_town_code": "392010068000",
        "area_town_name": "鏡柿ノ又",
        "area_lat": 33.645009,
        "area_lng": 133.411773
    },
    {
        "area_city_code": 39201,
        "area_city_name": "高知市",
        "area_town_code": "392010069000",
        "area_town_name": "鏡葛山",
        "area_lat": 33.597271,
        "area_lng": 133.432077
    },
    {
        "area_city_code": 39201,
        "area_city_name": "高知市",
        "area_town_code": "392010070000",
        "area_town_name": "鏡狩山",
        "area_lat": 33.63842,
        "area_lng": 133.451238
    },
    {
        "area_city_code": 39201,
        "area_city_name": "高知市",
        "area_town_code": "392010071000",
        "area_town_name": "鏡川町",
        "area_lat": 33.5537,
        "area_lng": 133.506586
    },
    {
        "area_city_code": 39201,
        "area_city_name": "高知市",
        "area_town_code": "392010072000",
        "area_town_name": "鏡草峰",
        "area_lat": 33.609254,
        "area_lng": 133.461134
    },
    {
        "area_city_code": 39201,
        "area_city_name": "高知市",
        "area_town_code": "392010073000",
        "area_town_name": "鏡小浜",
        "area_lat": 33.596968,
        "area_lng": 133.476988
    },
    {
        "area_city_code": 39201,
        "area_city_name": "高知市",
        "area_town_code": "392010074000",
        "area_town_name": "鏡小山",
        "area_lat": 33.582347,
        "area_lng": 133.422699
    },
    {
        "area_city_code": 39201,
        "area_city_name": "高知市",
        "area_town_code": "392010075000",
        "area_town_name": "鏡去坂",
        "area_lat": 33.599622,
        "area_lng": 133.455409
    },
    {
        "area_city_code": 39201,
        "area_city_name": "高知市",
        "area_town_code": "392010076000",
        "area_town_name": "鏡敷ノ山",
        "area_lat": 33.635842,
        "area_lng": 133.401763
    },
    {
        "area_city_code": 39201,
        "area_city_name": "高知市",
        "area_town_code": "392010077000",
        "area_town_name": "鏡白岩",
        "area_lat": 33.622067,
        "area_lng": 133.452633
    },
    {
        "area_city_code": 39201,
        "area_city_name": "高知市",
        "area_town_code": "392010078000",
        "area_town_name": "鏡竹奈路",
        "area_lat": 33.62084,
        "area_lng": 133.426272
    },
    {
        "area_city_code": 39201,
        "area_city_name": "高知市",
        "area_town_code": "392010079000",
        "area_town_name": "鏡増原",
        "area_lat": 33.601105,
        "area_lng": 133.427798
    },
    {
        "area_city_code": 39201,
        "area_city_name": "高知市",
        "area_town_code": "392010080000",
        "area_town_name": "鏡的渕",
        "area_lat": 33.616004,
        "area_lng": 133.445157
    },
    {
        "area_city_code": 39201,
        "area_city_name": "高知市",
        "area_town_code": "392010081000",
        "area_town_name": "鏡横矢",
        "area_lat": 33.618565,
        "area_lng": 133.416101
    },
    {
        "area_city_code": 39201,
        "area_city_name": "高知市",
        "area_town_code": "392010082000",
        "area_town_name": "鏡吉原",
        "area_lat": 33.64879,
        "area_lng": 133.436003
    },
    {
        "area_city_code": 39201,
        "area_city_name": "高知市",
        "area_town_code": "392010083001",
        "area_town_name": "葛島一丁目",
        "area_lat": 33.558533,
        "area_lng": 133.571446
    },
    {
        "area_city_code": 39201,
        "area_city_name": "高知市",
        "area_town_code": "392010083002",
        "area_town_name": "葛島二丁目",
        "area_lat": 33.557568,
        "area_lng": 133.572927
    },
    {
        "area_city_code": 39201,
        "area_city_name": "高知市",
        "area_town_code": "392010083003",
        "area_town_name": "葛島三丁目",
        "area_lat": 33.554293,
        "area_lng": 133.569497
    },
    {
        "area_city_code": 39201,
        "area_city_name": "高知市",
        "area_town_code": "392010083004",
        "area_town_name": "葛島四丁目",
        "area_lat": 33.55461,
        "area_lng": 133.573207
    },
    {
        "area_city_code": 39201,
        "area_city_name": "高知市",
        "area_town_code": "392010084000",
        "area_town_name": "上本宮町",
        "area_lat": 33.555748,
        "area_lng": 133.492486
    },
    {
        "area_city_code": 39201,
        "area_city_name": "高知市",
        "area_town_code": "392010085001",
        "area_town_name": "上町一丁目",
        "area_lat": 33.556576,
        "area_lng": 133.526211
    },
    {
        "area_city_code": 39201,
        "area_city_name": "高知市",
        "area_town_code": "392010085002",
        "area_town_name": "上町二丁目",
        "area_lat": 33.556376,
        "area_lng": 133.524051
    },
    {
        "area_city_code": 39201,
        "area_city_name": "高知市",
        "area_town_code": "392010085003",
        "area_town_name": "上町三丁目",
        "area_lat": 33.556365,
        "area_lng": 133.521907
    },
    {
        "area_city_code": 39201,
        "area_city_name": "高知市",
        "area_town_code": "392010085004",
        "area_town_name": "上町四丁目",
        "area_lat": 33.55625,
        "area_lng": 133.519755
    },
    {
        "area_city_code": 39201,
        "area_city_name": "高知市",
        "area_town_code": "392010085005",
        "area_town_name": "上町五丁目",
        "area_lat": 33.556377,
        "area_lng": 133.51779
    },
    {
        "area_city_code": 39201,
        "area_city_name": "高知市",
        "area_town_code": "392010086000",
        "area_town_name": "鴨部",
        "area_lat": 33.546025,
        "area_lng": 133.504976
    },
    {
        "area_city_code": 39201,
        "area_city_name": "高知市",
        "area_town_code": "392010087001",
        "area_town_name": "鴨部一丁目",
        "area_lat": 33.551956,
        "area_lng": 133.505503
    },
    {
        "area_city_code": 39201,
        "area_city_name": "高知市",
        "area_town_code": "392010087002",
        "area_town_name": "鴨部二丁目",
        "area_lat": 33.549372,
        "area_lng": 133.503316
    },
    {
        "area_city_code": 39201,
        "area_city_name": "高知市",
        "area_town_code": "392010087003",
        "area_town_name": "鴨部三丁目",
        "area_lat": 33.547793,
        "area_lng": 133.498976
    },
    {
        "area_city_code": 39201,
        "area_city_name": "高知市",
        "area_town_code": "392010088000",
        "area_town_name": "鴨部上町",
        "area_lat": 33.550853,
        "area_lng": 133.498013
    },
    {
        "area_city_code": 39201,
        "area_city_name": "高知市",
        "area_town_code": "392010089000",
        "area_town_name": "鴨部高町",
        "area_lat": 33.551554,
        "area_lng": 133.496155
    },
    {
        "area_city_code": 39201,
        "area_city_name": "高知市",
        "area_town_code": "392010090000",
        "area_town_name": "唐岩",
        "area_lat": 33.574487,
        "area_lng": 133.445719
    },
    {
        "area_city_code": 39201,
        "area_city_name": "高知市",
        "area_town_code": "392010091000",
        "area_town_name": "北金田",
        "area_lat": 33.566637,
        "area_lng": 133.556635
    },
    {
        "area_city_code": 39201,
        "area_city_name": "高知市",
        "area_town_code": "392010092000",
        "area_town_name": "北川添",
        "area_lat": 33.574261,
        "area_lng": 133.561229
    },
    {
        "area_city_code": 39201,
        "area_city_name": "高知市",
        "area_town_code": "392010093000",
        "area_town_name": "北久保",
        "area_lat": 33.571156,
        "area_lng": 133.565671
    },
    {
        "area_city_code": 39201,
        "area_city_name": "高知市",
        "area_town_code": "392010094000",
        "area_town_name": "北御座",
        "area_lat": 33.568942,
        "area_lng": 133.561027
    },
    {
        "area_city_code": 39201,
        "area_city_name": "高知市",
        "area_town_code": "392010095000",
        "area_town_name": "北秦泉寺",
        "area_lat": 33.589355,
        "area_lng": 133.539995
    },
    {
        "area_city_code": 39201,
        "area_city_name": "高知市",
        "area_town_code": "392010096000",
        "area_town_name": "北新田町",
        "area_lat": 33.552836,
        "area_lng": 133.5525
    },
    {
        "area_city_code": 39201,
        "area_city_name": "高知市",
        "area_town_code": "392010097000",
        "area_town_name": "北高見町",
        "area_lat": 33.545697,
        "area_lng": 133.536051
    },
    {
        "area_city_code": 39201,
        "area_city_name": "高知市",
        "area_town_code": "392010098000",
        "area_town_name": "北竹島町",
        "area_lat": 33.544477,
        "area_lng": 133.540544
    },
    {
        "area_city_code": 39201,
        "area_city_name": "高知市",
        "area_town_code": "392010099000",
        "area_town_name": "北中山",
        "area_lat": 33.539443,
        "area_lng": 133.53405
    },
    {
        "area_city_code": 39201,
        "area_city_name": "高知市",
        "area_town_code": "392010100000",
        "area_town_name": "北端町",
        "area_lat": 33.560303,
        "area_lng": 133.509642
    },
    {
        "area_city_code": 39201,
        "area_city_name": "高知市",
        "area_town_code": "392010101000",
        "area_town_name": "北八反町",
        "area_lat": 33.569045,
        "area_lng": 133.5229
    },
    {
        "area_city_code": 39201,
        "area_city_name": "高知市",
        "area_town_code": "392010102001",
        "area_town_name": "北本町一丁目",
        "area_lat": 33.565946,
        "area_lng": 133.540572
    },
    {
        "area_city_code": 39201,
        "area_city_name": "高知市",
        "area_town_code": "392010102002",
        "area_town_name": "北本町二丁目",
        "area_lat": 33.566247,
        "area_lng": 133.545141
    },
    {
        "area_city_code": 39201,
        "area_city_name": "高知市",
        "area_town_code": "392010102003",
        "area_town_name": "北本町三丁目",
        "area_lat": 33.565656,
        "area_lng": 133.549475
    },
    {
        "area_city_code": 39201,
        "area_city_name": "高知市",
        "area_town_code": "392010102004",
        "area_town_name": "北本町四丁目",
        "area_lat": 33.564789,
        "area_lng": 133.553195
    },
    {
        "area_city_code": 39201,
        "area_city_name": "高知市",
        "area_town_code": "392010103000",
        "area_town_name": "吸江",
        "area_lat": 33.54733,
        "area_lng": 133.571933
    },
    {
        "area_city_code": 39201,
        "area_city_name": "高知市",
        "area_town_code": "392010104000",
        "area_town_name": "九反田",
        "area_lat": 33.556703,
        "area_lng": 133.549005
    },
    {
        "area_city_code": 39201,
        "area_city_name": "高知市",
        "area_town_code": "392010105000",
        "area_town_name": "口細山",
        "area_lat": 33.570347,
        "area_lng": 133.492207
    },
    {
        "area_city_code": 39201,
        "area_city_name": "高知市",
        "area_town_code": "392010106000",
        "area_town_name": "久礼野",
        "area_lat": 33.615723,
        "area_lng": 133.569041
    },
    {
        "area_city_code": 39201,
        "area_city_name": "高知市",
        "area_town_code": "392010107000",
        "area_town_name": "介良",
        "area_lat": 33.563878,
        "area_lng": 133.614357
    },
    {
        "area_city_code": 39201,
        "area_city_name": "高知市",
        "area_town_code": "392010108000",
        "area_town_name": "介良乙",
        "area_lat": 33.55923,
        "area_lng": 133.60516
    },
    {
        "area_city_code": 39201,
        "area_city_name": "高知市",
        "area_town_code": "392010109000",
        "area_town_name": "介良甲",
        "area_lat": 33.566202,
        "area_lng": 133.620614
    },
    {
        "area_city_code": 39201,
        "area_city_name": "高知市",
        "area_town_code": "392010110000",
        "area_town_name": "介良丙",
        "area_lat": 33.549605,
        "area_lng": 133.607645
    },
    {
        "area_city_code": 39201,
        "area_city_name": "高知市",
        "area_town_code": "392010111000",
        "area_town_name": "小石木町",
        "area_lat": 33.548508,
        "area_lng": 133.529885
    },
    {
        "area_city_code": 39201,
        "area_city_name": "高知市",
        "area_town_code": "392010112000",
        "area_town_name": "弘化台",
        "area_lat": 33.546972,
        "area_lng": 133.56449
    },
    {
        "area_city_code": 39201,
        "area_city_name": "高知市",
        "area_town_code": "392010113000",
        "area_town_name": "幸崎",
        "area_lat": 33.544395,
        "area_lng": 133.529279
    },
    {
        "area_city_code": 39201,
        "area_city_name": "高知市",
        "area_town_code": "392010114000",
        "area_town_name": "神田",
        "area_lat": 33.535713,
        "area_lng": 133.51097
    },
    {
        "area_city_code": 39201,
        "area_city_name": "高知市",
        "area_town_code": "392010115000",
        "area_town_name": "河ノ瀬町",
        "area_lat": 33.549847,
        "area_lng": 133.522286
    },
    {
        "area_city_code": 39201,
        "area_city_name": "高知市",
        "area_town_code": "392010116000",
        "area_town_name": "江陽町",
        "area_lat": 33.568941,
        "area_lng": 133.553082
    },
    {
        "area_city_code": 39201,
        "area_city_name": "高知市",
        "area_town_code": "392010117000",
        "area_town_name": "五台山",
        "area_lat": 33.54279,
        "area_lng": 133.585875
    },
    {
        "area_city_code": 39201,
        "area_city_name": "高知市",
        "area_town_code": "392010118000",
        "area_town_name": "寿町",
        "area_lat": 33.566444,
        "area_lng": 133.53499
    },
    {
        "area_city_code": 39201,
        "area_city_name": "高知市",
        "area_town_code": "392010119000",
        "area_town_name": "幸町",
        "area_lat": 33.568491,
        "area_lng": 133.530748
    },
    {
        "area_city_code": 39201,
        "area_city_name": "高知市",
        "area_town_code": "392010120000",
        "area_town_name": "菜園場町",
        "area_lat": 33.559318,
        "area_lng": 133.548126
    },
    {
        "area_city_code": 39201,
        "area_city_name": "高知市",
        "area_town_code": "392010121000",
        "area_town_name": "堺町",
        "area_lat": 33.558246,
        "area_lng": 133.541094
    },
    {
        "area_city_code": 39201,
        "area_city_name": "高知市",
        "area_town_code": "392010122001",
        "area_town_name": "栄田町一丁目",
        "area_lat": 33.56759,
        "area_lng": 133.541399
    },
    {
        "area_city_code": 39201,
        "area_city_name": "高知市",
        "area_town_code": "392010122002",
        "area_town_name": "栄田町二丁目",
        "area_lat": 33.567506,
        "area_lng": 133.544012
    },
    {
        "area_city_code": 39201,
        "area_city_name": "高知市",
        "area_town_code": "392010122003",
        "area_town_name": "栄田町三丁目",
        "area_lat": 33.56749,
        "area_lng": 133.546718
    },
    {
        "area_city_code": 39201,
        "area_city_name": "高知市",
        "area_town_code": "392010123000",
        "area_town_name": "相模町",
        "area_lat": 33.569896,
        "area_lng": 133.534153
    },
    {
        "area_city_code": 39201,
        "area_city_name": "高知市",
        "area_town_code": "392010124001",
        "area_town_name": "桜井町一丁目",
        "area_lat": 33.562041,
        "area_lng": 133.548929
    },
    {
        "area_city_code": 39201,
        "area_city_name": "高知市",
        "area_town_code": "392010124002",
        "area_town_name": "桜井町二丁目",
        "area_lat": 33.561731,
        "area_lng": 133.551618
    },
    {
        "area_city_code": 39201,
        "area_city_name": "高知市",
        "area_town_code": "392010125000",
        "area_town_name": "桜馬場",
        "area_lat": 33.562143,
        "area_lng": 133.526554
    },
    {
        "area_city_code": 39201,
        "area_city_name": "高知市",
        "area_town_code": "392010126000",
        "area_town_name": "佐々木町",
        "area_lat": 33.56213,
        "area_lng": 133.500996
    },
    {
        "area_city_code": 39201,
        "area_city_name": "高知市",
        "area_town_code": "392010127000",
        "area_town_name": "三ノ丸",
        "area_lat": 33.5632,
        "area_lng": 133.517645
    },
    {
        "area_city_code": 39201,
        "area_city_name": "高知市",
        "area_town_code": "392010128001",
        "area_town_name": "桟橋通一丁目",
        "area_lat": 33.551636,
        "area_lng": 133.545536
    },
    {
        "area_city_code": 39201,
        "area_city_name": "高知市",
        "area_town_code": "392010128002",
        "area_town_name": "桟橋通二丁目",
        "area_lat": 33.548815,
        "area_lng": 133.547203
    },
    {
        "area_city_code": 39201,
        "area_city_name": "高知市",
        "area_town_code": "392010128003",
        "area_town_name": "桟橋通三丁目",
        "area_lat": 33.546863,
        "area_lng": 133.549116
    },
    {
        "area_city_code": 39201,
        "area_city_name": "高知市",
        "area_town_code": "392010128004",
        "area_town_name": "桟橋通四丁目",
        "area_lat": 33.544193,
        "area_lng": 133.550794
    },
    {
        "area_city_code": 39201,
        "area_city_name": "高知市",
        "area_town_code": "392010128005",
        "area_town_name": "桟橋通五丁目",
        "area_lat": 33.539263,
        "area_lng": 133.551006
    },
    {
        "area_city_code": 39201,
        "area_city_name": "高知市",
        "area_town_code": "392010128006",
        "area_town_name": "桟橋通六丁目",
        "area_lat": 33.541021,
        "area_lng": 133.556673
    },
    {
        "area_city_code": 39201,
        "area_city_name": "高知市",
        "area_town_code": "392010129000",
        "area_town_name": "塩田町",
        "area_lat": 33.572019,
        "area_lng": 133.545545
    },
    {
        "area_city_code": 39201,
        "area_city_name": "高知市",
        "area_town_code": "392010130001",
        "area_town_name": "潮見台一丁目",
        "area_lat": 33.560729,
        "area_lng": 133.621594
    },
    {
        "area_city_code": 39201,
        "area_city_name": "高知市",
        "area_town_code": "392010130002",
        "area_town_name": "潮見台二丁目",
        "area_lat": 33.559588,
        "area_lng": 133.6179
    },
    {
        "area_city_code": 39201,
        "area_city_name": "高知市",
        "area_town_code": "392010130003",
        "area_town_name": "潮見台三丁目",
        "area_lat": 33.55565,
        "area_lng": 133.618009
    },
    {
        "area_city_code": 39201,
        "area_city_name": "高知市",
        "area_town_code": "392010131001",
        "area_town_name": "塩屋崎町一丁目",
        "area_lat": 33.551601,
        "area_lng": 133.541863
    },
    {
        "area_city_code": 39201,
        "area_city_name": "高知市",
        "area_town_code": "392010131002",
        "area_town_name": "塩屋崎町二丁目",
        "area_lat": 33.548905,
        "area_lng": 133.539318
    },
    {
        "area_city_code": 39201,
        "area_city_name": "高知市",
        "area_town_code": "392010132000",
        "area_town_name": "重倉",
        "area_lat": 33.61432,
        "area_lng": 133.553388
    },
    {
        "area_city_code": 39201,
        "area_city_name": "高知市",
        "area_town_code": "392010133000",
        "area_town_name": "東雲町",
        "area_lat": 33.559402,
        "area_lng": 133.562095
    },
    {
        "area_city_code": 39201,
        "area_city_name": "高知市",
        "area_town_code": "392010134000",
        "area_town_name": "柴巻",
        "area_lat": 33.596084,
        "area_lng": 133.492577
    },
    {
        "area_city_code": 39201,
        "area_city_name": "高知市",
        "area_town_code": "392010135000",
        "area_town_name": "下島町",
        "area_lat": 33.554626,
        "area_lng": 133.506206
    },
    {
        "area_city_code": 39201,
        "area_city_name": "高知市",
        "area_town_code": "392010136000",
        "area_town_name": "城北町",
        "area_lat": 33.565197,
        "area_lng": 133.526274
    },
    {
        "area_city_code": 39201,
        "area_city_name": "高知市",
        "area_town_code": "392010137000",
        "area_town_name": "城山町",
        "area_lat": 33.5501,
        "area_lng": 133.513618
    },
    {
        "area_city_code": 39201,
        "area_city_name": "高知市",
        "area_town_code": "392010138000",
        "area_town_name": "上里",
        "area_lat": 33.597806,
        "area_lng": 133.443638
    },
    {
        "area_city_code": 39201,
        "area_city_name": "高知市",
        "area_town_code": "392010139000",
        "area_town_name": "昭和町",
        "area_lat": 33.570089,
        "area_lng": 133.541117
    },
    {
        "area_city_code": 39201,
        "area_city_name": "高知市",
        "area_town_code": "392010140000",
        "area_town_name": "城見町",
        "area_lat": 33.559078,
        "area_lng": 133.550798
    },
    {
        "area_city_code": 39201,
        "area_city_name": "高知市",
        "area_town_code": "392010141000",
        "area_town_name": "新田町",
        "area_lat": 33.55121,
        "area_lng": 133.556693
    },
    {
        "area_city_code": 39201,
        "area_city_name": "高知市",
        "area_town_code": "392010142001",
        "area_town_name": "新本町一丁目",
        "area_lat": 33.56883,
        "area_lng": 133.540833
    },
    {
        "area_city_code": 39201,
        "area_city_name": "高知市",
        "area_town_code": "392010142002",
        "area_town_name": "新本町二丁目",
        "area_lat": 33.569229,
        "area_lng": 133.546168
    },
    {
        "area_city_code": 39201,
        "area_city_name": "高知市",
        "area_town_code": "392010143001",
        "area_town_name": "新屋敷一丁目",
        "area_lat": 33.564822,
        "area_lng": 133.523545
    },
    {
        "area_city_code": 39201,
        "area_city_name": "高知市",
        "area_town_code": "392010143002",
        "area_town_name": "新屋敷二丁目",
        "area_lat": 33.564341,
        "area_lng": 133.520298
    },
    {
        "area_city_code": 39201,
        "area_city_name": "高知市",
        "area_town_code": "392010144000",
        "area_town_name": "水源町",
        "area_lat": 33.556874,
        "area_lng": 133.502873
    },
    {
        "area_city_code": 39201,
        "area_city_name": "高知市",
        "area_town_code": "392010145000",
        "area_town_name": "水通町",
        "area_lat": 33.55656,
        "area_lng": 133.516741
    },
    {
        "area_city_code": 39201,
        "area_city_name": "高知市",
        "area_town_code": "392010146000",
        "area_town_name": "杉井流",
        "area_lat": 33.569113,
        "area_lng": 133.5562
    },
    {
        "area_city_code": 39201,
        "area_city_name": "高知市",
        "area_town_code": "392010147000",
        "area_town_name": "瀬戸",
        "area_lat": 33.504904,
        "area_lng": 133.544468
    },
    {
        "area_city_code": 39201,
        "area_city_name": "高知市",
        "area_town_code": "392010148001",
        "area_town_name": "瀬戸一丁目",
        "area_lat": 33.513077,
        "area_lng": 133.545332
    },
    {
        "area_city_code": 39201,
        "area_city_name": "高知市",
        "area_town_code": "392010148002",
        "area_town_name": "瀬戸二丁目",
        "area_lat": 33.506386,
        "area_lng": 133.545676
    },
    {
        "area_city_code": 39201,
        "area_city_name": "高知市",
        "area_town_code": "392010149001",
        "area_town_name": "瀬戸西町一丁目",
        "area_lat": 33.515383,
        "area_lng": 133.542071
    },
    {
        "area_city_code": 39201,
        "area_city_name": "高知市",
        "area_town_code": "392010149002",
        "area_town_name": "瀬戸西町二丁目",
        "area_lat": 33.513186,
        "area_lng": 133.543339
    },
    {
        "area_city_code": 39201,
        "area_city_name": "高知市",
        "area_town_code": "392010149003",
        "area_town_name": "瀬戸西町三丁目",
        "area_lat": 33.510446,
        "area_lng": 133.542269
    },
    {
        "area_city_code": 39201,
        "area_city_name": "高知市",
        "area_town_code": "392010150001",
        "area_town_name": "瀬戸東町一丁目",
        "area_lat": 33.515577,
        "area_lng": 133.547748
    },
    {
        "area_city_code": 39201,
        "area_city_name": "高知市",
        "area_town_code": "392010150002",
        "area_town_name": "瀬戸東町二丁目",
        "area_lat": 33.51285,
        "area_lng": 133.548078
    },
    {
        "area_city_code": 39201,
        "area_city_name": "高知市",
        "area_town_code": "392010150003",
        "area_town_name": "瀬戸東町三丁目",
        "area_lat": 33.510089,
        "area_lng": 133.547805
    },
    {
        "area_city_code": 39201,
        "area_city_name": "高知市",
        "area_town_code": "392010151001",
        "area_town_name": "瀬戸南町一丁目",
        "area_lat": 33.507024,
        "area_lng": 133.541221
    },
    {
        "area_city_code": 39201,
        "area_city_name": "高知市",
        "area_town_code": "392010151002",
        "area_town_name": "瀬戸南町二丁目",
        "area_lat": 33.506144,
        "area_lng": 133.543071
    },
    {
        "area_city_code": 39201,
        "area_city_name": "高知市",
        "area_town_code": "392010152000",
        "area_town_name": "宗安寺",
        "area_lat": 33.571339,
        "area_lng": 133.472299
    },
    {
        "area_city_code": 39201,
        "area_city_name": "高知市",
        "area_town_code": "392010153000",
        "area_town_name": "大膳町",
        "area_lat": 33.560144,
        "area_lng": 133.523482
    },
    {
        "area_city_code": 39201,
        "area_city_name": "高知市",
        "area_town_code": "392010154001",
        "area_town_name": "鷹匠町一丁目",
        "area_lat": 33.555924,
        "area_lng": 133.534506
    },
    {
        "area_city_code": 39201,
        "area_city_name": "高知市",
        "area_town_code": "392010154002",
        "area_town_name": "鷹匠町二丁目",
        "area_lat": 33.555459,
        "area_lng": 133.5315
    },
    {
        "area_city_code": 39201,
        "area_city_name": "高知市",
        "area_town_code": "392010155000",
        "area_town_name": "高須",
        "area_lat": 33.563995,
        "area_lng": 133.575233
    },
    {
        "area_city_code": 39201,
        "area_city_name": "高知市",
        "area_town_code": "392010156001",
        "area_town_name": "高須一丁目",
        "area_lat": 33.558341,
        "area_lng": 133.584623
    },
    {
        "area_city_code": 39201,
        "area_city_name": "高知市",
        "area_town_code": "392010156002",
        "area_town_name": "高須二丁目",
        "area_lat": 33.560521,
        "area_lng": 133.586844
    },
    {
        "area_city_code": 39201,
        "area_city_name": "高知市",
        "area_town_code": "392010156003",
        "area_town_name": "高須三丁目",
        "area_lat": 33.562249,
        "area_lng": 133.590292
    },
    {
        "area_city_code": 39201,
        "area_city_name": "高知市",
        "area_town_code": "392010157000",
        "area_town_name": "高須大島",
        "area_lat": 33.552893,
        "area_lng": 133.58264
    },
    {
        "area_city_code": 39201,
        "area_city_name": "高知市",
        "area_town_code": "392010158000",
        "area_town_name": "高須大谷",
        "area_lat": 33.552339,
        "area_lng": 133.577461
    },
    {
        "area_city_code": 39201,
        "area_city_name": "高知市",
        "area_town_code": "392010159000",
        "area_town_name": "高須新木",
        "area_lat": 33.56302,
        "area_lng": 133.586804
    },
    {
        "area_city_code": 39201,
        "area_city_name": "高知市",
        "area_town_code": "392010160001",
        "area_town_name": "高須新町一丁目",
        "area_lat": 33.557939,
        "area_lng": 133.576444
    },
    {
        "area_city_code": 39201,
        "area_city_name": "高知市",
        "area_town_code": "392010160002",
        "area_town_name": "高須新町二丁目",
        "area_lat": 33.558003,
        "area_lng": 133.579175
    },
    {
        "area_city_code": 39201,
        "area_city_name": "高知市",
        "area_town_code": "392010160003",
        "area_town_name": "高須新町三丁目",
        "area_lat": 33.554975,
        "area_lng": 133.576488
    },
    {
        "area_city_code": 39201,
        "area_city_name": "高知市",
        "area_town_code": "392010160004",
        "area_town_name": "高須新町四丁目",
        "area_lat": 33.555455,
        "area_lng": 133.579061
    },
    {
        "area_city_code": 39201,
        "area_city_name": "高知市",
        "area_town_code": "392010161000",
        "area_town_name": "高須砂地",
        "area_lat": 33.567921,
        "area_lng": 133.572437
    },
    {
        "area_city_code": 39201,
        "area_city_name": "高知市",
        "area_town_code": "392010162000",
        "area_town_name": "高須絶海",
        "area_lat": 33.551126,
        "area_lng": 133.573146
    },
    {
        "area_city_code": 39201,
        "area_city_name": "高知市",
        "area_town_code": "392010163000",
        "area_town_name": "高須西町",
        "area_lat": 33.551433,
        "area_lng": 133.569379
    },
    {
        "area_city_code": 39201,
        "area_city_name": "高知市",
        "area_town_code": "392010164000",
        "area_town_name": "高須東町",
        "area_lat": 33.558129,
        "area_lng": 133.593183
    },
    {
        "area_city_code": 39201,
        "area_city_name": "高知市",
        "area_town_code": "392010165000",
        "area_town_name": "高須本町",
        "area_lat": 33.560243,
        "area_lng": 133.580511
    },
    {
        "area_city_code": 39201,
        "area_city_name": "高知市",
        "area_town_code": "392010166000",
        "area_town_name": "高埆",
        "area_lat": 33.573242,
        "area_lng": 133.556097
    },
    {
        "area_city_code": 39201,
        "area_city_name": "高知市",
        "area_town_code": "392010167000",
        "area_town_name": "高見町",
        "area_lat": 33.541442,
        "area_lng": 133.536356
    },
    {
        "area_city_code": 39201,
        "area_city_name": "高知市",
        "area_town_code": "392010168000",
        "area_town_name": "宝町",
        "area_lat": 33.568778,
        "area_lng": 133.527758
    },
    {
        "area_city_code": 39201,
        "area_city_name": "高知市",
        "area_town_code": "392010169000",
        "area_town_name": "竹島町",
        "area_lat": 33.541729,
        "area_lng": 133.543771
    },
    {
        "area_city_code": 39201,
        "area_city_name": "高知市",
        "area_town_code": "392010170000",
        "area_town_name": "種崎",
        "area_lat": 33.506065,
        "area_lng": 133.569273
    },
    {
        "area_city_code": 39201,
        "area_city_name": "高知市",
        "area_town_code": "392010171000",
        "area_town_name": "玉水町",
        "area_lat": 33.555659,
        "area_lng": 133.515383
    },
    {
        "area_city_code": 39201,
        "area_city_name": "高知市",
        "area_town_code": "392010172001",
        "area_town_name": "知寄町一丁目",
        "area_lat": 33.558684,
        "area_lng": 133.55674
    },
    {
        "area_city_code": 39201,
        "area_city_name": "高知市",
        "area_town_code": "392010172002",
        "area_town_name": "知寄町二丁目",
        "area_lat": 33.558203,
        "area_lng": 133.56015
    },
    {
        "area_city_code": 39201,
        "area_city_name": "高知市",
        "area_town_code": "392010172003",
        "area_town_name": "知寄町三丁目",
        "area_lat": 33.557228,
        "area_lng": 133.565785
    },
    {
        "area_city_code": 39201,
        "area_city_name": "高知市",
        "area_town_code": "392010173000",
        "area_town_name": "塚ノ原",
        "area_lat": 33.562596,
        "area_lng": 133.495352
    },
    {
        "area_city_code": 39201,
        "area_city_name": "高知市",
        "area_town_code": "392010174000",
        "area_town_name": "天神町",
        "area_lat": 33.554312,
        "area_lng": 133.538629
    },
    {
        "area_city_code": 39201,
        "area_city_name": "高知市",
        "area_town_code": "392010175000",
        "area_town_name": "土居町",
        "area_lat": 33.554791,
        "area_lng": 133.545259
    },
    {
        "area_city_code": 39201,
        "area_city_name": "高知市",
        "area_town_code": "392010176000",
        "area_town_name": "唐人町",
        "area_lat": 33.556056,
        "area_lng": 133.539068
    },
    {
        "area_city_code": 39201,
        "area_city_name": "高知市",
        "area_town_code": "392010177001",
        "area_town_name": "十津一丁目",
        "area_lat": 33.528627,
        "area_lng": 133.570117
    },
    {
        "area_city_code": 39201,
        "area_city_name": "高知市",
        "area_town_code": "392010177002",
        "area_town_name": "十津二丁目",
        "area_lat": 33.524462,
        "area_lng": 133.570792
    },
    {
        "area_city_code": 39201,
        "area_city_name": "高知市",
        "area_town_code": "392010177003",
        "area_town_name": "十津三丁目",
        "area_lat": 33.525109,
        "area_lng": 133.572996
    },
    {
        "area_city_code": 39201,
        "area_city_name": "高知市",
        "area_town_code": "392010177004",
        "area_town_name": "十津四丁目",
        "area_lat": 33.528408,
        "area_lng": 133.576078
    },
    {
        "area_city_code": 39201,
        "area_city_name": "高知市",
        "area_town_code": "392010177005",
        "area_town_name": "十津五丁目",
        "area_lat": 33.524934,
        "area_lng": 133.577789
    },
    {
        "area_city_code": 39201,
        "area_city_name": "高知市",
        "area_town_code": "392010177006",
        "area_town_name": "十津六丁目",
        "area_lat": 33.522677,
        "area_lng": 133.578861
    },
    {
        "area_city_code": 39201,
        "area_city_name": "高知市",
        "area_town_code": "392010178000",
        "area_town_name": "通町",
        "area_lat": 33.555916,
        "area_lng": 133.516926
    },
    {
        "area_city_code": 39201,
        "area_city_name": "高知市",
        "area_town_code": "392010179000",
        "area_town_name": "土佐山",
        "area_lat": 33.627444,
        "area_lng": 133.535829
    },
    {
        "area_city_code": 39201,
        "area_city_name": "高知市",
        "area_town_code": "392010180000",
        "area_town_name": "土佐山梶谷",
        "area_lat": 33.647614,
        "area_lng": 133.54182
    },
    {
        "area_city_code": 39201,
        "area_city_name": "高知市",
        "area_town_code": "392010181000",
        "area_town_name": "土佐山桑尾",
        "area_lat": 33.640759,
        "area_lng": 133.508621
    },
    {
        "area_city_code": 39201,
        "area_city_name": "高知市",
        "area_town_code": "392010182000",
        "area_town_name": "土佐山菖蒲",
        "area_lat": 33.64549,
        "area_lng": 133.570849
    },
    {
        "area_city_code": 39201,
        "area_city_name": "高知市",
        "area_town_code": "392010183000",
        "area_town_name": "土佐山高川",
        "area_lat": 33.659642,
        "area_lng": 133.519812
    },
    {
        "area_city_code": 39201,
        "area_city_name": "高知市",
        "area_town_code": "392010184000",
        "area_town_name": "土佐山都網",
        "area_lat": 33.613489,
        "area_lng": 133.52236
    },
    {
        "area_city_code": 39201,
        "area_city_name": "高知市",
        "area_town_code": "392010185000",
        "area_town_name": "土佐山中切",
        "area_lat": 33.646391,
        "area_lng": 133.478938
    },
    {
        "area_city_code": 39201,
        "area_city_name": "高知市",
        "area_town_code": "392010186000",
        "area_town_name": "土佐山西川",
        "area_lat": 33.648733,
        "area_lng": 133.554916
    },
    {
        "area_city_code": 39201,
        "area_city_name": "高知市",
        "area_town_code": "392010187000",
        "area_town_name": "土佐山東川",
        "area_lat": 33.647779,
        "area_lng": 133.492401
    },
    {
        "area_city_code": 39201,
        "area_city_name": "高知市",
        "area_town_code": "392010188000",
        "area_town_name": "土佐山弘瀬",
        "area_lat": 33.616471,
        "area_lng": 133.499769
    },
    {
        "area_city_code": 39201,
        "area_city_name": "高知市",
        "area_town_code": "392010189000",
        "area_town_name": "鳥越",
        "area_lat": 33.562022,
        "area_lng": 133.489893
    },
    {
        "area_city_code": 39201,
        "area_city_name": "高知市",
        "area_town_code": "392010190000",
        "area_town_name": "長尾山町",
        "area_lat": 33.559107,
        "area_lng": 133.499765
    },
    {
        "area_city_code": 39201,
        "area_city_name": "高知市",
        "area_town_code": "392010191000",
        "area_town_name": "中久万",
        "area_lat": 33.572575,
        "area_lng": 133.525184
    },
    {
        "area_city_code": 39201,
        "area_city_name": "高知市",
        "area_town_code": "392010192000",
        "area_town_name": "中秦泉寺",
        "area_lat": 33.587752,
        "area_lng": 133.531687
    },
    {
        "area_city_code": 39201,
        "area_city_name": "高知市",
        "area_town_code": "392010193000",
        "area_town_name": "中水道",
        "area_lat": 33.568295,
        "area_lng": 133.534386
    },
    {
        "area_city_code": 39201,
        "area_city_name": "高知市",
        "area_town_code": "392010194000",
        "area_town_name": "中須賀町",
        "area_lat": 33.558453,
        "area_lng": 133.511578
    },
    {
        "area_city_code": 39201,
        "area_city_name": "高知市",
        "area_town_code": "392010195000",
        "area_town_name": "仲田町",
        "area_lat": 33.548584,
        "area_lng": 133.553898
    },
    {
        "area_city_code": 39201,
        "area_city_name": "高知市",
        "area_town_code": "392010196000",
        "area_town_name": "中の島",
        "area_lat": 33.553925,
        "area_lng": 133.5567
    },
    {
        "area_city_code": 39201,
        "area_city_name": "高知市",
        "area_town_code": "392010197000",
        "area_town_name": "長浜",
        "area_lat": 33.502789,
        "area_lng": 133.549249
    },
    {
        "area_city_code": 39201,
        "area_city_name": "高知市",
        "area_town_code": "392010198001",
        "area_town_name": "長浜蒔絵台一丁目",
        "area_lat": 33.515535,
        "area_lng": 133.526406
    },
    {
        "area_city_code": 39201,
        "area_city_name": "高知市",
        "area_town_code": "392010198002",
        "area_town_name": "長浜蒔絵台二丁目",
        "area_lat": 33.512855,
        "area_lng": 133.52636
    },
    {
        "area_city_code": 39201,
        "area_city_name": "高知市",
        "area_town_code": "392010199000",
        "area_town_name": "長浜宮田",
        "area_lat": 33.503702,
        "area_lng": 133.530323
    },
    {
        "area_city_code": 39201,
        "area_city_name": "高知市",
        "area_town_code": "392010200000",
        "area_town_name": "中宝永町",
        "area_lat": 33.558933,
        "area_lng": 133.553646
    },
    {
        "area_city_code": 39201,
        "area_city_name": "高知市",
        "area_town_code": "392010201000",
        "area_town_name": "中万々",
        "area_lat": 33.570244,
        "area_lng": 133.516116
    },
    {
        "area_city_code": 39201,
        "area_city_name": "高知市",
        "area_town_code": "392010202000",
        "area_town_name": "七ツ淵",
        "area_lat": 33.606577,
        "area_lng": 133.539906
    },
    {
        "area_city_code": 39201,
        "area_city_name": "高知市",
        "area_town_code": "392010203000",
        "area_town_name": "行川",
        "area_lat": 33.583335,
        "area_lng": 133.461694
    },
    {
        "area_city_code": 39201,
        "area_city_name": "高知市",
        "area_town_code": "392010204000",
        "area_town_name": "縄手町",
        "area_lat": 33.553992,
        "area_lng": 133.511255
    },
    {
        "area_city_code": 39201,
        "area_city_name": "高知市",
        "area_town_code": "392010205000",
        "area_town_name": "仁井田",
        "area_lat": 33.517903,
        "area_lng": 133.569255
    },
    {
        "area_city_code": 39201,
        "area_city_name": "高知市",
        "area_town_code": "392010206000",
        "area_town_name": "西久万",
        "area_lat": 33.576912,
        "area_lng": 133.520946
    },
    {
        "area_city_code": 39201,
        "area_city_name": "高知市",
        "area_town_code": "392010207000",
        "area_town_name": "西秦泉寺",
        "area_lat": 33.578366,
        "area_lng": 133.532107
    },
    {
        "area_city_code": 39201,
        "area_city_name": "高知市",
        "area_town_code": "392010208000",
        "area_town_name": "西塚ノ原",
        "area_lat": 33.564476,
        "area_lng": 133.490574
    },
    {
        "area_city_code": 39201,
        "area_city_name": "高知市",
        "area_town_code": "392010209000",
        "area_town_name": "西町",
        "area_lat": 33.559346,
        "area_lng": 133.520961
    },
    {
        "area_city_code": 39201,
        "area_city_name": "高知市",
        "area_town_code": "392010210000",
        "area_town_name": "廿代町",
        "area_lat": 33.56328,
        "area_lng": 133.539891
    },
    {
        "area_city_code": 39201,
        "area_city_name": "高知市",
        "area_town_code": "392010211000",
        "area_town_name": "布師田",
        "area_lat": 33.581567,
        "area_lng": 133.597397
    },
    {
        "area_city_code": 39201,
        "area_city_name": "高知市",
        "area_town_code": "392010212000",
        "area_town_name": "農人町",
        "area_lat": 33.557723,
        "area_lng": 133.55094
    },
    {
        "area_city_code": 39201,
        "area_city_name": "高知市",
        "area_town_code": "392010213001",
        "area_town_name": "萩町一丁目",
        "area_lat": 33.546509,
        "area_lng": 133.555006
    },
    {
        "area_city_code": 39201,
        "area_city_name": "高知市",
        "area_town_code": "392010213002",
        "area_town_name": "萩町二丁目",
        "area_lat": 33.544266,
        "area_lng": 133.556932
    },
    {
        "area_city_code": 39201,
        "area_city_name": "高知市",
        "area_town_code": "392010214001",
        "area_town_name": "秦南町一丁目",
        "area_lat": 33.5755,
        "area_lng": 133.543562
    },
    {
        "area_city_code": 39201,
        "area_city_name": "高知市",
        "area_town_code": "392010214002",
        "area_town_name": "秦南町二丁目",
        "area_lat": 33.575873,
        "area_lng": 133.546829
    },
    {
        "area_city_code": 39201,
        "area_city_name": "高知市",
        "area_town_code": "392010215001",
        "area_town_name": "八反町一丁目",
        "area_lat": 33.568169,
        "area_lng": 133.525556
    },
    {
        "area_city_code": 39201,
        "area_city_name": "高知市",
        "area_town_code": "392010215002",
        "area_town_name": "八反町二丁目",
        "area_lat": 33.567438,
        "area_lng": 133.522844
    },
    {
        "area_city_code": 39201,
        "area_city_name": "高知市",
        "area_town_code": "392010216000",
        "area_town_name": "孕西町",
        "area_lat": 33.533927,
        "area_lng": 133.546983
    },
    {
        "area_city_code": 39201,
        "area_city_name": "高知市",
        "area_town_code": "392010217000",
        "area_town_name": "孕東町",
        "area_lat": 33.534251,
        "area_lng": 133.556645
    },
    {
        "area_city_code": 39201,
        "area_city_name": "高知市",
        "area_town_code": "392010218001",
        "area_town_name": "針木北一丁目",
        "area_lat": 33.54043,
        "area_lng": 133.472718
    },
    {
        "area_city_code": 39201,
        "area_city_name": "高知市",
        "area_town_code": "392010218002",
        "area_town_name": "針木北二丁目",
        "area_lat": 33.539818,
        "area_lng": 133.467535
    },
    {
        "area_city_code": 39201,
        "area_city_name": "高知市",
        "area_town_code": "392010219000",
        "area_town_name": "針木西",
        "area_lat": 33.529871,
        "area_lng": 133.463228
    },
    {
        "area_city_code": 39201,
        "area_city_name": "高知市",
        "area_town_code": "392010220000",
        "area_town_name": "針木東町",
        "area_lat": 33.533325,
        "area_lng": 133.476854
    },
    {
        "area_city_code": 39201,
        "area_city_name": "高知市",
        "area_town_code": "392010221000",
        "area_town_name": "針木本町",
        "area_lat": 33.535169,
        "area_lng": 133.472398
    },
    {
        "area_city_code": 39201,
        "area_city_name": "高知市",
        "area_town_code": "392010222000",
        "area_town_name": "針木南",
        "area_lat": 33.529124,
        "area_lng": 133.471567
    },
    {
        "area_city_code": 39201,
        "area_city_name": "高知市",
        "area_town_code": "392010223000",
        "area_town_name": "針原",
        "area_lat": 33.596468,
        "area_lng": 133.464407
    },
    {
        "area_city_code": 39201,
        "area_city_name": "高知市",
        "area_town_code": "392010224001",
        "area_town_name": "はりまや町一丁目",
        "area_lat": 33.559985,
        "area_lng": 133.544289
    },
    {
        "area_city_code": 39201,
        "area_city_name": "高知市",
        "area_town_code": "392010224002",
        "area_town_name": "はりまや町二丁目",
        "area_lat": 33.561326,
        "area_lng": 133.544928
    },
    {
        "area_city_code": 39201,
        "area_city_name": "高知市",
        "area_town_code": "392010224003",
        "area_town_name": "はりまや町三丁目",
        "area_lat": 33.562962,
        "area_lng": 133.544959
    },
    {
        "area_city_code": 39201,
        "area_city_name": "高知市",
        "area_town_code": "392010225000",
        "area_town_name": "春野町秋山",
        "area_lat": 33.487637,
        "area_lng": 133.497309
    },
    {
        "area_city_code": 39201,
        "area_city_name": "高知市",
        "area_town_code": "392010226000",
        "area_town_name": "春野町内ノ谷",
        "area_lat": 33.513142,
        "area_lng": 133.520918
    },
    {
        "area_city_code": 39201,
        "area_city_name": "高知市",
        "area_town_code": "392010227000",
        "area_town_name": "春野町甲殿",
        "area_lat": 33.477917,
        "area_lng": 133.511546
    },
    {
        "area_city_code": 39201,
        "area_city_name": "高知市",
        "area_town_code": "392010228000",
        "area_town_name": "春野町西畑",
        "area_lat": 33.473137,
        "area_lng": 133.472399
    },
    {
        "area_city_code": 39201,
        "area_city_name": "高知市",
        "area_town_code": "392010229000",
        "area_town_name": "春野町西分",
        "area_lat": 33.5102,
        "area_lng": 133.49549
    },
    {
        "area_city_code": 39201,
        "area_city_name": "高知市",
        "area_town_code": "392010230000",
        "area_town_name": "春野町西諸木",
        "area_lat": 33.491047,
        "area_lng": 133.508968
    },
    {
        "area_city_code": 39201,
        "area_city_name": "高知市",
        "area_town_code": "392010231000",
        "area_town_name": "春野町仁ノ",
        "area_lat": 33.471995,
        "area_lng": 133.49241
    },
    {
        "area_city_code": 39201,
        "area_city_name": "高知市",
        "area_town_code": "392010232000",
        "area_town_name": "春野町東諸木",
        "area_lat": 33.489459,
        "area_lng": 133.524139
    },
    {
        "area_city_code": 39201,
        "area_city_name": "高知市",
        "area_town_code": "392010233000",
        "area_town_name": "春野町弘岡上",
        "area_lat": 33.508278,
        "area_lng": 133.448404
    },
    {
        "area_city_code": 39201,
        "area_city_name": "高知市",
        "area_town_code": "392010234000",
        "area_town_name": "春野町弘岡下",
        "area_lat": 33.510117,
        "area_lng": 133.479028
    },
    {
        "area_city_code": 39201,
        "area_city_name": "高知市",
        "area_town_code": "392010235000",
        "area_town_name": "春野町弘岡中",
        "area_lat": 33.510048,
        "area_lng": 133.46481
    },
    {
        "area_city_code": 39201,
        "area_city_name": "高知市",
        "area_town_code": "392010236000",
        "area_town_name": "春野町平和",
        "area_lat": 33.502144,
        "area_lng": 133.518427
    },
    {
        "area_city_code": 39201,
        "area_city_name": "高知市",
        "area_town_code": "392010237001",
        "area_town_name": "春野町南ケ丘一丁目",
        "area_lat": 33.515226,
        "area_lng": 133.51982
    },
    {
        "area_city_code": 39201,
        "area_city_name": "高知市",
        "area_town_code": "392010237002",
        "area_town_name": "春野町南ケ丘二丁目",
        "area_lat": 33.515765,
        "area_lng": 133.517769
    },
    {
        "area_city_code": 39201,
        "area_city_name": "高知市",
        "area_town_code": "392010237003",
        "area_town_name": "春野町南ケ丘三丁目",
        "area_lat": 33.515104,
        "area_lng": 133.516918
    },
    {
        "area_city_code": 39201,
        "area_city_name": "高知市",
        "area_town_code": "392010237004",
        "area_town_name": "春野町南ケ丘四丁目",
        "area_lat": 33.518612,
        "area_lng": 133.514739
    },
    {
        "area_city_code": 39201,
        "area_city_name": "高知市",
        "area_town_code": "392010237005",
        "area_town_name": "春野町南ケ丘五丁目",
        "area_lat": 33.518272,
        "area_lng": 133.517039
    },
    {
        "area_city_code": 39201,
        "area_city_name": "高知市",
        "area_town_code": "392010237006",
        "area_town_name": "春野町南ケ丘六丁目",
        "area_lat": 33.518342,
        "area_lng": 133.519857
    },
    {
        "area_city_code": 39201,
        "area_city_name": "高知市",
        "area_town_code": "392010237007",
        "area_town_name": "春野町南ケ丘七丁目",
        "area_lat": 33.518687,
        "area_lng": 133.522406
    },
    {
        "area_city_code": 39201,
        "area_city_name": "高知市",
        "area_town_code": "392010237008",
        "area_town_name": "春野町南ケ丘八丁目",
        "area_lat": 33.520458,
        "area_lng": 133.518838
    },
    {
        "area_city_code": 39201,
        "area_city_name": "高知市",
        "area_town_code": "392010237009",
        "area_town_name": "春野町南ケ丘九丁目",
        "area_lat": 33.521245,
        "area_lng": 133.521407
    },
    {
        "area_city_code": 39201,
        "area_city_name": "高知市",
        "area_town_code": "392010238000",
        "area_town_name": "春野町森山",
        "area_lat": 33.489002,
        "area_lng": 133.472344
    },
    {
        "area_city_code": 39201,
        "area_city_name": "高知市",
        "area_town_code": "392010239000",
        "area_town_name": "春野町芳原",
        "area_lat": 33.511571,
        "area_lng": 133.509728
    },
    {
        "area_city_code": 39201,
        "area_city_name": "高知市",
        "area_town_code": "392010240000",
        "area_town_name": "東石立町",
        "area_lat": 33.552744,
        "area_lng": 133.522602
    },
    {
        "area_city_code": 39201,
        "area_city_name": "高知市",
        "area_town_code": "392010241000",
        "area_town_name": "東久万",
        "area_lat": 33.575774,
        "area_lng": 133.529063
    },
    {
        "area_city_code": 39201,
        "area_city_name": "高知市",
        "area_town_code": "392010242000",
        "area_town_name": "東城山町",
        "area_lat": 33.549214,
        "area_lng": 133.518403
    },
    {
        "area_city_code": 39201,
        "area_city_name": "高知市",
        "area_town_code": "392010243000",
        "area_town_name": "東秦泉寺",
        "area_lat": 33.58638,
        "area_lng": 133.547357
    },
    {
        "area_city_code": 39201,
        "area_city_name": "高知市",
        "area_town_code": "392010244000",
        "area_town_name": "尾立",
        "area_lat": 33.573211,
        "area_lng": 133.484954
    },
    {
        "area_city_code": 39201,
        "area_city_name": "高知市",
        "area_town_code": "392010245001",
        "area_town_name": "比島町一丁目",
        "area_lat": 33.568086,
        "area_lng": 133.54974
    },
    {
        "area_city_code": 39201,
        "area_city_name": "高知市",
        "area_town_code": "392010245002",
        "area_town_name": "比島町二丁目",
        "area_lat": 33.571574,
        "area_lng": 133.551971
    },
    {
        "area_city_code": 39201,
        "area_city_name": "高知市",
        "area_town_code": "392010245003",
        "area_town_name": "比島町三丁目",
        "area_lat": 33.571186,
        "area_lng": 133.548479
    },
    {
        "area_city_code": 39201,
        "area_city_name": "高知市",
        "area_town_code": "392010245004",
        "area_town_name": "比島町四丁目",
        "area_lat": 33.57323,
        "area_lng": 133.549527
    },
    {
        "area_city_code": 39201,
        "area_city_name": "高知市",
        "area_town_code": "392010246000",
        "area_town_name": "筆山町",
        "area_lat": 33.551609,
        "area_lng": 133.536537
    },
    {
        "area_city_code": 39201,
        "area_city_name": "高知市",
        "area_town_code": "392010247001",
        "area_town_name": "一ツ橋町一丁目",
        "area_lat": 33.573783,
        "area_lng": 133.531568
    },
    {
        "area_city_code": 39201,
        "area_city_name": "高知市",
        "area_town_code": "392010247002",
        "area_town_name": "一ツ橋町二丁目",
        "area_lat": 33.573238,
        "area_lng": 133.52923
    },
    {
        "area_city_code": 39201,
        "area_city_name": "高知市",
        "area_town_code": "392010248000",
        "area_town_name": "日の出町",
        "area_lat": 33.560131,
        "area_lng": 133.557611
    },
    {
        "area_city_code": 39201,
        "area_city_name": "高知市",
        "area_town_code": "392010249001",
        "area_town_name": "百石町一丁目",
        "area_lat": 33.551063,
        "area_lng": 133.543638
    },
    {
        "area_city_code": 39201,
        "area_city_name": "高知市",
        "area_town_code": "392010249002",
        "area_town_name": "百石町二丁目",
        "area_lat": 33.547741,
        "area_lng": 133.543115
    },
    {
        "area_city_code": 39201,
        "area_city_name": "高知市",
        "area_town_code": "392010249003",
        "area_town_name": "百石町三丁目",
        "area_lat": 33.54527,
        "area_lng": 133.54659
    },
    {
        "area_city_code": 39201,
        "area_city_name": "高知市",
        "area_town_code": "392010249004",
        "area_town_name": "百石町四丁目",
        "area_lat": 33.543984,
        "area_lng": 133.545041
    },
    {
        "area_city_code": 39201,
        "area_city_name": "高知市",
        "area_town_code": "392010250000",
        "area_town_name": "深谷町",
        "area_lat": 33.533172,
        "area_lng": 133.534854
    },
    {
        "area_city_code": 39201,
        "area_city_name": "高知市",
        "area_town_code": "392010251000",
        "area_town_name": "福井扇町",
        "area_lat": 33.567953,
        "area_lng": 133.510764
    },
    {
        "area_city_code": 39201,
        "area_city_name": "高知市",
        "area_town_code": "392010252000",
        "area_town_name": "福井町",
        "area_lat": 33.570701,
        "area_lng": 133.502949
    },
    {
        "area_city_code": 39201,
        "area_city_name": "高知市",
        "area_town_code": "392010253000",
        "area_town_name": "福井東町",
        "area_lat": 33.564129,
        "area_lng": 133.51353
    },
    {
        "area_city_code": 39201,
        "area_city_name": "高知市",
        "area_town_code": "392010254000",
        "area_town_name": "札場",
        "area_lat": 33.563816,
        "area_lng": 133.561704
    },
    {
        "area_city_code": 39201,
        "area_city_name": "高知市",
        "area_town_code": "392010255000",
        "area_town_name": "二葉町",
        "area_lat": 33.556435,
        "area_lng": 133.556204
    },
    {
        "area_city_code": 39201,
        "area_city_name": "高知市",
        "area_town_code": "392010256000",
        "area_town_name": "平和町",
        "area_lat": 33.561307,
        "area_lng": 133.515093
    },
    {
        "area_city_code": 39201,
        "area_city_name": "高知市",
        "area_town_code": "392010257000",
        "area_town_name": "宝永町",
        "area_lat": 33.561384,
        "area_lng": 133.554013
    },
    {
        "area_city_code": 39201,
        "area_city_name": "高知市",
        "area_town_code": "392010258000",
        "area_town_name": "洞ヶ島町",
        "area_lat": 33.566439,
        "area_lng": 133.533263
    },
    {
        "area_city_code": 39201,
        "area_city_name": "高知市",
        "area_town_code": "392010259000",
        "area_town_name": "本宮町",
        "area_lat": 33.556156,
        "area_lng": 133.499572
    },
    {
        "area_city_code": 39201,
        "area_city_name": "高知市",
        "area_town_code": "392010260000",
        "area_town_name": "本丁筋",
        "area_lat": 33.557313,
        "area_lng": 133.51623
    },
    {
        "area_city_code": 39201,
        "area_city_name": "高知市",
        "area_town_code": "392010261001",
        "area_town_name": "本町一丁目",
        "area_lat": 33.558991,
        "area_lng": 133.539191
    },
    {
        "area_city_code": 39201,
        "area_city_name": "高知市",
        "area_town_code": "392010261002",
        "area_town_name": "本町二丁目",
        "area_lat": 33.558576,
        "area_lng": 133.537483
    },
    {
        "area_city_code": 39201,
        "area_city_name": "高知市",
        "area_town_code": "392010261003",
        "area_town_name": "本町三丁目",
        "area_lat": 33.558124,
        "area_lng": 133.535501
    },
    {
        "area_city_code": 39201,
        "area_city_name": "高知市",
        "area_town_code": "392010261004",
        "area_town_name": "本町四丁目",
        "area_lat": 33.557942,
        "area_lng": 133.533329
    },
    {
        "area_city_code": 39201,
        "area_city_name": "高知市",
        "area_town_code": "392010261005",
        "area_town_name": "本町五丁目",
        "area_lat": 33.55792,
        "area_lng": 133.530808
    },
    {
        "area_city_code": 39201,
        "area_city_name": "高知市",
        "area_town_code": "392010262000",
        "area_town_name": "前里",
        "area_lat": 33.578534,
        "area_lng": 133.540315
    },
    {
        "area_city_code": 39201,
        "area_city_name": "高知市",
        "area_town_code": "392010263000",
        "area_town_name": "槙山町",
        "area_lat": 33.537656,
        "area_lng": 133.484459
    },
    {
        "area_city_code": 39201,
        "area_city_name": "高知市",
        "area_town_code": "392010264000",
        "area_town_name": "升形",
        "area_lat": 33.55691,
        "area_lng": 133.528406
    },
    {
        "area_city_code": 39201,
        "area_city_name": "高知市",
        "area_town_code": "392010265000",
        "area_town_name": "万々",
        "area_lat": 33.575541,
        "area_lng": 133.512763
    },
    {
        "area_city_code": 39201,
        "area_city_name": "高知市",
        "area_town_code": "392010266000",
        "area_town_name": "丸池町",
        "area_lat": 33.560801,
        "area_lng": 133.563203
    },
    {
        "area_city_code": 39201,
        "area_city_name": "高知市",
        "area_town_code": "392010267001",
        "area_town_name": "丸ノ内一丁目",
        "area_lat": 33.560815,
        "area_lng": 133.530759
    },
    {
        "area_city_code": 39201,
        "area_city_name": "高知市",
        "area_town_code": "392010267002",
        "area_town_name": "丸ノ内二丁目",
        "area_lat": 33.563419,
        "area_lng": 133.531779
    },
    {
        "area_city_code": 39201,
        "area_city_name": "高知市",
        "area_town_code": "392010268000",
        "area_town_name": "三園町",
        "area_lat": 33.574439,
        "area_lng": 133.533806
    },
    {
        "area_city_code": 39201,
        "area_city_name": "高知市",
        "area_town_code": "392010269000",
        "area_town_name": "三谷",
        "area_lat": 33.598968,
        "area_lng": 133.526175
    },
    {
        "area_city_code": 39201,
        "area_city_name": "高知市",
        "area_town_code": "392010270001",
        "area_town_name": "みづき一丁目",
        "area_lat": 33.581301,
        "area_lng": 133.516689
    },
    {
        "area_city_code": 39201,
        "area_city_name": "高知市",
        "area_town_code": "392010270002",
        "area_town_name": "みづき二丁目",
        "area_lat": 33.580848,
        "area_lng": 133.521323
    },
    {
        "area_city_code": 39201,
        "area_city_name": "高知市",
        "area_town_code": "392010270003",
        "area_town_name": "みづき三丁目",
        "area_lat": 33.583424,
        "area_lng": 133.518242
    },
    {
        "area_city_code": 39201,
        "area_city_name": "高知市",
        "area_town_code": "392010271000",
        "area_town_name": "みづき山",
        "area_lat": 33.588775,
        "area_lng": 133.518572
    },
    {
        "area_city_code": 39201,
        "area_city_name": "高知市",
        "area_town_code": "392010272000",
        "area_town_name": "南金田",
        "area_lat": 33.564093,
        "area_lng": 133.557024
    },
    {
        "area_city_code": 39201,
        "area_city_name": "高知市",
        "area_town_code": "392010273000",
        "area_town_name": "南川添",
        "area_lat": 33.571539,
        "area_lng": 133.560831
    },
    {
        "area_city_code": 39201,
        "area_city_name": "高知市",
        "area_town_code": "392010274000",
        "area_town_name": "南久保",
        "area_lat": 33.566482,
        "area_lng": 133.566644
    },
    {
        "area_city_code": 39201,
        "area_city_name": "高知市",
        "area_town_code": "392010275000",
        "area_town_name": "南久万",
        "area_lat": 33.57166,
        "area_lng": 133.520945
    },
    {
        "area_city_code": 39201,
        "area_city_name": "高知市",
        "area_town_code": "392010276000",
        "area_town_name": "南河ノ瀬町",
        "area_lat": 33.546918,
        "area_lng": 133.522344
    },
    {
        "area_city_code": 39201,
        "area_city_name": "高知市",
        "area_town_code": "392010277000",
        "area_town_name": "南御座",
        "area_lat": 33.566493,
        "area_lng": 133.561365
    },
    {
        "area_city_code": 39201,
        "area_city_name": "高知市",
        "area_town_code": "392010278000",
        "area_town_name": "南新田町",
        "area_lat": 33.548459,
        "area_lng": 133.557966
    },
    {
        "area_city_code": 39201,
        "area_city_name": "高知市",
        "area_town_code": "392010279000",
        "area_town_name": "南竹島町",
        "area_lat": 33.539036,
        "area_lng": 133.546469
    },
    {
        "area_city_code": 39201,
        "area_city_name": "高知市",
        "area_town_code": "392010280000",
        "area_town_name": "南中山",
        "area_lat": 33.536061,
        "area_lng": 133.530411
    },
    {
        "area_city_code": 39201,
        "area_city_name": "高知市",
        "area_town_code": "392010281000",
        "area_town_name": "南ノ丸町",
        "area_lat": 33.541769,
        "area_lng": 133.548166
    },
    {
        "area_city_code": 39201,
        "area_city_name": "高知市",
        "area_town_code": "392010282001",
        "area_town_name": "南はりまや町一丁目",
        "area_lat": 33.558358,
        "area_lng": 133.543357
    },
    {
        "area_city_code": 39201,
        "area_city_name": "高知市",
        "area_town_code": "392010282002",
        "area_town_name": "南はりまや町二丁目",
        "area_lat": 33.558037,
        "area_lng": 133.545623
    },
    {
        "area_city_code": 39201,
        "area_city_name": "高知市",
        "area_town_code": "392010283000",
        "area_town_name": "南宝永町",
        "area_lat": 33.556951,
        "area_lng": 133.553352
    },
    {
        "area_city_code": 39201,
        "area_city_name": "高知市",
        "area_town_code": "392010284000",
        "area_town_name": "南万々",
        "area_lat": 33.566992,
        "area_lng": 133.518526
    },
    {
        "area_city_code": 39201,
        "area_city_name": "高知市",
        "area_town_code": "392010285000",
        "area_town_name": "南元町",
        "area_lat": 33.556849,
        "area_lng": 133.507103
    },
    {
        "area_city_code": 39201,
        "area_city_name": "高知市",
        "area_town_code": "392010286000",
        "area_town_name": "御畳瀬",
        "area_lat": 33.505485,
        "area_lng": 133.556462
    },
    {
        "area_city_code": 39201,
        "area_city_name": "高知市",
        "area_town_code": "392010287000",
        "area_town_name": "宮前町",
        "area_lat": 33.560169,
        "area_lng": 133.517576
    },
    {
        "area_city_code": 39201,
        "area_city_name": "高知市",
        "area_town_code": "392010288000",
        "area_town_name": "元町",
        "area_lat": 33.557926,
        "area_lng": 133.506968
    },
    {
        "area_city_code": 39201,
        "area_city_name": "高知市",
        "area_town_code": "392010289000",
        "area_town_name": "屋頭",
        "area_lat": 33.552696,
        "area_lng": 133.591389
    },
    {
        "area_city_code": 39201,
        "area_city_name": "高知市",
        "area_town_code": "392010290000",
        "area_town_name": "役知町",
        "area_lat": 33.554121,
        "area_lng": 133.548543
    },
    {
        "area_city_code": 39201,
        "area_city_name": "高知市",
        "area_town_code": "392010291000",
        "area_town_name": "山手町",
        "area_lat": 33.561345,
        "area_lng": 133.513473
    },
    {
        "area_city_code": 39201,
        "area_city_name": "高知市",
        "area_town_code": "392010292000",
        "area_town_name": "山ノ端町",
        "area_lat": 33.561415,
        "area_lng": 133.519495
    },
    {
        "area_city_code": 39201,
        "area_city_name": "高知市",
        "area_town_code": "392010293000",
        "area_town_name": "弥生町",
        "area_lat": 33.561623,
        "area_lng": 133.557753
    },
    {
        "area_city_code": 39201,
        "area_city_name": "高知市",
        "area_town_code": "392010294000",
        "area_town_name": "横内",
        "area_lat": 33.56555,
        "area_lng": 133.498969
    },
    {
        "area_city_code": 39201,
        "area_city_name": "高知市",
        "area_town_code": "392010295000",
        "area_town_name": "横浜",
        "area_lat": 33.52504,
        "area_lng": 133.538481
    },
    {
        "area_city_code": 39201,
        "area_city_name": "高知市",
        "area_town_code": "392010296001",
        "area_town_name": "横浜新町一丁目",
        "area_lat": 33.521866,
        "area_lng": 133.534235
    },
    {
        "area_city_code": 39201,
        "area_city_name": "高知市",
        "area_town_code": "392010296002",
        "area_town_name": "横浜新町二丁目",
        "area_lat": 33.520033,
        "area_lng": 133.532356
    },
    {
        "area_city_code": 39201,
        "area_city_name": "高知市",
        "area_town_code": "392010296003",
        "area_town_name": "横浜新町三丁目",
        "area_lat": 33.516193,
        "area_lng": 133.533041
    },
    {
        "area_city_code": 39201,
        "area_city_name": "高知市",
        "area_town_code": "392010296004",
        "area_town_name": "横浜新町四丁目",
        "area_lat": 33.517435,
        "area_lng": 133.536295
    },
    {
        "area_city_code": 39201,
        "area_city_name": "高知市",
        "area_town_code": "392010296005",
        "area_town_name": "横浜新町五丁目",
        "area_lat": 33.515586,
        "area_lng": 133.538041
    },
    {
        "area_city_code": 39201,
        "area_city_name": "高知市",
        "area_town_code": "392010297000",
        "area_town_name": "横浜西町",
        "area_lat": 33.517896,
        "area_lng": 133.54214
    },
    {
        "area_city_code": 39201,
        "area_city_name": "高知市",
        "area_town_code": "392010298000",
        "area_town_name": "横浜東町",
        "area_lat": 33.520935,
        "area_lng": 133.552663
    },
    {
        "area_city_code": 39201,
        "area_city_name": "高知市",
        "area_town_code": "392010299000",
        "area_town_name": "横浜南町",
        "area_lat": 33.512207,
        "area_lng": 133.539239
    },
    {
        "area_city_code": 39201,
        "area_city_name": "高知市",
        "area_town_code": "392010300000",
        "area_town_name": "吉田町",
        "area_lat": 33.571853,
        "area_lng": 133.533777
    },
    {
        "area_city_code": 39201,
        "area_city_name": "高知市",
        "area_town_code": "392010301000",
        "area_town_name": "与力町",
        "area_lat": 33.557064,
        "area_lng": 133.538632
    },
    {
        "area_city_code": 39201,
        "area_city_name": "高知市",
        "area_town_code": "392010302000",
        "area_town_name": "領家",
        "area_lat": 33.583566,
        "area_lng": 133.44151
    },
    {
        "area_city_code": 39201,
        "area_city_name": "高知市",
        "area_town_code": "392010303000",
        "area_town_name": "蓮台",
        "area_lat": 33.584919,
        "area_lng": 133.491943
    },
    {
        "area_city_code": 39201,
        "area_city_name": "高知市",
        "area_town_code": "392010304000",
        "area_town_name": "六泉寺町",
        "area_lat": 33.53849,
        "area_lng": 133.542275
    },
    {
        "area_city_code": 39201,
        "area_city_name": "高知市",
        "area_town_code": "392010305000",
        "area_town_name": "若草町",
        "area_lat": 33.543658,
        "area_lng": 133.488088
    },
    {
        "area_city_code": 39201,
        "area_city_name": "高知市",
        "area_town_code": "392010306000",
        "area_town_name": "若草南町",
        "area_lat": 33.541323,
        "area_lng": 133.489624
    },
    {
        "area_city_code": 39201,
        "area_city_name": "高知市",
        "area_town_code": "392010307000",
        "area_town_name": "若松町",
        "area_lat": 33.553425,
        "area_lng": 133.561824
    },
    {
        "area_city_code": 39201,
        "area_city_name": "高知市",
        "area_town_code": "392010308000",
        "area_town_name": "朝倉乙",
        "area_lat": 33.550752,
        "area_lng": 133.484513
    },
    {
        "area_city_code": 39202,
        "area_city_name": "室戸市",
        "area_town_code": "392020001000",
        "area_town_name": "浮津",
        "area_lat": 33.297117,
        "area_lng": 134.145466
    },
    {
        "area_city_code": 39202,
        "area_city_name": "室戸市",
        "area_town_code": "392020002000",
        "area_town_name": "浮津一番町",
        "area_lat": 33.290477,
        "area_lng": 134.145432
    },
    {
        "area_city_code": 39202,
        "area_city_name": "室戸市",
        "area_town_code": "392020003000",
        "area_town_name": "浮津二番町",
        "area_lat": 33.292308,
        "area_lng": 134.14474
    },
    {
        "area_city_code": 39202,
        "area_city_name": "室戸市",
        "area_town_code": "392020004000",
        "area_town_name": "浮津三番町",
        "area_lat": 33.293479,
        "area_lng": 134.14176
    },
    {
        "area_city_code": 39202,
        "area_city_name": "室戸市",
        "area_town_code": "392020005000",
        "area_town_name": "吉良川町",
        "area_lat": 33.397345,
        "area_lng": 134.148413
    },
    {
        "area_city_code": 39202,
        "area_city_name": "室戸市",
        "area_town_code": "392020006000",
        "area_town_name": "佐喜浜町",
        "area_lat": 33.419719,
        "area_lng": 134.196429
    },
    {
        "area_city_code": 39202,
        "area_city_name": "室戸市",
        "area_town_code": "392020007000",
        "area_town_name": "羽根町",
        "area_lat": 33.410154,
        "area_lng": 134.104197
    },
    {
        "area_city_code": 39202,
        "area_city_name": "室戸市",
        "area_town_code": "392020008000",
        "area_town_name": "室津",
        "area_lat": 33.321967,
        "area_lng": 134.162197
    },
    {
        "area_city_code": 39202,
        "area_city_name": "室戸市",
        "area_town_code": "392020009000",
        "area_town_name": "室戸岬町",
        "area_lat": 33.317251,
        "area_lng": 134.181405
    },
    {
        "area_city_code": 39202,
        "area_city_name": "室戸市",
        "area_town_code": "392020010000",
        "area_town_name": "元",
        "area_lat": 33.32407,
        "area_lng": 134.137052
    },
    {
        "area_city_code": 39202,
        "area_city_name": "室戸市",
        "area_town_code": "392020011000",
        "area_town_name": "領家",
        "area_lat": 33.290708,
        "area_lng": 134.169814
    },
    {
        "area_city_code": 39203,
        "area_city_name": "安芸市",
        "area_town_code": "392030001000",
        "area_town_name": "赤野乙",
        "area_lat": 33.521629,
        "area_lng": 133.829528
    },
    {
        "area_city_code": 39203,
        "area_city_name": "安芸市",
        "area_town_code": "392030002000",
        "area_town_name": "赤野甲",
        "area_lat": 33.509324,
        "area_lng": 133.841157
    },
    {
        "area_city_code": 39203,
        "area_city_name": "安芸市",
        "area_town_code": "392030003000",
        "area_town_name": "穴内乙",
        "area_lat": 33.508114,
        "area_lng": 133.862965
    },
    {
        "area_city_code": 39203,
        "area_city_name": "安芸市",
        "area_town_code": "392030004000",
        "area_town_name": "穴内甲",
        "area_lat": 33.508706,
        "area_lng": 133.854203
    },
    {
        "area_city_code": 39203,
        "area_city_name": "安芸市",
        "area_town_code": "392030005000",
        "area_town_name": "伊尾木",
        "area_lat": 33.492029,
        "area_lng": 133.927594
    },
    {
        "area_city_code": 39203,
        "area_city_name": "安芸市",
        "area_town_code": "392030006000",
        "area_town_name": "井ノ口乙",
        "area_lat": 33.537764,
        "area_lng": 133.903063
    },
    {
        "area_city_code": 39203,
        "area_city_name": "安芸市",
        "area_town_code": "392030007000",
        "area_town_name": "井ノ口甲",
        "area_lat": 33.523655,
        "area_lng": 133.892864
    },
    {
        "area_city_code": 39203,
        "area_city_name": "安芸市",
        "area_town_code": "392030008000",
        "area_town_name": "植野",
        "area_lat": 33.51641,
        "area_lng": 133.893299
    },
    {
        "area_city_code": 39203,
        "area_city_name": "安芸市",
        "area_town_code": "392030009000",
        "area_town_name": "大井乙",
        "area_lat": 33.587791,
        "area_lng": 133.987474
    },
    {
        "area_city_code": 39203,
        "area_city_name": "安芸市",
        "area_town_code": "392030010000",
        "area_town_name": "大井甲",
        "area_lat": 33.569409,
        "area_lng": 133.942073
    },
    {
        "area_city_code": 39203,
        "area_city_name": "安芸市",
        "area_town_code": "392030011000",
        "area_town_name": "尾川乙",
        "area_lat": 33.60045,
        "area_lng": 133.876616
    },
    {
        "area_city_code": 39203,
        "area_city_name": "安芸市",
        "area_town_code": "392030012000",
        "area_town_name": "尾川甲",
        "area_lat": 33.577239,
        "area_lng": 133.890457
    },
    {
        "area_city_code": 39203,
        "area_city_name": "安芸市",
        "area_town_code": "392030013000",
        "area_town_name": "小谷",
        "area_lat": 33.558458,
        "area_lng": 133.88202
    },
    {
        "area_city_code": 39203,
        "area_city_name": "安芸市",
        "area_town_code": "392030014000",
        "area_town_name": "川北乙",
        "area_lat": 33.526526,
        "area_lng": 133.916968
    },
    {
        "area_city_code": 39203,
        "area_city_name": "安芸市",
        "area_town_code": "392030015000",
        "area_town_name": "川北甲",
        "area_lat": 33.50626,
        "area_lng": 133.927707
    },
    {
        "area_city_code": 39203,
        "area_city_name": "安芸市",
        "area_town_code": "392030016000",
        "area_town_name": "久世町",
        "area_lat": 33.501551,
        "area_lng": 133.903936
    },
    {
        "area_city_code": 39203,
        "area_city_name": "安芸市",
        "area_town_code": "392030017000",
        "area_town_name": "黒瀬",
        "area_lat": 33.562347,
        "area_lng": 133.96824
    },
    {
        "area_city_code": 39203,
        "area_city_name": "安芸市",
        "area_town_code": "392030018000",
        "area_town_name": "黒鳥",
        "area_lat": 33.509383,
        "area_lng": 133.898611
    },
    {
        "area_city_code": 39203,
        "area_city_name": "安芸市",
        "area_town_code": "392030019000",
        "area_town_name": "古井",
        "area_lat": 33.620051,
        "area_lng": 133.988424
    },
    {
        "area_city_code": 39203,
        "area_city_name": "安芸市",
        "area_town_code": "392030020000",
        "area_town_name": "寿町",
        "area_lat": 33.498221,
        "area_lng": 133.90321
    },
    {
        "area_city_code": 39203,
        "area_city_name": "安芸市",
        "area_town_code": "392030021000",
        "area_town_name": "幸町",
        "area_lat": 33.50387,
        "area_lng": 133.899931
    },
    {
        "area_city_code": 39203,
        "area_city_name": "安芸市",
        "area_town_code": "392030022000",
        "area_town_name": "桜ケ丘町",
        "area_lat": 33.505396,
        "area_lng": 133.893028
    },
    {
        "area_city_code": 39203,
        "area_city_name": "安芸市",
        "area_town_code": "392030023000",
        "area_town_name": "島",
        "area_lat": 33.657276,
        "area_lng": 134.038999
    },
    {
        "area_city_code": 39203,
        "area_city_name": "安芸市",
        "area_town_code": "392030024000",
        "area_town_name": "下山",
        "area_lat": 33.464528,
        "area_lng": 133.942689
    },
    {
        "area_city_code": 39203,
        "area_city_name": "安芸市",
        "area_town_code": "392030025000",
        "area_town_name": "庄之芝町",
        "area_lat": 33.502474,
        "area_lng": 133.900278
    },
    {
        "area_city_code": 39203,
        "area_city_name": "安芸市",
        "area_town_code": "392030026000",
        "area_town_name": "清和町",
        "area_lat": 33.499112,
        "area_lng": 133.899436
    },
    {
        "area_city_code": 39203,
        "area_city_name": "安芸市",
        "area_town_code": "392030027000",
        "area_town_name": "僧津",
        "area_lat": 33.527443,
        "area_lng": 133.906081
    },
    {
        "area_city_code": 39203,
        "area_city_name": "安芸市",
        "area_town_code": "392030028000",
        "area_town_name": "染井町",
        "area_lat": 33.502988,
        "area_lng": 133.895154
    },
    {
        "area_city_code": 39203,
        "area_city_name": "安芸市",
        "area_town_code": "392030029000",
        "area_town_name": "千歳町",
        "area_lat": 33.50008,
        "area_lng": 133.895491
    },
    {
        "area_city_code": 39203,
        "area_city_name": "安芸市",
        "area_town_code": "392030030000",
        "area_town_name": "津久茂町",
        "area_lat": 33.500934,
        "area_lng": 133.890612
    },
    {
        "area_city_code": 39203,
        "area_city_name": "安芸市",
        "area_town_code": "392030031000",
        "area_town_name": "土居",
        "area_lat": 33.515244,
        "area_lng": 133.910642
    },
    {
        "area_city_code": 39203,
        "area_city_name": "安芸市",
        "area_town_code": "392030032000",
        "area_town_name": "栃ノ木",
        "area_lat": 33.56076,
        "area_lng": 133.903429
    },
    {
        "area_city_code": 39203,
        "area_city_name": "安芸市",
        "area_town_code": "392030033000",
        "area_town_name": "奈比賀",
        "area_lat": 33.526305,
        "area_lng": 133.951172
    },