[
    {
        "area_city_code": 4101,
        "area_city_name": "仙台市青葉区",
        "area_town_code": "41010001000",
        "area_town_name": "川内明神横丁",
        "area_lat": 38.26529,
        "area_lng": 140.85976
    },
    {
        "area_city_code": 4101,
        "area_city_name": "仙台市青葉区",
        "area_town_code": "41010002000",
        "area_town_name": "臨済院",
        "area_lat": 38.285195,
        "area_lng": 140.827876
    },
    {
        "area_city_code": 4101,
        "area_city_name": "仙台市青葉区",
        "area_town_code": "41010003001",
        "area_town_name": "大町一丁目",
        "area_lat": 38.259866,
        "area_lng": 140.869594
    },
    {
        "area_city_code": 4101,
        "area_city_name": "仙台市青葉区",
        "area_town_code": "41010003002",
        "area_town_name": "大町二丁目",
        "area_lat": 38.260229,
        "area_lng": 140.865875
    },
    {
        "area_city_code": 4101,
        "area_city_name": "仙台市青葉区",
        "area_town_code": "41010004000",
        "area_town_name": "川内亀岡北裏丁",
        "area_lat": 38.26221,
        "area_lng": 140.84713
    },
    {
        "area_city_code": 4101,
        "area_city_name": "仙台市青葉区",
        "area_town_code": "41010005000",
        "area_town_name": "川内大工町",
        "area_lat": 38.263408,
        "area_lng": 140.858841
    },
    {
        "area_city_code": 4101,
        "area_city_name": "仙台市青葉区",
        "area_town_code": "41010006001",
        "area_town_name": "東照宮一丁目",
        "area_lat": 38.279989,
        "area_lng": 140.885264
    },
    {
        "area_city_code": 4101,
        "area_city_name": "仙台市青葉区",
        "area_town_code": "41010006002",
        "area_town_name": "東照宮二丁目",
        "area_lat": 38.278591,
        "area_lng": 140.886066
    },
    {
        "area_city_code": 4101,
        "area_city_name": "仙台市青葉区",
        "area_town_code": "41010007000",
        "area_town_name": "川内山屋敷",
        "area_lat": 38.25829,
        "area_lng": 140.84674
    },
    {
        "area_city_code": 4101,
        "area_city_name": "仙台市青葉区",
        "area_town_code": "41010008000",
        "area_town_name": "川内中ノ瀬町",
        "area_lat": 38.26027,
        "area_lng": 140.858424
    },
    {
        "area_city_code": 4101,
        "area_city_name": "仙台市青葉区",
        "area_town_code": "41010009001",
        "area_town_name": "国分町一丁目",
        "area_lat": 38.261326,
        "area_lng": 140.869508
    },
    {
        "area_city_code": 4101,
        "area_city_name": "仙台市青葉区",
        "area_town_code": "41010009002",
        "area_town_name": "国分町二丁目",
        "area_lat": 38.263797,
        "area_lng": 140.868737
    },
    {
        "area_city_code": 4101,
        "area_city_name": "仙台市青葉区",
        "area_town_code": "41010009003",
        "area_town_name": "国分町三丁目",
        "area_lat": 38.267008,
        "area_lng": 140.868587
    },
    {
        "area_city_code": 4101,
        "area_city_name": "仙台市青葉区",
        "area_town_code": "41010010000",
        "area_town_name": "菊田町",
        "area_lat": 38.284796,
        "area_lng": 140.847481
    },
    {
        "area_city_code": 4101,
        "area_city_name": "仙台市青葉区",
        "area_town_code": "41010011001",
        "area_town_name": "吉成台一丁目",
        "area_lat": 38.293163,
        "area_lng": 140.823723
    },
    {
        "area_city_code": 4101,
        "area_city_name": "仙台市青葉区",
        "area_town_code": "41010011002",
        "area_town_name": "吉成台二丁目",
        "area_lat": 38.295635,
        "area_lng": 140.822843
    },
    {
        "area_city_code": 4101,
        "area_city_name": "仙台市青葉区",
        "area_town_code": "41010012001",
        "area_town_name": "貝ケ森一丁目",
        "area_lat": 38.282275,
        "area_lng": 140.840797
    },
    {
        "area_city_code": 4101,
        "area_city_name": "仙台市青葉区",
        "area_town_code": "41010012002",
        "area_town_name": "貝ケ森二丁目",
        "area_lat": 38.280318,
        "area_lng": 140.838382
    },
    {
        "area_city_code": 4101,
        "area_city_name": "仙台市青葉区",
        "area_town_code": "41010012003",
        "area_town_name": "貝ケ森三丁目",
        "area_lat": 38.28332,
        "area_lng": 140.838339
    },
    {
        "area_city_code": 4101,
        "area_city_name": "仙台市青葉区",
        "area_town_code": "41010012004",
        "area_town_name": "貝ケ森四丁目",
        "area_lat": 38.284341,
        "area_lng": 140.837342
    },
    {
        "area_city_code": 4101,
        "area_city_name": "仙台市青葉区",
        "area_town_code": "41010012005",
        "area_town_name": "貝ケ森五丁目",
        "area_lat": 38.286703,
        "area_lng": 140.840488
    },
    {
        "area_city_code": 4101,
        "area_city_name": "仙台市青葉区",
        "area_town_code": "41010012006",
        "area_town_name": "貝ケ森六丁目",
        "area_lat": 38.283358,
        "area_lng": 140.844787
    },
    {
        "area_city_code": 4101,
        "area_city_name": "仙台市青葉区",
        "area_town_code": "41010013001",
        "area_town_name": "中山吉成一丁目",
        "area_lat": 38.299606,
        "area_lng": 140.820041
    },
    {
        "area_city_code": 4101,
        "area_city_name": "仙台市青葉区",
        "area_town_code": "41010013002",
        "area_town_name": "中山吉成二丁目",
        "area_lat": 38.298217,
        "area_lng": 140.818978
    },
    {
        "area_city_code": 4101,
        "area_city_name": "仙台市青葉区",
        "area_town_code": "41010013003",
        "area_town_name": "中山吉成三丁目",
        "area_lat": 38.29743,
        "area_lng": 140.81795
    },
    {
        "area_city_code": 4101,
        "area_city_name": "仙台市青葉区",
        "area_town_code": "41010014001",
        "area_town_name": "愛子東一丁目",
        "area_lat": 38.271351,
        "area_lng": 140.778964
    },
    {
        "area_city_code": 4101,
        "area_city_name": "仙台市青葉区",
        "area_town_code": "41010014002",
        "area_town_name": "愛子東二丁目",
        "area_lat": 38.273126,
        "area_lng": 140.774543
    },
    {
        "area_city_code": 4101,
        "area_city_name": "仙台市青葉区",
        "area_town_code": "41010014003",
        "area_town_name": "愛子東三丁目",
        "area_lat": 38.274561,
        "area_lng": 140.776077
    },
    {
        "area_city_code": 4101,
        "area_city_name": "仙台市青葉区",
        "area_town_code": "41010014004",
        "area_town_name": "愛子東四丁目",
        "area_lat": 38.275956,
        "area_lng": 140.770746
    },
    {
        "area_city_code": 4101,
        "area_city_name": "仙台市青葉区",
        "area_town_code": "41010014005",
        "area_town_name": "愛子東五丁目",
        "area_lat": 38.275594,
        "area_lng": 140.7665
    },
    {
        "area_city_code": 4101,
        "area_city_name": "仙台市青葉区",
        "area_town_code": "41010014006",
        "area_town_name": "愛子東六丁目",
        "area_lat": 38.272085,
        "area_lng": 140.767706
    },
    {
        "area_city_code": 4101,
        "area_city_name": "仙台市青葉区",
        "area_town_code": "41010015001",
        "area_town_name": "小松島一丁目",
        "area_lat": 38.278128,
        "area_lng": 140.888015
    },
    {
        "area_city_code": 4101,
        "area_city_name": "仙台市青葉区",
        "area_town_code": "41010015002",
        "area_town_name": "小松島二丁目",
        "area_lat": 38.282438,
        "area_lng": 140.889947
    },
    {
        "area_city_code": 4101,
        "area_city_name": "仙台市青葉区",
        "area_town_code": "41010015003",
        "area_town_name": "小松島三丁目",
        "area_lat": 38.282955,
        "area_lng": 140.885022
    },
    {
        "area_city_code": 4101,
        "area_city_name": "仙台市青葉区",
        "area_town_code": "41010015004",
        "area_town_name": "小松島四丁目",
        "area_lat": 38.286741,
        "area_lng": 140.887189
    },
    {
        "area_city_code": 4101,
        "area_city_name": "仙台市青葉区",
        "area_town_code": "41010016001",
        "area_town_name": "宮町一丁目",
        "area_lat": 38.267044,
        "area_lng": 140.884216
    },
    {
        "area_city_code": 4101,
        "area_city_name": "仙台市青葉区",
        "area_town_code": "41010016002",
        "area_town_name": "宮町二丁目",
        "area_lat": 38.270121,
        "area_lng": 140.883944
    },
    {
        "area_city_code": 4101,
        "area_city_name": "仙台市青葉区",
        "area_town_code": "41010016003",
        "area_town_name": "宮町三丁目",
        "area_lat": 38.272811,
        "area_lng": 140.883305
    },
    {
        "area_city_code": 4101,
        "area_city_name": "仙台市青葉区",
        "area_town_code": "41010016004",
        "area_town_name": "宮町四丁目",
        "area_lat": 38.275267,
        "area_lng": 140.882975
    },
    {
        "area_city_code": 4101,
        "area_city_name": "仙台市青葉区",
        "area_town_code": "41010016005",
        "area_town_name": "宮町五丁目",
        "area_lat": 38.277196,
        "area_lng": 140.884681
    },
    {
        "area_city_code": 4101,
        "area_city_name": "仙台市青葉区",
        "area_town_code": "41010017004",
        "area_town_name": "小田原四丁目",
        "area_lat": 38.268229,
        "area_lng": 140.890355
    },
    {
        "area_city_code": 4101,
        "area_city_name": "仙台市青葉区",
        "area_town_code": "41010017005",
        "area_town_name": "小田原五丁目",
        "area_lat": 38.268042,
        "area_lng": 140.886935
    },
    {
        "area_city_code": 4101,
        "area_city_name": "仙台市青葉区",
        "area_town_code": "41010017006",
        "area_town_name": "小田原六丁目",
        "area_lat": 38.271782,
        "area_lng": 140.886691
    },
    {
        "area_city_code": 4101,
        "area_city_name": "仙台市青葉区",
        "area_town_code": "41010017007",
        "area_town_name": "小田原七丁目",
        "area_lat": 38.271294,
        "area_lng": 140.889386
    },
    {
        "area_city_code": 4101,
        "area_city_name": "仙台市青葉区",
        "area_town_code": "41010017008",
        "area_town_name": "小田原八丁目",
        "area_lat": 38.270719,
        "area_lng": 140.892504
    },
    {
        "area_city_code": 4101,
        "area_city_name": "仙台市青葉区",
        "area_town_code": "41010018001",
        "area_town_name": "花京院一丁目",
        "area_lat": 38.264514,
        "area_lng": 140.88214
    },
    {
        "area_city_code": 4101,
        "area_city_name": "仙台市青葉区",
        "area_town_code": "41010018002",
        "area_town_name": "花京院二丁目",
        "area_lat": 38.266876,
        "area_lng": 140.880931
    },
    {
        "area_city_code": 4101,
        "area_city_name": "仙台市青葉区",
        "area_town_code": "41010019000",
        "area_town_name": "北目町",
        "area_lat": 38.254352,
        "area_lng": 140.877087
    },
    {
        "area_city_code": 4101,
        "area_city_name": "仙台市青葉区",
        "area_town_code": "41010020001",
        "area_town_name": "台原一丁目",
        "area_lat": 38.282258,
        "area_lng": 140.874497
    },
    {
        "area_city_code": 4101,
        "area_city_name": "仙台市青葉区",
        "area_town_code": "41010020002",
        "area_town_name": "台原二丁目",
        "area_lat": 38.286551,
        "area_lng": 140.873028
    },
    {
        "area_city_code": 4101,
        "area_city_name": "仙台市青葉区",
        "area_town_code": "41010020003",
        "area_town_name": "台原三丁目",
        "area_lat": 38.28886,
        "area_lng": 140.875047
    },
    {
        "area_city_code": 4101,
        "area_city_name": "仙台市青葉区",
        "area_town_code": "41010020004",
        "area_town_name": "台原四丁目",
        "area_lat": 38.285094,
        "area_lng": 140.876653
    },
    {
        "area_city_code": 4101,
        "area_city_name": "仙台市青葉区",
        "area_town_code": "41010020005",
        "area_town_name": "台原五丁目",
        "area_lat": 38.284954,
        "area_lng": 140.880035
    },
    {
        "area_city_code": 4101,
        "area_city_name": "仙台市青葉区",
        "area_town_code": "41010020006",
        "area_town_name": "台原六丁目",
        "area_lat": 38.280632,
        "area_lng": 140.87947
    },
    {
        "area_city_code": 4101,
        "area_city_name": "仙台市青葉区",
        "area_town_code": "41010020007",
        "area_town_name": "台原七丁目",
        "area_lat": 38.283983,
        "area_lng": 140.882246
    },
    {
        "area_city_code": 4101,
        "area_city_name": "仙台市青葉区",
        "area_town_code": "41010021000",
        "area_town_name": "川内澱橋通",
        "area_lat": 38.265046,
        "area_lng": 140.857395
    },
    {
        "area_city_code": 4101,
        "area_city_name": "仙台市青葉区",
        "area_town_code": "41010022001",
        "area_town_name": "東勝山一丁目",
        "area_lat": 38.298264,
        "area_lng": 140.87223
    },
    {
        "area_city_code": 4101,
        "area_city_name": "仙台市青葉区",
        "area_town_code": "41010022002",
        "area_town_name": "東勝山二丁目",
        "area_lat": 38.294577,
        "area_lng": 140.863385
    },
    {
        "area_city_code": 4101,
        "area_city_name": "仙台市青葉区",
        "area_town_code": "41010022003",
        "area_town_name": "東勝山三丁目",
        "area_lat": 38.29865,
        "area_lng": 140.864598
    },
    {
        "area_city_code": 4101,
        "area_city_name": "仙台市青葉区",
        "area_town_code": "41010023001",
        "area_town_name": "愛子中央一丁目",
        "area_lat": 38.272525,
        "area_lng": 140.76186
    },
    {
        "area_city_code": 4101,
        "area_city_name": "仙台市青葉区",
        "area_town_code": "41010023002",
        "area_town_name": "愛子中央二丁目",
        "area_lat": 38.276314,
        "area_lng": 140.762894
    },
    {
        "area_city_code": 4101,
        "area_city_name": "仙台市青葉区",
        "area_town_code": "41010023003",
        "area_town_name": "愛子中央三丁目",
        "area_lat": 38.275626,
        "area_lng": 140.758743
    },
    {
        "area_city_code": 4101,
        "area_city_name": "仙台市青葉区",
        "area_town_code": "41010023004",
        "area_town_name": "愛子中央四丁目",
        "area_lat": 38.275778,
        "area_lng": 140.752982
    },
    {
        "area_city_code": 4101,
        "area_city_name": "仙台市青葉区",
        "area_town_code": "41010023005",
        "area_town_name": "愛子中央五丁目",
        "area_lat": 38.273114,
        "area_lng": 140.756386
    },
    {
        "area_city_code": 4101,
        "area_city_name": "仙台市青葉区",
        "area_town_code": "41010023006",
        "area_town_name": "愛子中央六丁目",
        "area_lat": 38.271861,
        "area_lng": 140.759145
    },
    {
        "area_city_code": 4101,
        "area_city_name": "仙台市青葉区",
        "area_town_code": "41010024001",
        "area_town_name": "中山台一丁目",
        "area_lat": 38.298829,
        "area_lng": 140.813233
    },
    {
        "area_city_code": 4101,
        "area_city_name": "仙台市青葉区",
        "area_town_code": "41010024002",
        "area_town_name": "中山台二丁目",
        "area_lat": 38.301709,
        "area_lng": 140.815551
    },
    {
        "area_city_code": 4101,
        "area_city_name": "仙台市青葉区",
        "area_town_code": "41010024003",
        "area_town_name": "中山台三丁目",
        "area_lat": 38.301794,
        "area_lng": 140.81171
    },
    {
        "area_city_code": 4101,
        "area_city_name": "仙台市青葉区",
        "area_town_code": "41010024004",
        "area_town_name": "中山台四丁目",
        "area_lat": 38.297452,
        "area_lng": 140.809144
    },
    {
        "area_city_code": 4101,
        "area_city_name": "仙台市青葉区",
        "area_town_code": "41010025001",
        "area_town_name": "南吉成一丁目",
        "area_lat": 38.286871,
        "area_lng": 140.821062
    },
    {
        "area_city_code": 4101,
        "area_city_name": "仙台市青葉区",
        "area_town_code": "41010025002",
        "area_town_name": "南吉成二丁目",
        "area_lat": 38.284675,
        "area_lng": 140.820024
    },
    {
        "area_city_code": 4101,
        "area_city_name": "仙台市青葉区",
        "area_town_code": "41010025003",
        "area_town_name": "南吉成三丁目",
        "area_lat": 38.287049,
        "area_lng": 140.817361
    },
    {
        "area_city_code": 4101,
        "area_city_name": "仙台市青葉区",
        "area_town_code": "41010025004",
        "area_town_name": "南吉成四丁目",
        "area_lat": 38.288538,
        "area_lng": 140.814926
    },
    {
        "area_city_code": 4101,
        "area_city_name": "仙台市青葉区",
        "area_town_code": "41010025005",
        "area_town_name": "南吉成五丁目",
        "area_lat": 38.290276,
        "area_lng": 140.81235
    },
    {
        "area_city_code": 4101,
        "area_city_name": "仙台市青葉区",
        "area_town_code": "41010025006",
        "area_town_name": "南吉成六丁目",
        "area_lat": 38.285046,
        "area_lng": 140.81283
    },
    {
        "area_city_code": 4101,
        "area_city_name": "仙台市青葉区",
        "area_town_code": "41010025007",
        "area_town_name": "南吉成七丁目",
        "area_lat": 38.282717,
        "area_lng": 140.816534
    },
    {
        "area_city_code": 4101,
        "area_city_name": "仙台市青葉区",
        "area_town_code": "41010026000",
        "area_town_name": "春日町",
        "area_lat": 38.266406,
        "area_lng": 140.864705
    },
    {
        "area_city_code": 4101,
        "area_city_name": "仙台市青葉区",
        "area_town_code": "41010027001",
        "area_town_name": "通町一丁目",
        "area_lat": 38.27757,
        "area_lng": 140.865283
    },
    {
        "area_city_code": 4101,
        "area_city_name": "仙台市青葉区",
        "area_town_code": "41010027002",
        "area_town_name": "通町二丁目",
        "area_lat": 38.280226,
        "area_lng": 140.865647
    },
    {
        "area_city_code": 4101,
        "area_city_name": "仙台市青葉区",
        "area_town_code": "41010028001",
        "area_town_name": "川平一丁目",
        "area_lat": 38.295174,
        "area_lng": 140.847624
    },
    {
        "area_city_code": 4101,
        "area_city_name": "仙台市青葉区",
        "area_town_code": "41010028002",
        "area_town_name": "川平二丁目",
        "area_lat": 38.299621,
        "area_lng": 140.843185
    },
    {
        "area_city_code": 4101,
        "area_city_name": "仙台市青葉区",
        "area_town_code": "41010028003",
        "area_town_name": "川平三丁目",
        "area_lat": 38.30555,
        "area_lng": 140.839364
    },
    {
        "area_city_code": 4101,
        "area_city_name": "仙台市青葉区",
        "area_town_code": "41010028004",
        "area_town_name": "川平四丁目",
        "area_lat": 38.303462,
        "area_lng": 140.835811
    },
    {
        "area_city_code": 4101,
        "area_city_name": "仙台市青葉区",
        "area_town_code": "41010028005",
        "area_town_name": "川平五丁目",
        "area_lat": 38.306626,
        "area_lng": 140.832613
    },
    {
        "area_city_code": 4101,
        "area_city_name": "仙台市青葉区",
        "area_town_code": "41010029001",
        "area_town_name": "米ケ袋一丁目",
        "area_lat": 38.252379,
        "area_lng": 140.870799
    },
    {
        "area_city_code": 4101,
        "area_city_name": "仙台市青葉区",
        "area_town_code": "41010029002",
        "area_town_name": "米ケ袋二丁目",
        "area_lat": 38.250254,
        "area_lng": 140.872897
    },
    {
        "area_city_code": 4101,
        "area_city_name": "仙台市青葉区",
        "area_town_code": "41010029003",
        "area_town_name": "米ケ袋三丁目",
        "area_lat": 38.248859,
        "area_lng": 140.870214
    },
    {
        "area_city_code": 4101,
        "area_city_name": "仙台市青葉区",
        "area_town_code": "41010030000",
        "area_town_name": "川内川前丁",
        "area_lat": 38.264225,
        "area_lng": 140.861052
    },
    {
        "area_city_code": 4101,
        "area_city_name": "仙台市青葉区",
        "area_town_code": "41010031001",
        "area_town_name": "荒巻本沢一丁目",
        "area_lat": 38.288586,
        "area_lng": 140.848758
    },
    {
        "area_city_code": 4101,
        "area_city_name": "仙台市青葉区",
        "area_town_code": "41010031002",
        "area_town_name": "荒巻本沢二丁目",
        "area_lat": 38.290058,
        "area_lng": 140.85297
    },
    {
        "area_city_code": 4101,
        "area_city_name": "仙台市青葉区",
        "area_town_code": "41010031003",
        "area_town_name": "荒巻本沢三丁目",
        "area_lat": 38.291283,
        "area_lng": 140.854981
    },
    {
        "area_city_code": 4101,
        "area_city_name": "仙台市青葉区",
        "area_town_code": "41010032001",
        "area_town_name": "折立一丁目",
        "area_lat": 38.264807,
        "area_lng": 140.811667
    },
    {
        "area_city_code": 4101,
        "area_city_name": "仙台市青葉区",
        "area_town_code": "41010032002",
        "area_town_name": "折立二丁目",
        "area_lat": 38.267741,
        "area_lng": 140.806135
    },
    {
        "area_city_code": 4101,
        "area_city_name": "仙台市青葉区",
        "area_town_code": "41010032003",
        "area_town_name": "折立三丁目",
        "area_lat": 38.265261,
        "area_lng": 140.806362
    },
    {
        "area_city_code": 4101,
        "area_city_name": "仙台市青葉区",
        "area_town_code": "41010032004",
        "area_town_name": "折立四丁目",
        "area_lat": 38.261765,
        "area_lng": 140.807294
    },
    {
        "area_city_code": 4101,
        "area_city_name": "仙台市青葉区",
        "area_town_code": "41010032005",
        "area_town_name": "折立五丁目",
        "area_lat": 38.260253,
        "area_lng": 140.805391
    },
    {
        "area_city_code": 4101,
        "area_city_name": "仙台市青葉区",
        "area_town_code": "41010032006",
        "area_town_name": "折立六丁目",
        "area_lat": 38.261595,
        "area_lng": 140.802303
    },
    {
        "area_city_code": 4101,
        "area_city_name": "仙台市青葉区",
        "area_town_code": "41010033000",
        "area_town_name": "中山台西",
        "area_lat": 38.303958,
        "area_lng": 140.811106
    },
    {
        "area_city_code": 4101,
        "area_city_name": "仙台市青葉区",
        "area_town_code": "41010034001",
        "area_town_name": "一番町一丁目",
        "area_lat": 38.256832,
        "area_lng": 140.873123
    },
    {
        "area_city_code": 4101,
        "area_city_name": "仙台市青葉区",
        "area_town_code": "41010034002",
        "area_town_name": "一番町二丁目",
        "area_lat": 38.258723,
        "area_lng": 140.872272
    },
    {
        "area_city_code": 4101,
        "area_city_name": "仙台市青葉区",
        "area_town_code": "41010034003",
        "area_town_name": "一番町三丁目",
        "area_lat": 38.261112,
        "area_lng": 140.872777
    },
    {
        "area_city_code": 4101,
        "area_city_name": "仙台市青葉区",
        "area_town_code": "41010034004",
        "area_town_name": "一番町四丁目",
        "area_lat": 38.264221,
        "area_lng": 140.871389
    },
    {
        "area_city_code": 4101,
        "area_city_name": "仙台市青葉区",
        "area_town_code": "41010035001",
        "area_town_name": "中央一丁目",
        "area_lat": 38.25926,
        "area_lng": 140.882032
    },
    {
        "area_city_code": 4101,
        "area_city_name": "仙台市青葉区",
        "area_town_code": "41010035002",
        "area_town_name": "中央二丁目",
        "area_lat": 38.261586,
        "area_lng": 140.876535
    },
    {
        "area_city_code": 4101,
        "area_city_name": "仙台市青葉区",
        "area_town_code": "41010035003",
        "area_town_name": "中央三丁目",
        "area_lat": 38.259482,
        "area_lng": 140.877777
    },
    {
        "area_city_code": 4101,
        "area_city_name": "仙台市青葉区",
        "area_town_code": "41010035004",
        "area_town_name": "中央四丁目",
        "area_lat": 38.257384,
        "area_lng": 140.87901
    },
    {
        "area_city_code": 4101,
        "area_city_name": "仙台市青葉区",
        "area_town_code": "41010036000",
        "area_town_name": "あけぼの町",
        "area_lat": 38.288158,
        "area_lng": 140.864318
    },
    {
        "area_city_code": 4101,
        "area_city_name": "仙台市青葉区",
        "area_town_code": "41010037001",
        "area_town_name": "錦町一丁目",
        "area_lat": 38.268802,
        "area_lng": 140.876977
    },
    {
        "area_city_code": 4101,
        "area_city_name": "仙台市青葉区",
        "area_town_code": "41010037002",
        "area_town_name": "錦町二丁目",
        "area_lat": 38.269587,
        "area_lng": 140.880795
    },
    {
        "area_city_code": 4101,
        "area_city_name": "仙台市青葉区",
        "area_town_code": "41010038000",
        "area_town_name": "梅田町",
        "area_lat": 38.277923,
        "area_lng": 140.880593
    },
    {
        "area_city_code": 4101,
        "area_city_name": "仙台市青葉区",
        "area_town_code": "41010039000",
        "area_town_name": "川内亀岡町",
        "area_lat": 38.260741,
        "area_lng": 140.846342
    },
    {
        "area_city_code": 4101,
        "area_city_name": "仙台市青葉区",
        "area_town_code": "41010040001",
        "area_town_name": "北根一丁目",
        "area_lat": 38.293287,
        "area_lng": 140.874451
    },
    {
        "area_city_code": 4101,
        "area_city_name": "仙台市青葉区",
        "area_town_code": "41010040002",
        "area_town_name": "北根二丁目",
        "area_lat": 38.296749,
        "area_lng": 140.876106
    },
    {
        "area_city_code": 4101,
        "area_city_name": "仙台市青葉区",
        "area_town_code": "41010040003",
        "area_town_name": "北根三丁目",
        "area_lat": 38.300225,
        "area_lng": 140.87777
    },
    {
        "area_city_code": 4101,
        "area_city_name": "仙台市青葉区",
        "area_town_code": "41010040004",
        "area_town_name": "北根四丁目",
        "area_lat": 38.299387,
        "area_lng": 140.871285
    },
    {
        "area_city_code": 4101,
        "area_city_name": "仙台市青葉区",
        "area_town_code": "41010041001",
        "area_town_name": "双葉ケ丘一丁目",
        "area_lat": 38.303638,
        "area_lng": 140.875779
    },
    {
        "area_city_code": 4101,
        "area_city_name": "仙台市青葉区",
        "area_town_code": "41010041002",
        "area_town_name": "双葉ケ丘二丁目",
        "area_lat": 38.300874,
        "area_lng": 140.871467
    },
    {
        "area_city_code": 4101,
        "area_city_name": "仙台市青葉区",
        "area_town_code": "41010042000",
        "area_town_name": "荒巻中央",
        "area_lat": 38.29076,
        "area_lng": 140.858587
    },
    {
        "area_city_code": 4101,
        "area_city_name": "仙台市青葉区",
        "area_town_code": "41010043001",
        "area_town_name": "上杉一丁目",
        "area_lat": 38.270908,
        "area_lng": 140.871884
    },
    {
        "area_city_code": 4101,
        "area_city_name": "仙台市青葉区",
        "area_town_code": "41010043002",
        "area_town_name": "上杉二丁目",
        "area_lat": 38.273854,
        "area_lng": 140.871178
    },
    {
        "area_city_code": 4101,
        "area_city_name": "仙台市青葉区",
        "area_town_code": "41010043003",
        "area_town_name": "上杉三丁目",
        "area_lat": 38.271767,
        "area_lng": 140.87639
    },
    {
        "area_city_code": 4101,
        "area_city_name": "仙台市青葉区",
        "area_town_code": "41010043004",
        "area_town_name": "上杉四丁目",
        "area_lat": 38.272474,
        "area_lng": 140.880091
    },
    {
        "area_city_code": 4101,
        "area_city_name": "仙台市青葉区",
        "area_town_code": "41010043005",
        "area_town_name": "上杉五丁目",
        "area_lat": 38.274635,
        "area_lng": 140.876595
    },
    {
        "area_city_code": 4101,
        "area_city_name": "仙台市青葉区",
        "area_town_code": "41010043006",
        "area_town_name": "上杉六丁目",
        "area_lat": 38.278003,
        "area_lng": 140.875914
    },
    {
        "area_city_code": 4101,
        "area_city_name": "仙台市青葉区",
        "area_town_code": "41010044001",
        "area_town_name": "片平一丁目",
        "area_lat": 38.257246,
        "area_lng": 140.867312
    },
    {
        "area_city_code": 4101,
        "area_city_name": "仙台市青葉区",
        "area_town_code": "41010044002",
        "area_town_name": "片平二丁目",
        "area_lat": 38.253115,
        "area_lng": 140.874344
    },
    {
        "area_city_code": 4101,
        "area_city_name": "仙台市青葉区",
        "area_town_code": "41010045000",
        "area_town_name": "支倉町",
        "area_lat": 38.268243,
        "area_lng": 140.861423
    },
    {
        "area_city_code": 4101,
        "area_city_name": "仙台市青葉区",
        "area_town_code": "41010046001",
        "area_town_name": "国見ケ丘一丁目",
        "area_lat": 38.293988,
        "area_lng": 140.829629
    },
    {
        "area_city_code": 4101,
        "area_city_name": "仙台市青葉区",
        "area_town_code": "41010046002",
        "area_town_name": "国見ケ丘二丁目",
        "area_lat": 38.292163,
        "area_lng": 140.8273
    },
    {
        "area_city_code": 4101,
        "area_city_name": "仙台市青葉区",
        "area_town_code": "41010046003",
        "area_town_name": "国見ケ丘三丁目",
        "area_lat": 38.288193,
        "area_lng": 140.829837
    },
    {
        "area_city_code": 4101,
        "area_city_name": "仙台市青葉区",
        "area_town_code": "41010046004",
        "area_town_name": "国見ケ丘四丁目",
        "area_lat": 38.287398,
        "area_lng": 140.826057
    },
    {
        "area_city_code": 4101,
        "area_city_name": "仙台市青葉区",
        "area_town_code": "41010046005",
        "area_town_name": "国見ケ丘五丁目",
        "area_lat": 38.284136,
        "area_lng": 140.829028
    },
    {
        "area_city_code": 4101,
        "area_city_name": "仙台市青葉区",
        "area_town_code": "41010046006",
        "area_town_name": "国見ケ丘六丁目",
        "area_lat": 38.285498,
        "area_lng": 140.834519
    },
    {
        "area_city_code": 4101,
        "area_city_name": "仙台市青葉区",
        "area_town_code": "41010046007",
        "area_town_name": "国見ケ丘七丁目",
        "area_lat": 38.289982,
        "area_lng": 140.834903
    },
    {
        "area_city_code": 4101,
        "area_city_name": "仙台市青葉区",
        "area_town_code": "41010047000",
        "area_town_name": "藤松",
        "area_lat": 38.297161,
        "area_lng": 140.873473
    },
    {
        "area_city_code": 4101,
        "area_city_name": "仙台市青葉区",
        "area_town_code": "41010048001",
        "area_town_name": "栗生一丁目",
        "area_lat": 38.260969,
        "area_lng": 140.795574
    },
    {
        "area_city_code": 4101,
        "area_city_name": "仙台市青葉区",
        "area_town_code": "41010048002",
        "area_town_name": "栗生二丁目",
        "area_lat": 38.267501,
        "area_lng": 140.79694
    },
    {
        "area_city_code": 4101,
        "area_city_name": "仙台市青葉区",
        "area_town_code": "41010048003",
        "area_town_name": "栗生三丁目",
        "area_lat": 38.267373,
        "area_lng": 140.794588
    },
    {
        "area_city_code": 4101,
        "area_city_name": "仙台市青葉区",
        "area_town_code": "41010048004",
        "area_town_name": "栗生四丁目",
        "area_lat": 38.267532,
        "area_lng": 140.791876
    },
    {
        "area_city_code": 4101,
        "area_city_name": "仙台市青葉区",
        "area_town_code": "41010048005",
        "area_town_name": "栗生五丁目",
        "area_lat": 38.267376,
        "area_lng": 140.788751
    },
    {
        "area_city_code": 4101,
        "area_city_name": "仙台市青葉区",
        "area_town_code": "41010048006",
        "area_town_name": "栗生六丁目",
        "area_lat": 38.267735,
        "area_lng": 140.784247
    },
    {
        "area_city_code": 4101,
        "area_city_name": "仙台市青葉区",
        "area_town_code": "41010048007",
        "area_town_name": "栗生七丁目",
        "area_lat": 38.268325,
        "area_lng": 140.778802
    },
    {
        "area_city_code": 4101,
        "area_city_name": "仙台市青葉区",
        "area_town_code": "41010049000",
        "area_town_name": "福沢町",
        "area_lat": 38.27421,
        "area_lng": 140.887282
    },
    {
        "area_city_code": 4101,
        "area_city_name": "仙台市青葉区",
        "area_town_code": "41010050001",
        "area_town_name": "五橋一丁目",
        "area_lat": 38.254768,
        "area_lng": 140.880031
    },
    {
        "area_city_code": 4101,
        "area_city_name": "仙台市青葉区",
        "area_town_code": "41010050002",
        "area_town_name": "五橋二丁目",
        "area_lat": 38.251316,
        "area_lng": 140.879517
    },
    {
        "area_city_code": 4101,
        "area_city_name": "仙台市青葉区",
        "area_town_code": "41010051001",
        "area_town_name": "中江一丁目",
        "area_lat": 38.274755,
        "area_lng": 140.891044
    },
    {
        "area_city_code": 4101,
        "area_city_name": "仙台市青葉区",
        "area_town_code": "41010051002",
        "area_town_name": "中江二丁目",
        "area_lat": 38.271847,
        "area_lng": 140.894877
    },
    {
        "area_city_code": 4101,
        "area_city_name": "仙台市青葉区",
        "area_town_code": "41010052000",
        "area_town_name": "大手町",
        "area_lat": 38.256608,
        "area_lng": 140.861528
    },
    {
        "area_city_code": 4101,
        "area_city_name": "仙台市青葉区",
        "area_town_code": "41010053001",
        "area_town_name": "中山一丁目",
        "area_lat": 38.290513,
        "area_lng": 140.846837
    },
    {
        "area_city_code": 4101,
        "area_city_name": "仙台市青葉区",
        "area_town_code": "41010053002",
        "area_town_name": "中山二丁目",
        "area_lat": 38.288647,
        "area_lng": 140.842629
    },
    {
        "area_city_code": 4101,
        "area_city_name": "仙台市青葉区",
        "area_town_code": "41010053003",
        "area_town_name": "中山三丁目",
        "area_lat": 38.291689,
        "area_lng": 140.836492
    },
    {
        "area_city_code": 4101,
        "area_city_name": "仙台市青葉区",
        "area_town_code": "41010053004",
        "area_town_name": "中山四丁目",
        "area_lat": 38.292066,
        "area_lng": 140.839872
    },
    {
        "area_city_code": 4101,
        "area_city_name": "仙台市青葉区",
        "area_town_code": "41010053005",
        "area_town_name": "中山五丁目",
        "area_lat": 38.293087,
        "area_lng": 140.843025
    },
    {
        "area_city_code": 4101,
        "area_city_name": "仙台市青葉区",
        "area_town_code": "41010053006",
        "area_town_name": "中山六丁目",
        "area_lat": 38.295844,
        "area_lng": 140.840301
    },
    {
        "area_city_code": 4101,
        "area_city_name": "仙台市青葉区",
        "area_town_code": "41010053007",
        "area_town_name": "中山七丁目",
        "area_lat": 38.296068,
        "area_lng": 140.835249
    },
    {
        "area_city_code": 4101,
        "area_city_name": "仙台市青葉区",
        "area_town_code": "41010053008",
        "area_town_name": "中山八丁目",
        "area_lat": 38.29702,
        "area_lng": 140.831431
    },
    {
        "area_city_code": 4101,
        "area_city_name": "仙台市青葉区",
        "area_town_code": "41010053009",
        "area_town_name": "中山九丁目",
        "area_lat": 38.301022,
        "area_lng": 140.83261
    },
    {
        "area_city_code": 4101,
        "area_city_name": "仙台市青葉区",
        "area_town_code": "41010054000",
        "area_town_name": "青葉山",
        "area_lat": 38.260134,
        "area_lng": 140.856713
    },
    {
        "area_city_code": 4101,
        "area_city_name": "仙台市青葉区",
        "area_town_code": "41010055001",
        "area_town_name": "角五郎一丁目",
        "area_lat": 38.265871,
        "area_lng": 140.853112
    },
    {
        "area_city_code": 4101,
        "area_city_name": "仙台市青葉区",
        "area_town_code": "41010055002",
        "area_town_name": "角五郎二丁目",
        "area_lat": 38.265872,
        "area_lng": 140.847507
    },
    {
        "area_city_code": 4101,
        "area_city_name": "仙台市青葉区",
        "area_town_code": "41010056001",
        "area_town_name": "堤町一丁目",
        "area_lat": 38.282989,
        "area_lng": 140.870117
    },
    {
        "area_city_code": 4101,
        "area_city_name": "仙台市青葉区",
        "area_town_code": "41010056002",
        "area_town_name": "堤町二丁目",
        "area_lat": 38.286106,
        "area_lng": 140.867628
    },
    {
        "area_city_code": 4101,
        "area_city_name": "仙台市青葉区",
        "area_town_code": "41010056003",
        "area_town_name": "堤町三丁目",
        "area_lat": 38.288475,
        "area_lng": 140.869593
    },
    {
        "area_city_code": 4101,
        "area_city_name": "仙台市青葉区",
        "area_town_code": "41010057000",
        "area_town_name": "昭和町",
        "area_lat": 38.28072,
        "area_lng": 140.869957
    },
    {
        "area_city_code": 4101,
        "area_city_name": "仙台市青葉区",
        "area_town_code": "41010058001",
        "area_town_name": "吉成一丁目",
        "area_lat": 38.290104,
        "area_lng": 140.823504
    },
    {
        "area_city_code": 4101,
        "area_city_name": "仙台市青葉区",
        "area_town_code": "41010058002",
        "area_town_name": "吉成二丁目",
        "area_lat": 38.292981,
        "area_lng": 140.817377
    },
    {
        "area_city_code": 4101,
        "area_city_name": "仙台市青葉区",
        "area_town_code": "41010058003",
        "area_town_name": "吉成三丁目",
        "area_lat": 38.29083,
        "area_lng": 140.818125
    },
    {
        "area_city_code": 4101,
        "area_city_name": "仙台市青葉区",
        "area_town_code": "41010059001",
        "area_town_name": "みやぎ台一丁目",
        "area_lat": 38.305324,
        "area_lng": 140.774418
    },
    {
        "area_city_code": 4101,
        "area_city_name": "仙台市青葉区",
        "area_town_code": "41010059002",
        "area_town_name": "みやぎ台二丁目",
        "area_lat": 38.307578,
        "area_lng": 140.772508
    },
    {
        "area_city_code": 4101,
        "area_city_name": "仙台市青葉区",
        "area_town_code": "41010059003",
        "area_town_name": "みやぎ台三丁目",
        "area_lat": 38.310673,
        "area_lng": 140.769119
    },
    {
        "area_city_code": 4101,
        "area_city_name": "仙台市青葉区",
        "area_town_code": "41010059004",
        "area_town_name": "みやぎ台四丁目",
        "area_lat": 38.311256,
        "area_lng": 140.765232
    },
    {
        "area_city_code": 4101,
        "area_city_name": "仙台市青葉区",
        "area_town_code": "41010059005",
        "area_town_name": "みやぎ台五丁目",
        "area_lat": 38.312815,
        "area_lng": 140.762939
    },
    {
        "area_city_code": 4101,
        "area_city_name": "仙台市青葉区",
        "area_town_code": "41010060001",
        "area_town_name": "木町通一丁目",
        "area_lat": 38.269372,
        "area_lng": 140.863819
    },
    {
        "area_city_code": 4101,
        "area_city_name": "仙台市青葉区",
        "area_town_code": "41010060002",
        "area_town_name": "木町通二丁目",
        "area_lat": 38.272964,
        "area_lng": 140.865503
    },
    {
        "area_city_code": 4101,
        "area_city_name": "仙台市青葉区",
        "area_town_code": "41010061001",
        "area_town_name": "本町一丁目",
        "area_lat": 38.265434,
        "area_lng": 140.87821
    },
    {
        "area_city_code": 4101,
        "area_city_name": "仙台市青葉区",
        "area_town_code": "41010061002",
        "area_town_name": "本町二丁目",
        "area_lat": 38.264919,
        "area_lng": 140.874595
    },
    {
        "area_city_code": 4101,
        "area_city_name": "仙台市青葉区",
        "area_town_code": "41010061003",
        "area_town_name": "本町三丁目",
        "area_lat": 38.267944,
        "area_lng": 140.872751
    },
    {
        "area_city_code": 4101,
        "area_city_name": "仙台市青葉区",
        "area_town_code": "41010062001",
        "area_town_name": "錦ケ丘一丁目",
        "area_lat": 38.258108,
        "area_lng": 140.766548
    },
    {
        "area_city_code": 4101,
        "area_city_name": "仙台市青葉区",
        "area_town_code": "41010062002",
        "area_town_name": "錦ケ丘二丁目",
        "area_lat": 38.25538,
        "area_lng": 140.766913
    },
    {
        "area_city_code": 4101,
        "area_city_name": "仙台市青葉区",
        "area_town_code": "41010062003",
        "area_town_name": "錦ケ丘三丁目",
        "area_lat": 38.252446,
        "area_lng": 140.766981
    },
    {
        "area_city_code": 4101,
        "area_city_name": "仙台市青葉区",
        "area_town_code": "41010062004",
        "area_town_name": "錦ケ丘四丁目",
        "area_lat": 38.252262,
        "area_lng": 140.771996
    },
    {
        "area_city_code": 4101,
        "area_city_name": "仙台市青葉区",
        "area_town_code": "41010062005",
        "area_town_name": "錦ケ丘五丁目",
        "area_lat": 38.253116,
        "area_lng": 140.758147
    },
    {
        "area_city_code": 4101,
        "area_city_name": "仙台市青葉区",
        "area_town_code": "41010062006",
        "area_town_name": "錦ケ丘六丁目",
        "area_lat": 38.252405,
        "area_lng": 140.761659
    },
    {
        "area_city_code": 4101,
        "area_city_name": "仙台市青葉区",
        "area_town_code": "41010062007",
        "area_town_name": "錦ケ丘七丁目",
        "area_lat": 38.256385,
        "area_lng": 140.761396
    },
    {
        "area_city_code": 4101,
        "area_city_name": "仙台市青葉区",
        "area_town_code": "41010062008",
        "area_town_name": "錦ケ丘八丁目",
        "area_lat": 38.259087,
        "area_lng": 140.758272
    },
    {
        "area_city_code": 4101,
        "area_city_name": "仙台市青葉区",
        "area_town_code": "41010062009",
        "area_town_name": "錦ケ丘九丁目",
        "area_lat": 38.260533,
        "area_lng": 140.761752
    },
    {
        "area_city_code": 4101,
        "area_city_name": "仙台市青葉区",
        "area_town_code": "41010063000",
        "area_town_name": "千代田町",
        "area_lat": 38.282231,
        "area_lng": 140.847682
    },
    {
        "area_city_code": 4101,
        "area_city_name": "仙台市青葉区",
        "area_town_code": "41010064001",
        "area_town_name": "水の森一丁目",
        "area_lat": 38.29118,
        "area_lng": 140.864052
    },
    {
        "area_city_code": 4101,
        "area_city_name": "仙台市青葉区",
        "area_town_code": "41010064002",
        "area_town_name": "水の森二丁目",
        "area_lat": 38.292541,
        "area_lng": 140.86077
    },
    {
        "area_city_code": 4101,
        "area_city_name": "仙台市青葉区",
        "area_town_code": "41010064003",
        "area_town_name": "水の森三丁目",
        "area_lat": 38.295847,
        "area_lng": 140.856714
    },
    {
        "area_city_code": 4101,
        "area_city_name": "仙台市青葉区",
        "area_town_code": "41010064004",
        "area_town_name": "水の森四丁目",
        "area_lat": 38.301745,
        "area_lng": 140.860121
    },
    {
        "area_city_code": 4101,
        "area_city_name": "仙台市青葉区",
        "area_town_code": "41010065001",
        "area_town_name": "桜ケ丘一丁目",
        "area_lat": 38.297244,
        "area_lng": 140.848066
    },
    {
        "area_city_code": 4101,
        "area_city_name": "仙台市青葉区",
        "area_town_code": "41010065002",
        "area_town_name": "桜ケ丘二丁目",
        "area_lat": 38.297389,
        "area_lng": 140.85273
    },
    {
        "area_city_code": 4101,
        "area_city_name": "仙台市青葉区",
        "area_town_code": "41010065003",
        "area_town_name": "桜ケ丘三丁目",
        "area_lat": 38.300664,
        "area_lng": 140.855103
    },
    {
        "area_city_code": 4101,
        "area_city_name": "仙台市青葉区",
        "area_town_code": "41010065004",
        "area_town_name": "桜ケ丘四丁目",
        "area_lat": 38.301561,
        "area_lng": 140.851968
    },
    {
        "area_city_code": 4101,
        "area_city_name": "仙台市青葉区",
        "area_town_code": "41010065005",
        "area_town_name": "桜ケ丘五丁目",
        "area_lat": 38.299909,
        "area_lng": 140.847467
    },
    {
        "area_city_code": 4101,
        "area_city_name": "仙台市青葉区",
        "area_town_code": "41010065006",
        "area_town_name": "桜ケ丘六丁目",
        "area_lat": 38.303282,
        "area_lng": 140.84631
    },
    {
        "area_city_code": 4101,
        "area_city_name": "仙台市青葉区",
        "area_town_code": "41010065007",
        "area_town_name": "桜ケ丘七丁目",
        "area_lat": 38.307573,
        "area_lng": 140.846901
    },
    {
        "area_city_code": 4101,
        "area_city_name": "仙台市青葉区",
        "area_town_code": "41010065008",
        "area_town_name": "桜ケ丘八丁目",
        "area_lat": 38.3055,
        "area_lng": 140.850359
    },
    {
        "area_city_code": 4101,
        "area_city_name": "仙台市青葉区",
        "area_town_code": "41010065009",
        "area_town_name": "桜ケ丘九丁目",
        "area_lat": 38.306979,
        "area_lng": 140.853777
    },
    {
        "area_city_code": 4101,
        "area_city_name": "仙台市青葉区",
        "area_town_code": "41010066000",
        "area_town_name": "向田",
        "area_lat": 38.280041,
        "area_lng": 140.792732
    },
    {
        "area_city_code": 4101,
        "area_city_name": "仙台市青葉区",
        "area_town_code": "41010067001",
        "area_town_name": "国見一丁目",
        "area_lat": 38.27904,
        "area_lng": 140.846343
    },
    {
        "area_city_code": 4101,
        "area_city_name": "仙台市青葉区",
        "area_town_code": "41010067002",
        "area_town_name": "国見二丁目",
        "area_lat": 38.275117,
        "area_lng": 140.845515
    },
    {
        "area_city_code": 4101,
        "area_city_name": "仙台市青葉区",
        "area_town_code": "41010067003",
        "area_town_name": "国見三丁目",
        "area_lat": 38.273362,
        "area_lng": 140.842525
    },
    {
        "area_city_code": 4101,
        "area_city_name": "仙台市青葉区",
        "area_town_code": "41010067004",
        "area_town_name": "国見四丁目",
        "area_lat": 38.277219,
        "area_lng": 140.841453
    },
    {
        "area_city_code": 4101,
        "area_city_name": "仙台市青葉区",
        "area_town_code": "41010067005",
        "area_town_name": "国見五丁目",
        "area_lat": 38.274692,
        "area_lng": 140.837299
    },
    {
        "area_city_code": 4101,
        "area_city_name": "仙台市青葉区",
        "area_town_code": "41010067006",
        "area_town_name": "国見六丁目",
        "area_lat": 38.278916,
        "area_lng": 140.832052
    },
    {
        "area_city_code": 4101,
        "area_city_name": "仙台市青葉区",
        "area_town_code": "41010068001",
        "area_town_name": "高野原一丁目",
        "area_lat": 38.28596,
        "area_lng": 140.771986
    },
    {
        "area_city_code": 4101,
        "area_city_name": "仙台市青葉区",
        "area_town_code": "41010068002",
        "area_town_name": "高野原二丁目",
        "area_lat": 38.289101,
        "area_lng": 140.768387
    },
    {
        "area_city_code": 4101,
        "area_city_name": "仙台市青葉区",
        "area_town_code": "41010068003",
        "area_town_name": "高野原三丁目",
        "area_lat": 38.28974,
        "area_lng": 140.760969
    },
    {
        "area_city_code": 4101,
        "area_city_name": "仙台市青葉区",
        "area_town_code": "41010068004",
        "area_town_name": "高野原四丁目",
        "area_lat": 38.289981,
        "area_lng": 140.755936
    },
    {
        "area_city_code": 4101,
        "area_city_name": "仙台市青葉区",
        "area_town_code": "41010069000",
        "area_town_name": "葉山町",
        "area_lat": 38.285024,
        "area_lng": 140.864642
    },
    {
        "area_city_code": 4101,
        "area_city_name": "仙台市青葉区",
        "area_town_code": "41010070001",
        "area_town_name": "高松一丁目",
        "area_lat": 38.277174,
        "area_lng": 140.89086
    },
    {
        "area_city_code": 4101,
        "area_city_name": "仙台市青葉区",
        "area_town_code": "41010070002",
        "area_town_name": "高松二丁目",
        "area_lat": 38.280094,
        "area_lng": 140.893523
    },
    {
        "area_city_code": 4101,
        "area_city_name": "仙台市青葉区",
        "area_town_code": "41010070003",
        "area_town_name": "高松三丁目",
        "area_lat": 38.282192,
        "area_lng": 140.894374
    },
    {
        "area_city_code": 4101,
        "area_city_name": "仙台市青葉区",
        "area_town_code": "41010071001",
        "area_town_name": "鷺ケ森一丁目",
        "area_lat": 38.292314,
        "area_lng": 140.869607
    },
    {
        "area_city_code": 4101,
        "area_city_name": "仙台市青葉区",
        "area_town_code": "41010071002",
        "area_town_name": "鷺ケ森二丁目",
        "area_lat": 38.296237,
        "area_lng": 140.869021
    },
    {
        "area_city_code": 4101,
        "area_city_name": "仙台市青葉区",
        "area_town_code": "41010072001",
        "area_town_name": "落合一丁目",
        "area_lat": 38.270886,
        "area_lng": 140.794164
    },
    {
        "area_city_code": 4101,
        "area_city_name": "仙台市青葉区",
        "area_town_code": "41010072002",
        "area_town_name": "落合二丁目",
        "area_lat": 38.272598,
        "area_lng": 140.793572
    },
    {
        "area_city_code": 4101,
        "area_city_name": "仙台市青葉区",
        "area_town_code": "41010072003",
        "area_town_name": "落合三丁目",
        "area_lat": 38.276059,
        "area_lng": 140.780599
    },
    {
        "area_city_code": 4101,
        "area_city_name": "仙台市青葉区",
        "area_town_code": "41010072004",
        "area_town_name": "落合四丁目",
        "area_lat": 38.274735,
        "area_lng": 140.785295
    },
    {
        "area_city_code": 4101,
        "area_city_name": "仙台市青葉区",
        "area_town_code": "41010072005",
        "area_town_name": "落合五丁目",
        "area_lat": 38.271562,
        "area_lng": 140.787746
    },
    {
        "area_city_code": 4101,
        "area_city_name": "仙台市青葉区",
        "area_town_code": "41010072006",
        "area_town_name": "落合六丁目",
        "area_lat": 38.270458,
        "area_lng": 140.783808
    },
    {
        "area_city_code": 4101,
        "area_city_name": "仙台市青葉区",
        "area_town_code": "41010073001",
        "area_town_name": "八幡一丁目",
        "area_lat": 38.268747,
        "area_lng": 140.853119
    },
    {
        "area_city_code": 4101,
        "area_city_name": "仙台市青葉区",
        "area_town_code": "41010073002",
        "area_town_name": "八幡二丁目",
        "area_lat": 38.272252,
        "area_lng": 140.851829
    },
    {
        "area_city_code": 4101,
        "area_city_name": "仙台市青葉区",
        "area_town_code": "41010073003",
        "area_town_name": "八幡三丁目",
        "area_lat": 38.268425,
        "area_lng": 140.847279
    },
    {
        "area_city_code": 4101,
        "area_city_name": "仙台市青葉区",
        "area_town_code": "41010073004",
        "area_town_name": "八幡四丁目",
        "area_lat": 38.27183,
        "area_lng": 140.84713
    },
    {
        "area_city_code": 4101,
        "area_city_name": "仙台市青葉区",
        "area_town_code": "41010073005",
        "area_town_name": "八幡五丁目",
        "area_lat": 38.270307,
        "area_lng": 140.841778
    },
    {
        "area_city_code": 4101,
        "area_city_name": "仙台市青葉区",
        "area_town_code": "41010073006",
        "area_town_name": "八幡六丁目",
        "area_lat": 38.26883,
        "area_lng": 140.833866
    },
    {
        "area_city_code": 4101,
        "area_city_name": "仙台市青葉区",
        "area_town_code": "41010073007",
        "area_town_name": "八幡七丁目",
        "area_lat": 38.267798,
        "area_lng": 140.825638
    },
    {
        "area_city_code": 4101,
        "area_city_name": "仙台市青葉区",
        "area_town_code": "41010074000",
        "area_town_name": "青葉町",
        "area_lat": 38.282909,
        "area_lng": 140.864572
    },
    {
        "area_city_code": 4101,
        "area_city_name": "仙台市青葉区",
        "area_town_code": "41010075001",
        "area_town_name": "北山一丁目",
        "area_lat": 38.282724,
        "area_lng": 140.859658
    },
    {
        "area_city_code": 4101,
        "area_city_name": "仙台市青葉区",
        "area_town_code": "41010075002",
        "area_town_name": "北山二丁目",
        "area_lat": 38.283205,
        "area_lng": 140.855383
    },
    {
        "area_city_code": 4101,
        "area_city_name": "仙台市青葉区",
        "area_town_code": "41010075003",
        "area_town_name": "北山三丁目",
        "area_lat": 38.282503,
        "area_lng": 140.851423
    },
    {
        "area_city_code": 4101,
        "area_city_name": "仙台市青葉区",
        "area_town_code": "41010076001",
        "area_town_name": "柏木一丁目",
        "area_lat": 38.275466,
        "area_lng": 140.863242
    },
    {
        "area_city_code": 4101,
        "area_city_name": "仙台市青葉区",
        "area_town_code": "41010076002",
        "area_town_name": "柏木二丁目",
        "area_lat": 38.273063,
        "area_lng": 140.854863
    },
    {
        "area_city_code": 4101,
        "area_city_name": "仙台市青葉区",
        "area_town_code": "41010076003",
        "area_town_name": "柏木三丁目",
        "area_lat": 38.276037,
        "area_lng": 140.855533
    },
    {
        "area_city_code": 4101,
        "area_city_name": "仙台市青葉区",
        "area_town_code": "41010077001",
        "area_town_name": "西花苑一丁目",
        "area_lat": 38.267053,
        "area_lng": 140.800358
    },
    {
        "area_city_code": 4101,
        "area_city_name": "仙台市青葉区",
        "area_town_code": "41010077002",
        "area_town_name": "西花苑二丁目",
        "area_lat": 38.262352,
        "area_lng": 140.799884
    },
    {
        "area_city_code": 4101,
        "area_city_name": "仙台市青葉区",
        "area_town_code": "41010078000",
        "area_town_name": "二日町",
        "area_lat": 38.270094,
        "area_lng": 140.867449
    },
    {
        "area_city_code": 4101,
        "area_city_name": "仙台市青葉区",
        "area_town_code": "41010079000",
        "area_town_name": "立町",
        "area_lat": 38.263029,
        "area_lng": 140.864467
    },
    {
        "area_city_code": 4101,
        "area_city_name": "仙台市青葉区",
        "area_town_code": "41010080001",
        "area_town_name": "赤坂一丁目",
        "area_lat": 38.292573,
        "area_lng": 140.75152
    },
    {
        "area_city_code": 4101,
        "area_city_name": "仙台市青葉区",
        "area_town_code": "41010080002",
        "area_town_name": "赤坂二丁目",
        "area_lat": 38.293149,
        "area_lng": 140.742747
    },
    {
        "area_city_code": 4101,
        "area_city_name": "仙台市青葉区",
        "area_town_code": "41010080003",
        "area_town_name": "赤坂三丁目",
        "area_lat": 38.291691,
        "area_lng": 140.745644
    },
    {
        "area_city_code": 4101,
        "area_city_name": "仙台市青葉区",
        "area_town_code": "41010081000",
        "area_town_name": "木町",
        "area_lat": 38.278277,
        "area_lng": 140.86152
    },
    {
        "area_city_code": 4101,
        "area_city_name": "仙台市青葉区",
        "area_town_code": "41010082001",
        "area_town_name": "土樋一丁目",
        "area_lat": 38.248632,
        "area_lng": 140.876909
    },
    {
        "area_city_code": 4101,
        "area_city_name": "仙台市青葉区",
        "area_town_code": "41010083000",
        "area_town_name": "子平町",
        "area_lat": 38.276395,
        "area_lng": 140.849481
    },
    {
        "area_city_code": 4101,
        "area_city_name": "仙台市青葉区",
        "area_town_code": "41010084000",
        "area_town_name": "三条町",
        "area_lat": 38.279991,
        "area_lng": 140.852879
    },
    {
        "area_city_code": 4101,
        "area_city_name": "仙台市青葉区",
        "area_town_code": "41010085000",
        "area_town_name": "ニッカ",
        "area_lat": 38.309684,
        "area_lng": 140.650243
    },
    {
        "area_city_code": 4101,
        "area_city_name": "仙台市青葉区",
        "area_town_code": "41010086000",
        "area_town_name": "北根黒松",
        "area_lat": 38.305139,
        "area_lng": 140.879772
    },
    {
        "area_city_code": 4101,
        "area_city_name": "仙台市青葉区",
        "area_town_code": "41010087000",
        "area_town_name": "小松島新堤",
        "area_lat": 38.28528,
        "area_lng": 140.894172
    },
    {
        "area_city_code": 4101,
        "area_city_name": "仙台市青葉区",
        "area_town_code": "41010088000",
        "area_town_name": "新坂町",
        "area_lat": 38.278913,
        "area_lng": 140.856256
    },
    {
        "area_city_code": 4101,
        "area_city_name": "仙台市青葉区",
        "area_town_code": "41010089000",
        "area_town_name": "滝道",
        "area_lat": 38.293688,
        "area_lng": 140.849805
    },
    {
        "area_city_code": 4101,
        "area_city_name": "仙台市青葉区",
        "area_town_code": "41010090000",
        "area_town_name": "広瀬町",
        "area_lat": 38.268316,
        "area_lng": 140.858048
    },
    {
        "area_city_code": 4101,
        "area_city_name": "仙台市青葉区",
        "area_town_code": "41010091000",
        "area_town_name": "荒巻神明町",
        "area_lat": 38.287388,
        "area_lng": 140.859515
    },
    {
        "area_city_code": 4101,
        "area_city_name": "仙台市青葉区",
        "area_town_code": "41010092001",
        "area_town_name": "旭ケ丘一丁目",
        "area_lat": 38.288328,
        "area_lng": 140.883157
    },
    {
        "area_city_code": 4101,
        "area_city_name": "仙台市青葉区",
        "area_town_code": "41010092002",
        "area_town_name": "旭ケ丘二丁目",
        "area_lat": 38.291787,
        "area_lng": 140.886357
    },
    {
        "area_city_code": 4101,
        "area_city_name": "仙台市青葉区",
        "area_town_code": "41010092003",
        "area_town_name": "旭ケ丘三丁目",
        "area_lat": 38.29557,
        "area_lng": 140.886606
    },
    {
        "area_city_code": 4101,
        "area_city_name": "仙台市青葉区",
        "area_town_code": "41010092004",
        "area_town_name": "旭ケ丘四丁目",
        "area_lat": 38.299679,
        "area_lng": 140.886382
    },
    {
        "area_city_code": 4101,
        "area_city_name": "仙台市青葉区",
        "area_town_code": "41010093000",
        "area_town_name": "桜ケ岡公園",
        "area_lat": 38.261049,
        "area_lng": 140.861426
    },
    {
        "area_city_code": 4101,
        "area_city_name": "仙台市青葉区",
        "area_town_code": "41010094000",
        "area_town_name": "星陵町",
        "area_lat": 38.272896,
        "area_lng": 140.859437
    },
    {
        "area_city_code": 4101,
        "area_city_name": "仙台市青葉区",
        "area_town_code": "41010095000",
        "area_town_name": "川内追廻",
        "area_lat": 38.255145,
        "area_lng": 140.860057
    },
    {
        "area_city_code": 4101,
        "area_city_name": "仙台市青葉区",
        "area_town_code": "41010096000",
        "area_town_name": "堤通雨宮町",
        "area_lat": 38.277125,
        "area_lng": 140.870427
    },
    {
        "area_city_code": 4101,
        "area_city_name": "仙台市青葉区",
        "area_town_code": "41010097000",
        "area_town_name": "花壇",
        "area_lat": 38.253912,
        "area_lng": 140.863312
    },
    {
        "area_city_code": 4101,
        "area_city_name": "仙台市青葉区",
        "area_town_code": "41010098000",
        "area_town_name": "山手町",
        "area_lat": 38.287169,
        "area_lng": 140.852315
    },
    {
        "area_city_code": 4101,
        "area_city_name": "仙台市青葉区",
        "area_town_code": "41010099000",
        "area_town_name": "川内元支倉",
        "area_lat": 38.262988,
        "area_lng": 140.853101
    },
    {
        "area_city_code": 4101,
        "area_city_name": "仙台市青葉区",
        "area_town_code": "41010100000",
        "area_town_name": "川内三十人町",
        "area_lat": 38.263189,
        "area_lng": 140.844592
    },
    {
        "area_city_code": 4101,
        "area_city_name": "仙台市青葉区",
        "area_town_code": "41010101000",
        "area_town_name": "霊屋下",
        "area_lat": 38.252388,
        "area_lng": 140.866569
    },
    {
        "area_city_code": 4101,
        "area_city_name": "仙台市青葉区",
        "area_town_code": "41010102000",
        "area_town_name": "西勝山",
        "area_lat": 38.300642,
        "area_lng": 140.839
    },
    {
        "area_city_code": 4101,
        "area_city_name": "仙台市青葉区",
        "area_town_code": "41010103000",
        "area_town_name": "台原森林公園",
        "area_lat": 38.293983,
        "area_lng": 140.879465
    },
    {
        "area_city_code": 4101,
        "area_city_name": "仙台市青葉区",
        "area_town_code": "41010104000",
        "area_town_name": "川内",
        "area_lat": 38.256956,
        "area_lng": 140.852342
    },
    {
        "area_city_code": 4101,
        "area_city_name": "仙台市青葉区",
        "area_town_code": "41010105000",
        "area_town_name": "熊ケ根",
        "area_lat": 38.30032,
        "area_lng": 140.682696
    },
    {
        "area_city_code": 4101,
        "area_city_name": "仙台市青葉区",
        "area_town_code": "41010106000",
        "area_town_name": "郷六",
        "area_lat": 38.264668,
        "area_lng": 140.819427
    },
    {
        "area_city_code": 4101,
        "area_city_name": "仙台市青葉区",
        "area_town_code": "41010107000",
        "area_town_name": "茂庭",
        "area_lat": 38.248923,
        "area_lng": 140.794941
    },
    {
        "area_city_code": 4101,
        "area_city_name": "仙台市青葉区",
        "area_town_code": "41010108000",
        "area_town_name": "下愛子",
        "area_lat": 38.260991,
        "area_lng": 140.780899
    },
    {
        "area_city_code": 4101,
        "area_city_name": "仙台市青葉区",
        "area_town_code": "41010109000",
        "area_town_name": "荒巻",
        "area_lat": 38.257624,
        "area_lng": 140.834028
    },
    {
        "area_city_code": 4101,
        "area_city_name": "仙台市青葉区",
        "area_town_code": "41010110000",
        "area_town_name": "新川",
        "area_lat": 38.310761,
        "area_lng": 140.604742
    },
    {
        "area_city_code": 4101,
        "area_city_name": "仙台市青葉区",
        "area_town_code": "41010111000",
        "area_town_name": "上愛子",
        "area_lat": 38.265357,
        "area_lng": 140.722533
    },
    {
        "area_city_code": 4101,
        "area_city_name": "仙台市青葉区",
        "area_town_code": "41010112000",
        "area_town_name": "作並",
        "area_lat": 38.349778,
        "area_lng": 140.607472
    },
    {
        "area_city_code": 4101,
        "area_city_name": "仙台市青葉区",
        "area_town_code": "41010113000",
        "area_town_name": "芋沢",
        "area_lat": 38.296405,
        "area_lng": 140.777744
    },
    {
        "area_city_code": 4101,
        "area_city_name": "仙台市青葉区",
        "area_town_code": "41010114000",
        "area_town_name": "大倉",
        "area_lat": 38.371907,
        "area_lng": 140.658771
    },
    {
        "area_city_code": 4102,
        "area_city_name": "仙台市宮城野区",
        "area_town_code": "41020001000",
        "area_town_name": "松岡町",
        "area_lat": 38.274396,
        "area_lng": 140.914852
    },
    {
        "area_city_code": 4102,
        "area_city_name": "仙台市宮城野区",
        "area_town_code": "41020002000",
        "area_town_name": "西宮城野",
        "area_lat": 38.255533,
        "area_lng": 140.898074
    },
    {
        "area_city_code": 4102,
        "area_city_name": "仙台市宮城野区",
        "area_town_code": "41020003001",
        "area_town_name": "鶴巻一丁目",
        "area_lat": 38.263714,
        "area_lng": 140.96765
    },
    {
        "area_city_code": 4102,
        "area_city_name": "仙台市宮城野区",
        "area_town_code": "41020003002",
        "area_town_name": "鶴巻二丁目",
        "area_lat": 38.260171,
        "area_lng": 140.965332
    },
    {
        "area_city_code": 4102,
        "area_city_name": "仙台市宮城野区",
        "area_town_code": "41020004001",
        "area_town_name": "福田町一丁目",
        "area_lat": 38.272835,
        "area_lng": 140.959465
    },
    {
        "area_city_code": 4102,
        "area_city_name": "仙台市宮城野区",
        "area_town_code": "41020004002",
        "area_town_name": "福田町二丁目",
        "area_lat": 38.267972,
        "area_lng": 140.961839
    },
    {
        "area_city_code": 4102,
        "area_city_name": "仙台市宮城野区",
        "area_town_code": "41020004003",
        "area_town_name": "福田町三丁目",
        "area_lat": 38.263081,
        "area_lng": 140.962871
    },
    {
        "area_city_code": 4102,
        "area_city_name": "仙台市宮城野区",
        "area_town_code": "41020004004",
        "area_town_name": "福田町四丁目",
        "area_lat": 38.263431,
        "area_lng": 140.961049
    },
    {
        "area_city_code": 4102,
        "area_city_name": "仙台市宮城野区",
        "area_town_code": "41020005001",
        "area_town_name": "福田町南一丁目",
        "area_lat": 38.258992,
        "area_lng": 140.961546
    },
    {
        "area_city_code": 4102,
        "area_city_name": "仙台市宮城野区",
        "area_town_code": "41020005002",
        "area_town_name": "福田町南二丁目",
        "area_lat": 38.258348,
        "area_lng": 140.96416
    },
    {
        "area_city_code": 4102,
        "area_city_name": "仙台市宮城野区",
        "area_town_code": "41020006001",
        "area_town_name": "小鶴一丁目",
        "area_lat": 38.284999,
        "area_lng": 140.928215
    },
    {
        "area_city_code": 4102,
        "area_city_name": "仙台市宮城野区",
        "area_town_code": "41020006002",
        "area_town_name": "小鶴二丁目",
        "area_lat": 38.283283,
        "area_lng": 140.929658
    },
    {
        "area_city_code": 4102,
        "area_city_name": "仙台市宮城野区",
        "area_town_code": "41020006003",
        "area_town_name": "小鶴三丁目",
        "area_lat": 38.281486,
        "area_lng": 140.926732
    },
    {
        "area_city_code": 4102,
        "area_city_name": "仙台市宮城野区",
        "area_town_code": "41020007001",
        "area_town_name": "栄一丁目",
        "area_lat": 38.278761,
        "area_lng": 140.979049
    },
    {
        "area_city_code": 4102,
        "area_city_name": "仙台市宮城野区",
        "area_town_code": "41020007002",
        "area_town_name": "栄二丁目",
        "area_lat": 38.280906,
        "area_lng": 140.979011
    },
    {
        "area_city_code": 4102,
        "area_city_name": "仙台市宮城野区",
        "area_town_code": "41020007003",
        "area_town_name": "栄三丁目",
        "area_lat": 38.283014,
        "area_lng": 140.980018
    },
    {
        "area_city_code": 4102,
        "area_city_name": "仙台市宮城野区",
        "area_town_code": "41020007004",
        "area_town_name": "栄四丁目",
        "area_lat": 38.281632,
        "area_lng": 140.98373
    },
    {
        "area_city_code": 4102,
        "area_city_name": "仙台市宮城野区",
        "area_town_code": "41020007005",
        "area_town_name": "栄五丁目",
        "area_lat": 38.282715,
        "area_lng": 140.986902
    },
    {
        "area_city_code": 4102,
        "area_city_name": "仙台市宮城野区",
        "area_town_code": "41020008001",
        "area_town_name": "田子西一丁目",
        "area_lat": 38.287886,
        "area_lng": 140.956852
    },
    {
        "area_city_code": 4102,
        "area_city_name": "仙台市宮城野区",
        "area_town_code": "41020008002",
        "area_town_name": "田子西二丁目",
        "area_lat": 38.284926,
        "area_lng": 140.958426
    },
    {
        "area_city_code": 4102,
        "area_city_name": "仙台市宮城野区",
        "area_town_code": "41020008003",
        "area_town_name": "田子西三丁目",
        "area_lat": 38.280517,
        "area_lng": 140.955838
    },
    {
        "area_city_code": 4102,
        "area_city_name": "仙台市宮城野区",
        "area_town_code": "41020009001",
        "area_town_name": "出花一丁目",
        "area_lat": 38.277414,
        "area_lng": 140.984274
    },
    {
        "area_city_code": 4102,
        "area_city_name": "仙台市宮城野区",
        "area_town_code": "41020009002",
        "area_town_name": "出花二丁目",
        "area_lat": 38.278582,
        "area_lng": 140.987161
    },
    {
        "area_city_code": 4102,
        "area_city_name": "仙台市宮城野区",
        "area_town_code": "41020009003",
        "area_town_name": "出花三丁目",
        "area_lat": 38.279489,
        "area_lng": 140.989461
    },
    {
        "area_city_code": 4102,
        "area_city_name": "仙台市宮城野区",
        "area_town_code": "41020010001",
        "area_town_name": "原町一丁目",
        "area_lat": 38.264312,
        "area_lng": 140.8996
    },
    {
        "area_city_code": 4102,
        "area_city_name": "仙台市宮城野区",
        "area_town_code": "41020010002",
        "area_town_name": "原町二丁目",
        "area_lat": 38.266318,
        "area_lng": 140.904192
    },
    {
        "area_city_code": 4102,
        "area_city_name": "仙台市宮城野区",
        "area_town_code": "41020010003",
        "area_town_name": "原町三丁目",
        "area_lat": 38.267075,
        "area_lng": 140.908205
    },
    {
        "area_city_code": 4102,
        "area_city_name": "仙台市宮城野区",
        "area_town_code": "41020010004",
        "area_town_name": "原町四丁目",
        "area_lat": 38.268642,
        "area_lng": 140.904497
    },
    {
        "area_city_code": 4102,
        "area_city_name": "仙台市宮城野区",
        "area_town_code": "41020010005",
        "area_town_name": "原町五丁目",
        "area_lat": 38.2693,
        "area_lng": 140.908447
    },
    {
        "area_city_code": 4102,
        "area_city_name": "仙台市宮城野区",
        "area_town_code": "41020010006",
        "area_town_name": "原町六丁目",
        "area_lat": 38.27035,
        "area_lng": 140.911398
    },
    {
        "area_city_code": 4102,
        "area_city_name": "仙台市宮城野区",
        "area_town_code": "41020011001",
        "area_town_name": "蒲生一丁目",
        "area_lat": 38.261867,
        "area_lng": 140.99539
    },
    {
        "area_city_code": 4102,
        "area_city_name": "仙台市宮城野区",
        "area_town_code": "41020011002",
        "area_town_name": "蒲生二丁目",
        "area_lat": 38.261607,
        "area_lng": 141.004683
    },
    {
        "area_city_code": 4102,
        "area_city_name": "仙台市宮城野区",
        "area_town_code": "41020011003",
        "area_town_name": "蒲生三丁目",
        "area_lat": 38.259755,
        "area_lng": 141.004885
    },
    {
        "area_city_code": 4102,
        "area_city_name": "仙台市宮城野区",
        "area_town_code": "41020011004",
        "area_town_name": "蒲生四丁目",
        "area_lat": 38.257616,
        "area_lng": 141.008893
    },
    {
        "area_city_code": 4102,
        "area_city_name": "仙台市宮城野区",
        "area_town_code": "41020011005",
        "area_town_name": "蒲生五丁目",
        "area_lat": 38.259302,
        "area_lng": 140.99682
    },
    {
        "area_city_code": 4102,
        "area_city_name": "仙台市宮城野区",
        "area_town_code": "41020012001",
        "area_town_name": "清水沼一丁目",
        "area_lat": 38.265391,
        "area_lng": 140.897767
    },
    {
        "area_city_code": 4102,
        "area_city_name": "仙台市宮城野区",
        "area_town_code": "41020012002",
        "area_town_name": "清水沼二丁目",
        "area_lat": 38.267599,
        "area_lng": 140.898712
    },
    {
        "area_city_code": 4102,
        "area_city_name": "仙台市宮城野区",
        "area_town_code": "41020012003",
        "area_town_name": "清水沼三丁目",
        "area_lat": 38.267427,
        "area_lng": 140.901812
    },
    {
        "area_city_code": 4102,
        "area_city_name": "仙台市宮城野区",
        "area_town_code": "41020013001",
        "area_town_name": "宮千代一丁目",
        "area_lat": 38.254645,
        "area_lng": 140.909246
    },
    {
        "area_city_code": 4102,
        "area_city_name": "仙台市宮城野区",
        "area_town_code": "41020013002",
        "area_town_name": "宮千代二丁目",
        "area_lat": 38.253196,
        "area_lng": 140.913337
    },
    {
        "area_city_code": 4102,
        "area_city_name": "仙台市宮城野区",
        "area_town_code": "41020013003",
        "area_town_name": "宮千代三丁目",
        "area_lat": 38.253635,
        "area_lng": 140.916816
    },
    {
        "area_city_code": 4102,
        "area_city_name": "仙台市宮城野区",
        "area_town_code": "41020014001",
        "area_town_name": "新田東一丁目",
        "area_lat": 38.278696,
        "area_lng": 140.932959
    },
    {
        "area_city_code": 4102,
        "area_city_name": "仙台市宮城野区",
        "area_town_code": "41020014002",
        "area_town_name": "新田東二丁目",
        "area_lat": 38.275033,
        "area_lng": 140.932991
    },
    {
        "area_city_code": 4102,
        "area_city_name": "仙台市宮城野区",
        "area_town_code": "41020014003",
        "area_town_name": "新田東三丁目",
        "area_lat": 38.274472,
        "area_lng": 140.936911
    },
    {
        "area_city_code": 4102,
        "area_city_name": "仙台市宮城野区",
        "area_town_code": "41020014004",
        "area_town_name": "新田東四丁目",
        "area_lat": 38.279695,
        "area_lng": 140.936517
    },
    {
        "area_city_code": 4102,
        "area_city_name": "仙台市宮城野区",
        "area_town_code": "41020014005",
        "area_town_name": "新田東五丁目",
        "area_lat": 38.280499,
        "area_lng": 140.933538
    },
    {
        "area_city_code": 4102,
        "area_city_name": "仙台市宮城野区",
        "area_town_code": "41020015001",
        "area_town_name": "萩野町一丁目",
        "area_lat": 38.25897,
        "area_lng": 140.911588
    },
    {
        "area_city_code": 4102,
        "area_city_name": "仙台市宮城野区",
        "area_town_code": "41020015002",
        "area_town_name": "萩野町二丁目",
        "area_lat": 38.256237,
        "area_lng": 140.913615
    },
    {
        "area_city_code": 4102,
        "area_city_name": "仙台市宮城野区",
        "area_town_code": "41020015003",
        "area_town_name": "萩野町三丁目",
        "area_lat": 38.257056,
        "area_lng": 140.917969
    },
    {
        "area_city_code": 4102,
        "area_city_name": "仙台市宮城野区",
        "area_town_code": "41020015004",
        "area_town_name": "萩野町四丁目",
        "area_lat": 38.259367,
        "area_lng": 140.914274
    },
    {
        "area_city_code": 4102,
        "area_city_name": "仙台市宮城野区",
        "area_town_code": "41020016001",
        "area_town_name": "燕沢東一丁目",
        "area_lat": 38.286785,
        "area_lng": 140.933883
    },
    {
        "area_city_code": 4102,
        "area_city_name": "仙台市宮城野区",
        "area_town_code": "41020016002",
        "area_town_name": "燕沢東二丁目",
        "area_lat": 38.287723,
        "area_lng": 140.93288
    },
    {
        "area_city_code": 4102,
        "area_city_name": "仙台市宮城野区",
        "area_town_code": "41020016003",
        "area_town_name": "燕沢東三丁目",
        "area_lat": 38.289353,
        "area_lng": 140.931439
    },
    {
        "area_city_code": 4102,
        "area_city_name": "仙台市宮城野区",
        "area_town_code": "41020017001",
        "area_town_name": "鶴ケ谷東一丁目",
        "area_lat": 38.288887,
        "area_lng": 140.925945
    },
    {
        "area_city_code": 4102,
        "area_city_name": "仙台市宮城野区",
        "area_town_code": "41020017002",
        "area_town_name": "鶴ケ谷東二丁目",
        "area_lat": 38.291575,
        "area_lng": 140.928975
    },
    {
        "area_city_code": 4102,
        "area_city_name": "仙台市宮城野区",
        "area_town_code": "41020017003",
        "area_town_name": "鶴ケ谷東三丁目",
        "area_lat": 38.294038,
        "area_lng": 140.928243
    },
    {
        "area_city_code": 4102,
        "area_city_name": "仙台市宮城野区",
        "area_town_code": "41020017004",
        "area_town_name": "鶴ケ谷東四丁目",
        "area_lat": 38.294984,
        "area_lng": 140.923706
    },
    {
        "area_city_code": 4102,
        "area_city_name": "仙台市宮城野区",
        "area_town_code": "41020018001",
        "area_town_name": "岩切分台一丁目",
        "area_lat": 38.304999,
        "area_lng": 140.957229
    },
    {
        "area_city_code": 4102,
        "area_city_name": "仙台市宮城野区",
        "area_town_code": "41020018002",
        "area_town_name": "岩切分台二丁目",
        "area_lat": 38.307517,
        "area_lng": 140.959595
    },
    {
        "area_city_code": 4102,
        "area_city_name": "仙台市宮城野区",
        "area_town_code": "41020018003",
        "area_town_name": "岩切分台三丁目",
        "area_lat": 38.307807,
        "area_lng": 140.956651
    },
    {
        "area_city_code": 4102,
        "area_city_name": "仙台市宮城野区",
        "area_town_code": "41020019001",
        "area_town_name": "鶴ケ谷北一丁目",
        "area_lat": 38.296863,
        "area_lng": 140.913304
    },
    {
        "area_city_code": 4102,
        "area_city_name": "仙台市宮城野区",
        "area_town_code": "41020019002",
        "area_town_name": "鶴ケ谷北二丁目",
        "area_lat": 38.298295,
        "area_lng": 140.916695
    },
    {
        "area_city_code": 4102,
        "area_city_name": "仙台市宮城野区",
        "area_town_code": "41020020001",
        "area_town_name": "小田原一丁目",
        "area_lat": 38.266305,
        "area_lng": 140.890459
    },
    {
        "area_city_code": 4102,
        "area_city_name": "仙台市宮城野区",
        "area_town_code": "41020020002",
        "area_town_name": "小田原二丁目",
        "area_lat": 38.265031,
        "area_lng": 140.894207
    },
    {
        "area_city_code": 4102,
        "area_city_name": "仙台市宮城野区",
        "area_town_code": "41020020003",
        "area_town_name": "小田原三丁目",
        "area_lat": 38.268149,
        "area_lng": 140.895226
    },
    {
        "area_city_code": 4102,
        "area_city_name": "仙台市宮城野区",
        "area_town_code": "41020021001",
        "area_town_name": "幸町一丁目",
        "area_lat": 38.277691,
        "area_lng": 140.895312
    },
    {
        "area_city_code": 4102,
        "area_city_name": "仙台市宮城野区",
        "area_town_code": "41020021002",
        "area_town_name": "幸町二丁目",
        "area_lat": 38.275411,
        "area_lng": 140.896035
    },
    {
        "area_city_code": 4102,
        "area_city_name": "仙台市宮城野区",
        "area_town_code": "41020021003",
        "area_town_name": "幸町三丁目",
        "area_lat": 38.276482,
        "area_lng": 140.901715
    },
    {
        "area_city_code": 4102,
        "area_city_name": "仙台市宮城野区",
        "area_town_code": "41020021004",
        "area_town_name": "幸町四丁目",
        "area_lat": 38.276549,
        "area_lng": 140.906081
    },
    {
        "area_city_code": 4102,
        "area_city_name": "仙台市宮城野区",
        "area_town_code": "41020021005",
        "area_town_name": "幸町五丁目",
        "area_lat": 38.273905,
        "area_lng": 140.903376
    },
    {
        "area_city_code": 4102,
        "area_city_name": "仙台市宮城野区",
        "area_town_code": "41020022001",
        "area_town_name": "苦竹一丁目",
        "area_lat": 38.268492,
        "area_lng": 140.916469
    },
    {
        "area_city_code": 4102,
        "area_city_name": "仙台市宮城野区",
        "area_town_code": "41020022002",
        "area_town_name": "苦竹二丁目",
        "area_lat": 38.270441,
        "area_lng": 140.925349
    },
    {
        "area_city_code": 4102,
        "area_city_name": "仙台市宮城野区",
        "area_town_code": "41020022003",
        "area_town_name": "苦竹三丁目",
        "area_lat": 38.267299,
        "area_lng": 140.927721
    },
    {
        "area_city_code": 4102,
        "area_city_name": "仙台市宮城野区",
        "area_town_code": "41020022004",
        "area_town_name": "苦竹四丁目",
        "area_lat": 38.263102,
        "area_lng": 140.92771
    },
    {
        "area_city_code": 4102,
        "area_city_name": "仙台市宮城野区",
        "area_town_code": "41020023000",
        "area_town_name": "東宮城野",
        "area_lat": 38.260008,
        "area_lng": 140.917992
    },
    {
        "area_city_code": 4102,
        "area_city_name": "仙台市宮城野区",
        "area_town_code": "41020024001",
        "area_town_name": "東仙台一丁目",
        "area_lat": 38.278942,
        "area_lng": 140.921254
    },
    {
        "area_city_code": 4102,
        "area_city_name": "仙台市宮城野区",
        "area_town_code": "41020024002",
        "area_town_name": "東仙台二丁目",
        "area_lat": 38.276591,
        "area_lng": 140.917338
    },
    {
        "area_city_code": 4102,
        "area_city_name": "仙台市宮城野区",
        "area_town_code": "41020024003",
        "area_town_name": "東仙台三丁目",
        "area_lat": 38.27272,
        "area_lng": 140.910754
    },
    {
        "area_city_code": 4102,
        "area_city_name": "仙台市宮城野区",
        "area_town_code": "41020024004",
        "area_town_name": "東仙台四丁目",
        "area_lat": 38.275861,
        "area_lng": 140.909893
    },
    {
        "area_city_code": 4102,
        "area_city_name": "仙台市宮城野区",
        "area_town_code": "41020024005",
        "area_town_name": "東仙台五丁目",
        "area_lat": 38.276262,
        "area_lng": 140.913643
    },
    {
        "area_city_code": 4102,
        "area_city_name": "仙台市宮城野区",
        "area_town_code": "41020024006",
        "area_town_name": "東仙台六丁目",
        "area_lat": 38.28019,
        "area_lng": 140.912788
    },
    {
        "area_city_code": 4102,
        "area_city_name": "仙台市宮城野区",
        "area_town_code": "41020024007",
        "area_town_name": "東仙台七丁目",
        "area_lat": 38.281654,
        "area_lng": 140.914496
    },
    {
        "area_city_code": 4102,
        "area_city_name": "仙台市宮城野区",
        "area_town_code": "41020025001",
        "area_town_name": "福室一丁目",
        "area_lat": 38.269912,
        "area_lng": 140.964806
    },
    {
        "area_city_code": 4102,
        "area_city_name": "仙台市宮城野区",
        "area_town_code": "41020025002",
        "area_town_name": "福室二丁目",
        "area_lat": 38.273105,
        "area_lng": 140.967496
    },
    {
        "area_city_code": 4102,
        "area_city_name": "仙台市宮城野区",
        "area_town_code": "41020025003",
        "area_town_name": "福室三丁目",
        "area_lat": 38.277237,
        "area_lng": 140.96874
    },
    {
        "area_city_code": 4102,
        "area_city_name": "仙台市宮城野区",
        "area_town_code": "41020025004",
        "area_town_name": "福室四丁目",
        "area_lat": 38.276621,
        "area_lng": 140.973793
    },
    {
        "area_city_code": 4102,
        "area_city_name": "仙台市宮城野区",
        "area_town_code": "41020025005",
        "area_town_name": "福室五丁目",
        "area_lat": 38.280267,
        "area_lng": 140.97242
    },
    {
        "area_city_code": 4102,
        "area_city_name": "仙台市宮城野区",
        "area_town_code": "41020025006",
        "area_town_name": "福室六丁目",
        "area_lat": 38.283069,
        "area_lng": 140.969436
    },
    {
        "area_city_code": 4102,
        "area_city_name": "仙台市宮城野区",
        "area_town_code": "41020025007",
        "area_town_name": "福室七丁目",
        "area_lat": 38.283233,
        "area_lng": 140.972942
    },
    {
        "area_city_code": 4102,
        "area_city_name": "仙台市宮城野区",
        "area_town_code": "41020026001",
        "area_town_name": "岩切一丁目",
        "area_lat": 38.292783,
        "area_lng": 140.936555
    },
    {
        "area_city_code": 4102,
        "area_city_name": "仙台市宮城野区",
        "area_town_code": "41020026002",
        "area_town_name": "岩切二丁目",
        "area_lat": 38.294275,
        "area_lng": 140.934478
    },
    {
        "area_city_code": 4102,
        "area_city_name": "仙台市宮城野区",
        "area_town_code": "41020026003",
        "area_town_name": "岩切三丁目",
        "area_lat": 38.295751,
        "area_lng": 140.931929
    },
    {
        "area_city_code": 4102,
        "area_city_name": "仙台市宮城野区",
        "area_town_code": "41020027001",
        "area_town_name": "鶴ケ谷一丁目",
        "area_lat": 38.287411,
        "area_lng": 140.907048
    },
    {
        "area_city_code": 4102,
        "area_city_name": "仙台市宮城野区",
        "area_town_code": "41020027002",
        "area_town_name": "鶴ケ谷二丁目",
        "area_lat": 38.288671,
        "area_lng": 140.913271
    },
    {
        "area_city_code": 4102,
        "area_city_name": "仙台市宮城野区",
        "area_town_code": "41020027003",
        "area_town_name": "鶴ケ谷三丁目",
        "area_lat": 38.289764,
        "area_lng": 140.909232
    },
    {
        "area_city_code": 4102,
        "area_city_name": "仙台市宮城野区",
        "area_town_code": "41020027004",
        "area_town_name": "鶴ケ谷四丁目",
        "area_lat": 38.292787,
        "area_lng": 140.90844
    },
    {
        "area_city_code": 4102,
        "area_city_name": "仙台市宮城野区",
        "area_town_code": "41020027005",
        "area_town_name": "鶴ケ谷五丁目",
        "area_lat": 38.293266,
        "area_lng": 140.91435
    },
    {
        "area_city_code": 4102,
        "area_city_name": "仙台市宮城野区",
        "area_town_code": "41020027006",
        "area_town_name": "鶴ケ谷六丁目",
        "area_lat": 38.292286,
        "area_lng": 140.921331
    },
    {
        "area_city_code": 4102,
        "area_city_name": "仙台市宮城野区",
        "area_town_code": "41020027007",
        "area_town_name": "鶴ケ谷七丁目",
        "area_lat": 38.287645,
        "area_lng": 140.920105
    },
    {
        "area_city_code": 4102,
        "area_city_name": "仙台市宮城野区",
        "area_town_code": "41020027008",
        "area_town_name": "鶴ケ谷八丁目",
        "area_lat": 38.287957,
        "area_lng": 140.916889
    },
    {
        "area_city_code": 4102,
        "area_city_name": "仙台市宮城野区",
        "area_town_code": "41020028001",
        "area_town_name": "仙台港北一丁目",
        "area_lat": 38.280715,
        "area_lng": 140.995833
    },
    {
        "area_city_code": 4102,
        "area_city_name": "仙台市宮城野区",
        "area_town_code": "41020028002",
        "area_town_name": "仙台港北二丁目",
        "area_lat": 38.279276,
        "area_lng": 141.000632
    },
    {
        "area_city_code": 4102,
        "area_city_name": "仙台市宮城野区",
        "area_town_code": "41020029001",
        "area_town_name": "新田一丁目",
        "area_lat": 38.273841,
        "area_lng": 140.920334
    },
    {
        "area_city_code": 4102,
        "area_city_name": "仙台市宮城野区",
        "area_town_code": "41020029002",
        "area_town_name": "新田二丁目",
        "area_lat": 38.276031,
        "area_lng": 140.923127
    },
    {
        "area_city_code": 4102,
        "area_city_name": "仙台市宮城野区",
        "area_town_code": "41020029003",
        "area_town_name": "新田三丁目",
        "area_lat": 38.279128,
        "area_lng": 140.927747
    },
    {
        "area_city_code": 4102,
        "area_city_name": "仙台市宮城野区",
        "area_town_code": "41020029004",
        "area_town_name": "新田四丁目",
        "area_lat": 38.274659,
        "area_lng": 140.927626
    },
    {
        "area_city_code": 4102,
        "area_city_name": "仙台市宮城野区",
        "area_town_code": "41020029005",
        "area_town_name": "新田五丁目",
        "area_lat": 38.271624,
        "area_lng": 140.924802
    },
    {
        "area_city_code": 4102,
        "area_city_name": "仙台市宮城野区",
        "area_town_code": "41020030001",
        "area_town_name": "平成一丁目",
        "area_lat": 38.270563,
        "area_lng": 140.914425
    },
    {
        "area_city_code": 4102,
        "area_city_name": "仙台市宮城野区",
        "area_town_code": "41020030002",
        "area_town_name": "平成二丁目",
        "area_lat": 38.272053,
        "area_lng": 140.916864
    },
    {
        "area_city_code": 4102,
        "area_city_name": "仙台市宮城野区",
        "area_town_code": "41020031000",
        "area_town_name": "岡田西町",
        "area_lat": 38.254624,
        "area_lng": 140.959617
    },
    {
        "area_city_code": 4102,
        "area_city_name": "仙台市宮城野区",
        "area_town_code": "41020032000",
        "area_town_name": "自由ケ丘",
        "area_lat": 38.29061,
        "area_lng": 140.901654
    },
    {
        "area_city_code": 4102,
        "area_city_name": "仙台市宮城野区",
        "area_town_code": "41020033001",
        "area_town_name": "燕沢一丁目",
        "area_lat": 38.281227,
        "area_lng": 140.920485
    },
    {
        "area_city_code": 4102,
        "area_city_name": "仙台市宮城野区",
        "area_town_code": "41020033002",
        "area_town_name": "燕沢二丁目",
        "area_lat": 38.283709,
        "area_lng": 140.918198
    },
    {
        "area_city_code": 4102,
        "area_city_name": "仙台市宮城野区",
        "area_town_code": "41020033003",
        "area_town_name": "燕沢三丁目",
        "area_lat": 38.285883,
        "area_lng": 140.923001
    },
    {
        "area_city_code": 4102,
        "area_city_name": "仙台市宮城野区",
        "area_town_code": "41020034001",
        "area_town_name": "五輪一丁目",
        "area_lat": 38.261553,
        "area_lng": 140.899193
    },
    {
        "area_city_code": 4102,
        "area_city_name": "仙台市宮城野区",
        "area_town_code": "41020034002",
        "area_town_name": "五輪二丁目",
        "area_lat": 38.264857,
        "area_lng": 140.905964
    },
    {
        "area_city_code": 4102,
        "area_city_name": "仙台市宮城野区",
        "area_town_code": "41020035000",
        "area_town_name": "枡江",
        "area_lat": 38.280597,
        "area_lng": 140.905442
    },
    {
        "area_city_code": 4102,
        "area_city_name": "仙台市宮城野区",
        "area_town_code": "41020036001",
        "area_town_name": "中野一丁目",
        "area_lat": 38.272797,
        "area_lng": 140.97711
    },
    {
        "area_city_code": 4102,
        "area_city_name": "仙台市宮城野区",
        "area_town_code": "41020036002",
        "area_town_name": "中野二丁目",
        "area_lat": 38.274795,
        "area_lng": 140.981503
    },
    {
        "area_city_code": 4102,
        "area_city_name": "仙台市宮城野区",
        "area_town_code": "41020036003",
        "area_town_name": "中野三丁目",
        "area_lat": 38.272797,
        "area_lng": 140.98789
    },
    {
        "area_city_code": 4102,
        "area_city_name": "仙台市宮城野区",
        "area_town_code": "41020036004",
        "area_town_name": "中野四丁目",
        "area_lat": 38.269387,
        "area_lng": 140.981064
    },
    {
        "area_city_code": 4102,
        "area_city_name": "仙台市宮城野区",
        "area_town_code": "41020036005",
        "area_town_name": "中野五丁目",
        "area_lat": 38.266509,
        "area_lng": 140.987789
    },
    {
        "area_city_code": 4102,
        "area_city_name": "仙台市宮城野区",
        "area_town_code": "41020037000",
        "area_town_name": "二の森",
        "area_lat": 38.279671,
        "area_lng": 140.90029
    },
    {
        "area_city_code": 4102,
        "area_city_name": "仙台市宮城野区",
        "area_town_code": "41020038000",
        "area_town_name": "福住町",
        "area_lat": 38.273262,
        "area_lng": 140.953743
    },
    {
        "area_city_code": 4102,
        "area_city_name": "仙台市宮城野区",
        "area_town_code": "41020039001",
        "area_town_name": "高砂一丁目",
        "area_lat": 38.270858,
        "area_lng": 140.971362
    },
    {
        "area_city_code": 4102,
        "area_city_name": "仙台市宮城野区",
        "area_town_code": "41020039002",
        "area_town_name": "高砂二丁目",
        "area_lat": 38.267997,
        "area_lng": 140.970369
    },
    {
        "area_city_code": 4102,
        "area_city_name": "仙台市宮城野区",
        "area_town_code": "41020040001",
        "area_town_name": "扇町一丁目",
        "area_lat": 38.270604,
        "area_lng": 140.947234
    },
    {
        "area_city_code": 4102,
        "area_city_name": "仙台市宮城野区",
        "area_town_code": "41020040002",
        "area_town_name": "扇町二丁目",
        "area_lat": 38.267529,
        "area_lng": 140.942837
    },
    {
        "area_city_code": 4102,
        "area_city_name": "仙台市宮城野区",
        "area_town_code": "41020040003",
        "area_town_name": "扇町三丁目",
        "area_lat": 38.262841,
        "area_lng": 140.94251
    },
    {
        "area_city_code": 4102,
        "area_city_name": "仙台市宮城野区",
        "area_town_code": "41020040004",
        "area_town_name": "扇町四丁目",
        "area_lat": 38.26265,
        "area_lng": 140.950197
    },
    {
        "area_city_code": 4102,
        "area_city_name": "仙台市宮城野区",
        "area_town_code": "41020040005",
        "area_town_name": "扇町五丁目",
        "area_lat": 38.268044,
        "area_lng": 140.950543
    },
    {
        "area_city_code": 4102,
        "area_city_name": "仙台市宮城野区",
        "area_town_code": "41020040006",
        "area_town_name": "扇町六丁目",
        "area_lat": 38.268324,
        "area_lng": 140.956091
    },
    {
        "area_city_code": 4102,
        "area_city_name": "仙台市宮城野区",
        "area_town_code": "41020040007",
        "area_town_name": "扇町七丁目",
        "area_lat": 38.262261,
        "area_lng": 140.956847
    },
    {
        "area_city_code": 4102,
        "area_city_name": "仙台市宮城野区",
        "area_town_code": "41020041001",
        "area_town_name": "安養寺一丁目",
        "area_lat": 38.288762,
        "area_lng": 140.8964
    },
    {
        "area_city_code": 4102,
        "area_city_name": "仙台市宮城野区",
        "area_town_code": "41020041002",
        "area_town_name": "安養寺二丁目",
        "area_lat": 38.286275,
        "area_lng": 140.902996
    },
    {
        "area_city_code": 4102,
        "area_city_name": "仙台市宮城野区",
        "area_town_code": "41020041003",
        "area_town_name": "安養寺三丁目",
        "area_lat": 38.283091,
        "area_lng": 140.908184
    },
    {
        "area_city_code": 4102,
        "area_city_name": "仙台市宮城野区",
        "area_town_code": "41020042000",
        "area_town_name": "仙石",
        "area_lat": 38.273123,
        "area_lng": 140.944765
    },
    {
        "area_city_code": 4102,
        "area_city_name": "仙台市宮城野区",
        "area_town_code": "41020043001",
        "area_town_name": "白鳥一丁目",
        "area_lat": 38.264474,
        "area_lng": 140.977973
    },
    {
        "area_city_code": 4102,
        "area_city_name": "仙台市宮城野区",
        "area_town_code": "41020043002",
        "area_town_name": "白鳥二丁目",
        "area_lat": 38.262261,
        "area_lng": 140.986348
    },
    {
        "area_city_code": 4102,
        "area_city_name": "仙台市宮城野区",
        "area_town_code": "41020044001",
        "area_town_name": "宮城野一丁目",
        "area_lat": 38.257611,
        "area_lng": 140.898622
    },
    {
        "area_city_code": 4102,
        "area_city_name": "仙台市宮城野区",
        "area_town_code": "41020044002",
        "area_town_name": "宮城野二丁目",
        "area_lat": 38.258395,
        "area_lng": 140.904552
    },
    {
        "area_city_code": 4102,
        "area_city_name": "仙台市宮城野区",
        "area_town_code": "41020044003",
        "area_town_name": "宮城野三丁目",
        "area_lat": 38.257619,
        "area_lng": 140.907462
    },
    {
        "area_city_code": 4102,
        "area_city_name": "仙台市宮城野区",
        "area_town_code": "41020045000",
        "area_town_name": "燕沢",
        "area_lat": 38.284775,
        "area_lng": 140.935519
    },
    {
        "area_city_code": 4102,
        "area_city_name": "仙台市宮城野区",
        "area_town_code": "41020046000",
        "area_town_name": "銀杏町",
        "area_lat": 38.263998,
        "area_lng": 140.910328
    },
    {
        "area_city_code": 4102,
        "area_city_name": "仙台市宮城野区",
        "area_town_code": "41020047001",
        "area_town_name": "日の出町一丁目",
        "area_lat": 38.270593,
        "area_lng": 140.934671
    },
    {
        "area_city_code": 4102,
        "area_city_name": "仙台市宮城野区",
        "area_town_code": "41020047002",
        "area_town_name": "日の出町二丁目",
        "area_lat": 38.267548,
        "area_lng": 140.934454
    },
    {
        "area_city_code": 4102,
        "area_city_name": "仙台市宮城野区",
        "area_town_code": "41020047003",
        "area_town_name": "日の出町三丁目",
        "area_lat": 38.26352,
        "area_lng": 140.934283
    },
    {
        "area_city_code": 4102,
        "area_city_name": "仙台市宮城野区",
        "area_town_code": "41020048000",
        "area_town_name": "蟹沢",
        "area_lat": 38.283597,
        "area_lng": 140.900266
    },
    {
        "area_city_code": 4102,
        "area_city_name": "仙台市宮城野区",
        "area_town_code": "41020049001",
        "area_town_name": "田子一丁目",
        "area_lat": 38.277503,
        "area_lng": 140.962803
    },
    {
        "area_city_code": 4102,
        "area_city_name": "仙台市宮城野区",
        "area_town_code": "41020049002",
        "area_town_name": "田子二丁目",
        "area_lat": 38.280497,
        "area_lng": 140.959731
    },
    {
        "area_city_code": 4102,
        "area_city_name": "仙台市宮城野区",
        "area_town_code": "41020049003",
        "area_town_name": "田子三丁目",
        "area_lat": 38.283185,
        "area_lng": 140.964281
    },
    {
        "area_city_code": 4102,
        "area_city_name": "仙台市宮城野区",
        "area_town_code": "41020050000",
        "area_town_name": "大梶",
        "area_lat": 38.271403,
        "area_lng": 140.903265
    },
    {
        "area_city_code": 4102,
        "area_city_name": "仙台市宮城野区",
        "area_town_code": "41020051000",
        "area_town_name": "中野",
        "area_lat": 38.282292,
        "area_lng": 140.991304
    },
    {
        "area_city_code": 4102,
        "area_city_name": "仙台市宮城野区",
        "area_town_code": "41020052000",
        "area_town_name": "福室",
        "area_lat": 38.259531,
        "area_lng": 140.969254
    },
    {
        "area_city_code": 4102,
        "area_city_name": "仙台市宮城野区",
        "area_town_code": "41020053001",
        "area_town_name": "港一丁目",
        "area_lat": 38.265322,
        "area_lng": 141.010436
    },
    {
        "area_city_code": 4102,
        "area_city_name": "仙台市宮城野区",
        "area_town_code": "41020053002",
        "area_town_name": "港二丁目",
        "area_lat": 38.268336,
        "area_lng": 140.99611
    },
    {
        "area_city_code": 4102,
        "area_city_name": "仙台市宮城野区",
        "area_town_code": "41020053003",
        "area_town_name": "港三丁目",
        "area_lat": 38.274884,
        "area_lng": 141.001025
    },
    {
        "area_city_code": 4102,
        "area_city_name": "仙台市宮城野区",
        "area_town_code": "41020053004",
        "area_town_name": "港四丁目",
        "area_lat": 38.277178,
        "area_lng": 141.020021
    },
    {
        "area_city_code": 4102,
        "area_city_name": "仙台市宮城野区",
        "area_town_code": "41020053005",
        "area_town_name": "港五丁目",
        "area_lat": 38.277315,
        "area_lng": 141.036443
    },
    {
        "area_city_code": 4102,
        "area_city_name": "仙台市宮城野区",
        "area_town_code": "41020054000",
        "area_town_name": "南目館",
        "area_lat": 38.265361,
        "area_lng": 140.919395
    },
    {
        "area_city_code": 4102,
        "area_city_name": "仙台市宮城野区",
        "area_town_code": "41020055000",
        "area_town_name": "小鶴",
        "area_lat": 38.27743,
        "area_lng": 140.944447
    },
    {
        "area_city_code": 4102,
        "area_city_name": "仙台市宮城野区",
        "area_town_code": "41020056000",
        "area_town_name": "鶴ケ谷",
        "area_lat": 38.299424,
        "area_lng": 140.926585
    },
    {
        "area_city_code": 4102,
        "area_city_name": "仙台市宮城野区",
        "area_town_code": "41020057000",
        "area_town_name": "蒲生",
        "area_lat": 38.250699,
        "area_lng": 140.998713
    },
    {
        "area_city_code": 4102,
        "area_city_name": "仙台市宮城野区",
        "area_town_code": "41020058000",
        "area_town_name": "岡田",
        "area_lat": 38.244497,
        "area_lng": 140.980847
    },
    {
        "area_city_code": 4102,
        "area_city_name": "仙台市宮城野区",
        "area_town_code": "41020059000",
        "area_town_name": "鉄砲町東",
        "area_lat": 38.2635,
        "area_lng": 140.893998
    },
    {
        "area_city_code": 4102,
        "area_city_name": "仙台市宮城野区",
        "area_town_code": "41020060000",
        "area_town_name": "二十人町通",
        "area_lat": 38.262613,
        "area_lng": 140.896686
    },
    {
        "area_city_code": 4102,
        "area_city_name": "仙台市宮城野区",
        "area_town_code": "41020061000",
        "area_town_name": "原町南目",
        "area_lat": 38.262921,
        "area_lng": 140.897324
    },
    {
        "area_city_code": 4102,
        "area_city_name": "仙台市宮城野区",
        "area_town_code": "41020062000",
        "area_town_name": "鉄砲町中",
        "area_lat": 38.263728,
        "area_lng": 140.890056
    },
    {
        "area_city_code": 4102,
        "area_city_name": "仙台市宮城野区",
        "area_town_code": "41020063000",
        "area_town_name": "小田原弓ノ町",
        "area_lat": 38.264286,
        "area_lng": 140.891887
    },
    {
        "area_city_code": 4102,
        "area_city_name": "仙台市宮城野区",
        "area_town_code": "41020064000",
        "area_town_name": "榴ケ岡",
        "area_lat": 38.261347,
        "area_lng": 140.891949
    },
    {
        "area_city_code": 4102,
        "area_city_name": "仙台市宮城野区",
        "area_town_code": "41020065001",
        "area_town_name": "榴岡一丁目",
        "area_lat": 38.259017,
        "area_lng": 140.884867
    },
    {
        "area_city_code": 4102,
        "area_city_name": "仙台市宮城野区",
        "area_town_code": "41020065002",
        "area_town_name": "榴岡二丁目",
        "area_lat": 38.261058,
        "area_lng": 140.885096
    },
    {
        "area_city_code": 4102,
        "area_city_name": "仙台市宮城野区",
        "area_town_code": "41020065003",
        "area_town_name": "榴岡三丁目",
        "area_lat": 38.260503,
        "area_lng": 140.889114
    },
    {
        "area_city_code": 4102,
        "area_city_name": "仙台市宮城野区",
        "area_town_code": "41020065004",
        "area_town_name": "榴岡四丁目",
        "area_lat": 38.258367,
        "area_lng": 140.888702
    },