[
    {
        "area_city_code": 42201,
        "area_city_name": "長崎市",
        "area_town_code": "422010001000",
        "area_town_name": "相生町",
        "area_lat": 32.733844,
        "area_lng": 129.871781
    },
    {
        "area_city_code": 42201,
        "area_city_name": "長崎市",
        "area_town_code": "422010002000",
        "area_town_name": "相川町",
        "area_lat": 32.800468,
        "area_lng": 129.788654
    },
    {
        "area_city_code": 42201,
        "area_city_name": "長崎市",
        "area_town_code": "422010003000",
        "area_town_name": "青山町",
        "area_lat": 32.77648,
        "area_lng": 129.848274
    },
    {
        "area_city_code": 42201,
        "area_city_name": "長崎市",
        "area_town_code": "422010004000",
        "area_town_name": "赤首町",
        "area_lat": 32.851333,
        "area_lng": 129.690678
    },
    {
        "area_city_code": 42201,
        "area_city_name": "長崎市",
        "area_town_code": "422010005001",
        "area_town_name": "赤迫一丁目",
        "area_lat": 32.79528,
        "area_lng": 129.857061
    },
    {
        "area_city_code": 42201,
        "area_city_name": "長崎市",
        "area_town_code": "422010005002",
        "area_town_name": "赤迫二丁目",
        "area_lat": 32.797787,
        "area_lng": 129.856877
    },
    {
        "area_city_code": 42201,
        "area_city_name": "長崎市",
        "area_town_code": "422010005003",
        "area_town_name": "赤迫三丁目",
        "area_lat": 32.800962,
        "area_lng": 129.854873
    },
    {
        "area_city_code": 42201,
        "area_city_name": "長崎市",
        "area_town_code": "422010006000",
        "area_town_name": "秋月町",
        "area_lat": 32.747477,
        "area_lng": 129.849053
    },
    {
        "area_city_code": 42201,
        "area_city_name": "長崎市",
        "area_town_code": "422010007000",
        "area_town_name": "飽の浦町",
        "area_lat": 32.743229,
        "area_lng": 129.85688
    },
    {
        "area_city_code": 42201,
        "area_city_name": "長崎市",
        "area_town_code": "422010008000",
        "area_town_name": "曙町",
        "area_lat": 32.753668,
        "area_lng": 129.858217
    },
    {
        "area_city_code": 42201,
        "area_city_name": "長崎市",
        "area_town_code": "422010009000",
        "area_town_name": "旭町",
        "area_lat": 32.750554,
        "area_lng": 129.864054
    },
    {
        "area_city_code": 42201,
        "area_city_name": "長崎市",
        "area_town_code": "422010010000",
        "area_town_name": "畝刈町",
        "area_lat": 32.831102,
        "area_lng": 129.781693
    },
    {
        "area_city_code": 42201,
        "area_city_name": "長崎市",
        "area_town_code": "422010011000",
        "area_town_name": "畦別当町",
        "area_lat": 32.812614,
        "area_lng": 129.920849
    },
    {
        "area_city_code": 42201,
        "area_city_name": "長崎市",
        "area_town_code": "422010012000",
        "area_town_name": "畦町",
        "area_lat": 32.819009,
        "area_lng": 129.740925
    },
    {
        "area_city_code": 42201,
        "area_city_name": "長崎市",
        "area_town_code": "422010013001",
        "area_town_name": "愛宕一丁目",
        "area_lat": 32.73852,
        "area_lng": 129.88779
    },
    {
        "area_city_code": 42201,
        "area_city_name": "長崎市",
        "area_town_code": "422010013002",
        "area_town_name": "愛宕二丁目",
        "area_lat": 32.737535,
        "area_lng": 129.891132
    },
    {
        "area_city_code": 42201,
        "area_city_name": "長崎市",
        "area_town_code": "422010013003",
        "area_town_name": "愛宕三丁目",
        "area_lat": 32.733629,
        "area_lng": 129.890233
    },
    {
        "area_city_code": 42201,
        "area_city_name": "長崎市",
        "area_town_code": "422010013004",
        "area_town_name": "愛宕四丁目",
        "area_lat": 32.735359,
        "area_lng": 129.893977
    },
    {
        "area_city_code": 42201,
        "area_city_name": "長崎市",
        "area_town_code": "422010014000",
        "area_town_name": "網場町",
        "area_lat": 32.751043,
        "area_lng": 129.943273
    },
    {
        "area_city_code": 42201,
        "area_city_name": "長崎市",
        "area_town_code": "422010015000",
        "area_town_name": "油木町",
        "area_lat": 32.782252,
        "area_lng": 129.847827
    },
    {
        "area_city_code": 42201,
        "area_city_name": "長崎市",
        "area_town_code": "422010016000",
        "area_town_name": "油屋町",
        "area_lat": 32.742216,
        "area_lng": 129.881879
    },
    {
        "area_city_code": 42201,
        "area_city_name": "長崎市",
        "area_town_code": "422010017000",
        "area_town_name": "家野町",
        "area_lat": 32.788097,
        "area_lng": 129.862499
    },
    {
        "area_city_code": 42201,
        "area_city_name": "長崎市",
        "area_town_code": "422010018001",
        "area_town_name": "伊王島町一丁目",
        "area_lat": 32.708593,
        "area_lng": 129.766933
    },
    {
        "area_city_code": 42201,
        "area_city_name": "長崎市",
        "area_town_code": "422010018002",
        "area_town_name": "伊王島町二丁目",
        "area_lat": 32.696383,
        "area_lng": 129.780682
    },
    {
        "area_city_code": 42201,
        "area_city_name": "長崎市",
        "area_town_code": "422010019000",
        "area_town_name": "飯香浦町",
        "area_lat": 32.725328,
        "area_lng": 129.929208
    },
    {
        "area_city_code": 42201,
        "area_city_name": "長崎市",
        "area_town_code": "422010020000",
        "area_town_name": "以下宿町",
        "area_lat": 32.618224,
        "area_lng": 129.799088
    },
    {
        "area_city_code": 42201,
        "area_city_name": "長崎市",
        "area_town_code": "422010021000",
        "area_town_name": "池島町",
        "area_lat": 32.885527,
        "area_lng": 129.599625
    },
    {
        "area_city_code": 42201,
        "area_city_name": "長崎市",
        "area_town_code": "422010022000",
        "area_town_name": "石神町",
        "area_lat": 32.785858,
        "area_lng": 129.872109
    },
    {
        "area_city_code": 42201,
        "area_city_name": "長崎市",
        "area_town_code": "422010023001",
        "area_town_name": "泉一丁目",
        "area_lat": 32.794858,
        "area_lng": 129.865129
    },
    {
        "area_city_code": 42201,
        "area_city_name": "長崎市",
        "area_town_code": "422010023002",
        "area_town_name": "泉二丁目",
        "area_lat": 32.797592,
        "area_lng": 129.864286
    },
    {
        "area_city_code": 42201,
        "area_city_name": "長崎市",
        "area_town_code": "422010023003",
        "area_town_name": "泉三丁目",
        "area_lat": 32.797302,
        "area_lng": 129.860485
    },
    {
        "area_city_code": 42201,
        "area_city_name": "長崎市",
        "area_town_code": "422010024000",
        "area_town_name": "泉町",
        "area_lat": 32.804406,
        "area_lng": 129.867316
    },
    {
        "area_city_code": 42201,
        "area_city_name": "長崎市",
        "area_town_code": "422010025001",
        "area_town_name": "出雲一丁目",
        "area_lat": 32.728796,
        "area_lng": 129.873477
    },
    {
        "area_city_code": 42201,
        "area_city_name": "長崎市",
        "area_town_code": "422010025002",
        "area_town_name": "出雲二丁目",
        "area_lat": 32.728616,
        "area_lng": 129.869872
    },
    {
        "area_city_code": 42201,
        "area_city_name": "長崎市",
        "area_town_code": "422010025003",
        "area_town_name": "出雲三丁目",
        "area_lat": 32.724337,
        "area_lng": 129.873883
    },
    {
        "area_city_code": 42201,
        "area_city_name": "長崎市",
        "area_town_code": "422010026000",
        "area_town_name": "伊勢町",
        "area_lat": 32.751846,
        "area_lng": 129.885511
    },
    {
        "area_city_code": 42201,
        "area_city_name": "長崎市",
        "area_town_code": "422010027000",
        "area_town_name": "磯道町",
        "area_lat": 32.697967,
        "area_lng": 129.849736
    },
    {
        "area_city_code": 42201,
        "area_city_name": "長崎市",
        "area_town_code": "422010028000",
        "area_town_name": "稲佐町",
        "area_lat": 32.756075,
        "area_lng": 129.855261
    },
    {
        "area_city_code": 42201,
        "area_city_name": "長崎市",
        "area_town_code": "422010029000",
        "area_town_name": "稲田町",
        "area_lat": 32.736855,
        "area_lng": 129.877894
    },
    {
        "area_city_code": 42201,
        "area_city_name": "長崎市",
        "area_town_code": "422010030000",
        "area_town_name": "今博多町",
        "area_lat": 32.750591,
        "area_lng": 129.882127
    },
    {
        "area_city_code": 42201,
        "area_city_name": "長崎市",
        "area_town_code": "422010031001",
        "area_town_name": "伊良林一丁目",
        "area_lat": 32.750932,
        "area_lng": 129.886942
    },
    {
        "area_city_code": 42201,
        "area_city_name": "長崎市",
        "area_town_code": "422010031002",
        "area_town_name": "伊良林二丁目",
        "area_lat": 32.748987,
        "area_lng": 129.888083
    },
    {
        "area_city_code": 42201,
        "area_city_name": "長崎市",
        "area_town_code": "422010031003",
        "area_town_name": "伊良林三丁目",
        "area_lat": 32.746312,
        "area_lng": 129.887635
    },
    {
        "area_city_code": 42201,
        "area_city_name": "長崎市",
        "area_town_code": "422010032000",
        "area_town_name": "入船町",
        "area_lat": 32.745115,
        "area_lng": 129.845627
    },
    {
        "area_city_code": 42201,
        "area_city_name": "長崎市",
        "area_town_code": "422010033000",
        "area_town_name": "岩川町",
        "area_lat": 32.766636,
        "area_lng": 129.865469
    },
    {
        "area_city_code": 42201,
        "area_city_name": "長崎市",
        "area_town_code": "422010034000",
        "area_town_name": "岩瀬道町",
        "area_lat": 32.737828,
        "area_lng": 129.85458
    },
    {
        "area_city_code": 42201,
        "area_city_name": "長崎市",
        "area_town_code": "422010035000",
        "area_town_name": "岩見町",
        "area_lat": 32.767632,
        "area_lng": 129.853576
    },
    {
        "area_city_code": 42201,
        "area_city_name": "長崎市",
        "area_town_code": "422010036000",
        "area_town_name": "岩屋町",
        "area_lat": 32.797372,
        "area_lng": 129.846388
    },
    {
        "area_city_code": 42201,
        "area_city_name": "長崎市",
        "area_town_code": "422010037000",
        "area_town_name": "上田町",
        "area_lat": 32.732101,
        "area_lng": 129.871725
    },
    {
        "area_city_code": 42201,
        "area_city_name": "長崎市",
        "area_town_code": "422010038000",
        "area_town_name": "上野町",
        "area_lat": 32.778771,
        "area_lng": 129.867645
    },
    {
        "area_city_code": 42201,
        "area_city_name": "長崎市",
        "area_town_code": "422010039000",
        "area_town_name": "魚の町",
        "area_lat": 32.748659,
        "area_lng": 129.879922
    },
    {
        "area_city_code": 42201,
        "area_city_name": "長崎市",
        "area_town_code": "422010040000",
        "area_town_name": "現川町",
        "area_lat": 32.792212,
        "area_lng": 129.922377
    },
    {
        "area_city_code": 42201,
        "area_city_name": "長崎市",
        "area_town_code": "422010041000",
        "area_town_name": "馬町",
        "area_lat": 32.75238,
        "area_lng": 129.882487
    },
    {
        "area_city_code": 42201,
        "area_city_name": "長崎市",
        "area_town_code": "422010042000",
        "area_town_name": "梅香崎町",
        "area_lat": 32.739962,
        "area_lng": 129.874188
    },
    {
        "area_city_code": 42201,
        "area_city_name": "長崎市",
        "area_town_code": "422010043000",
        "area_town_name": "上町",
        "area_lat": 32.75158,
        "area_lng": 129.877757
    },
    {
        "area_city_code": 42201,
        "area_city_name": "長崎市",
        "area_town_code": "422010044000",
        "area_town_name": "江川町",
        "area_lat": 32.683239,
        "area_lng": 129.843166
    },
    {
        "area_city_code": 42201,
        "area_city_name": "長崎市",
        "area_town_code": "422010045000",
        "area_town_name": "江戸町",
        "area_lat": 32.744684,
        "area_lng": 129.87359
    },
    {
        "area_city_code": 42201,
        "area_city_name": "長崎市",
        "area_town_code": "422010046000",
        "area_town_name": "江の浦町",
        "area_lat": 32.751731,
        "area_lng": 129.856014
    },
    {
        "area_city_code": 42201,
        "area_city_name": "長崎市",
        "area_town_code": "422010047000",
        "area_town_name": "恵美須町",
        "area_lat": 32.750517,
        "area_lng": 129.874573
    },
    {
        "area_city_code": 42201,
        "area_city_name": "長崎市",
        "area_town_code": "422010048001",
        "area_town_name": "江平一丁目",
        "area_lat": 32.769839,
        "area_lng": 129.875238
    },
    {
        "area_city_code": 42201,
        "area_city_name": "長崎市",
        "area_town_code": "422010048002",
        "area_town_name": "江平二丁目",
        "area_lat": 32.773178,
        "area_lng": 129.873409
    },
    {
        "area_city_code": 42201,
        "area_city_name": "長崎市",
        "area_town_code": "422010048003",
        "area_town_name": "江平三丁目",
        "area_lat": 32.771652,
        "area_lng": 129.879712
    },
    {
        "area_city_code": 42201,
        "area_city_name": "長崎市",
        "area_town_code": "422010049000",
        "area_town_name": "エミネント葉山町",
        "area_lat": 32.801618,
        "area_lng": 129.844174
    },
    {
        "area_city_code": 42201,
        "area_city_name": "長崎市",
        "area_town_code": "422010050000",
        "area_town_name": "江里町",
        "area_lat": 32.780766,
        "area_lng": 129.858381
    },
    {
        "area_city_code": 42201,
        "area_city_name": "長崎市",
        "area_town_code": "422010051000",
        "area_town_name": "大井手町",
        "area_lat": 32.751074,
        "area_lng": 129.88257
    },
    {
        "area_city_code": 42201,
        "area_city_name": "長崎市",
        "area_town_code": "422010052000",
        "area_town_name": "大浦東町",
        "area_lat": 32.732743,
        "area_lng": 129.87341
    },
    {
        "area_city_code": 42201,
        "area_city_name": "長崎市",
        "area_town_code": "422010053000",
        "area_town_name": "大浦町",
        "area_lat": 32.736614,
        "area_lng": 129.871739
    },
    {
        "area_city_code": 42201,
        "area_city_name": "長崎市",
        "area_town_code": "422010054000",
        "area_town_name": "扇町",
        "area_lat": 32.784213,
        "area_lng": 129.868545
    },
    {
        "area_city_code": 42201,
        "area_city_name": "長崎市",
        "area_town_code": "422010055000",
        "area_town_name": "大籠町",
        "area_lat": 32.672195,
        "area_lng": 129.822768
    },
    {
        "area_city_code": 42201,
        "area_city_name": "長崎市",
        "area_town_code": "422010056000",
        "area_town_name": "大崎町",
        "area_lat": 32.672634,
        "area_lng": 129.890059
    },
    {
        "area_city_code": 42201,
        "area_city_name": "長崎市",
        "area_town_code": "422010057000",
        "area_town_name": "大園町",
        "area_lat": 32.804165,
        "area_lng": 129.839265
    },
    {
        "area_city_code": 42201,
        "area_city_name": "長崎市",
        "area_town_code": "422010058000",
        "area_town_name": "太田尾町",
        "area_lat": 32.735193,
        "area_lng": 129.936671
    },
    {
        "area_city_code": 42201,
        "area_city_name": "長崎市",
        "area_town_code": "422010059000",
        "area_town_name": "大谷町",
        "area_lat": 32.747068,
        "area_lng": 129.853987
    },
    {
        "area_city_code": 42201,
        "area_city_name": "長崎市",
        "area_town_code": "422010060001",
        "area_town_name": "大手一丁目",
        "area_lat": 32.790539,
        "area_lng": 129.873928
    },
    {
        "area_city_code": 42201,
        "area_city_name": "長崎市",
        "area_town_code": "422010060002",
        "area_town_name": "大手二丁目",
        "area_lat": 32.789093,
        "area_lng": 129.878188
    },
    {
        "area_city_code": 42201,
        "area_city_name": "長崎市",
        "area_town_code": "422010060003",
        "area_town_name": "大手三丁目",
        "area_lat": 32.792023,
        "area_lng": 129.877427
    },
    {
        "area_city_code": 42201,
        "area_city_name": "長崎市",
        "area_town_code": "422010061000",
        "area_town_name": "大鳥町",
        "area_lat": 32.748526,
        "area_lng": 129.858399
    },
    {
        "area_city_code": 42201,
        "area_city_name": "長崎市",
        "area_town_code": "422010062000",
        "area_town_name": "大橋町",
        "area_lat": 32.781701,
        "area_lng": 129.86259
    },
    {
        "area_city_code": 42201,
        "area_city_name": "長崎市",
        "area_town_code": "422010063000",
        "area_town_name": "大浜町",
        "area_lat": 32.750937,
        "area_lng": 129.839113
    },
    {
        "area_city_code": 42201,
        "area_city_name": "長崎市",
        "area_town_code": "422010064000",
        "area_town_name": "大宮町",
        "area_lat": 32.797912,
        "area_lng": 129.834088
    },
    {
        "area_city_code": 42201,
        "area_city_name": "長崎市",
        "area_town_code": "422010065000",
        "area_town_name": "大山町",
        "area_lat": 32.697046,
        "area_lng": 129.875056
    },
    {
        "area_city_code": 42201,
        "area_city_name": "長崎市",
        "area_town_code": "422010066000",
        "area_town_name": "岡町",
        "area_lat": 32.777407,
        "area_lng": 129.862856
    },
    {
        "area_city_code": 42201,
        "area_city_name": "長崎市",
        "area_town_code": "422010067000",
        "area_town_name": "桶屋町",
        "area_lat": 32.749621,
        "area_lng": 129.881191
    },
    {
        "area_city_code": 42201,
        "area_city_name": "長崎市",
        "area_town_code": "422010068000",
        "area_town_name": "音無町",
        "area_lat": 32.789335,
        "area_lng": 129.858324
    },
    {
        "area_city_code": 42201,
        "area_city_name": "長崎市",
        "area_town_code": "422010069000",
        "area_town_name": "尾上町",
        "area_lat": 32.752141,
        "area_lng": 129.868485
    },
    {
        "area_city_code": 42201,
        "area_city_name": "長崎市",
        "area_town_code": "422010070000",
        "area_town_name": "御船蔵町",
        "area_lat": 32.75744,
        "area_lng": 129.87161
    },
    {
        "area_city_code": 42201,
        "area_city_name": "長崎市",
        "area_town_code": "422010071001",
        "area_town_name": "かき道一丁目",
        "area_lat": 32.770821,
        "area_lng": 129.953788
    },
    {
        "area_city_code": 42201,
        "area_city_name": "長崎市",
        "area_town_code": "422010071002",
        "area_town_name": "かき道二丁目",
        "area_lat": 32.77304,
        "area_lng": 129.958367
    },
    {
        "area_city_code": 42201,
        "area_city_name": "長崎市",
        "area_town_code": "422010071003",
        "area_town_name": "かき道三丁目",
        "area_lat": 32.772107,
        "area_lng": 129.964266
    },
    {
        "area_city_code": 42201,
        "area_city_name": "長崎市",
        "area_town_code": "422010071004",
        "area_town_name": "かき道四丁目",
        "area_lat": 32.767754,
        "area_lng": 129.963702
    },
    {
        "area_city_code": 42201,
        "area_city_name": "長崎市",
        "area_town_code": "422010071005",
        "area_town_name": "かき道五丁目",
        "area_lat": 32.767953,
        "area_lng": 129.959804
    },
    {
        "area_city_code": 42201,
        "area_city_name": "長崎市",
        "area_town_code": "422010071006",
        "area_town_name": "かき道六丁目",
        "area_lat": 32.765325,
        "area_lng": 129.96082
    },
    {
        "area_city_code": 42201,
        "area_city_name": "長崎市",
        "area_town_code": "422010072000",
        "area_town_name": "籠町",
        "area_lat": 32.740852,
        "area_lng": 129.87648
    },
    {
        "area_city_code": 42201,
        "area_city_name": "長崎市",
        "area_town_code": "422010073000",
        "area_town_name": "風頭町",
        "area_lat": 32.742947,
        "area_lng": 129.888674
    },
    {
        "area_city_code": 42201,
        "area_city_name": "長崎市",
        "area_town_code": "422010074000",
        "area_town_name": "鍛冶屋町",
        "area_lat": 32.743031,
        "area_lng": 129.883124
    },
    {
        "area_city_code": 42201,
        "area_city_name": "長崎市",
        "area_town_code": "422010075000",
        "area_town_name": "樫山町",
        "area_lat": 32.812817,
        "area_lng": 129.737133
    },
    {
        "area_city_code": 42201,
        "area_city_name": "長崎市",
        "area_town_code": "422010076000",
        "area_town_name": "春日町",
        "area_lat": 32.743497,
        "area_lng": 129.951345
    },
    {
        "area_city_code": 42201,
        "area_city_name": "長崎市",
        "area_town_code": "422010077001",
        "area_town_name": "片淵一丁目",
        "area_lat": 32.754198,
        "area_lng": 129.886044
    },
    {
        "area_city_code": 42201,
        "area_city_name": "長崎市",
        "area_town_code": "422010077002",
        "area_town_name": "片淵二丁目",
        "area_lat": 32.756039,
        "area_lng": 129.887491
    },
    {
        "area_city_code": 42201,
        "area_city_name": "長崎市",
        "area_town_code": "422010077003",
        "area_town_name": "片淵三丁目",
        "area_lat": 32.761945,
        "area_lng": 129.892965
    },
    {
        "area_city_code": 42201,
        "area_city_name": "長崎市",
        "area_town_code": "422010077004",
        "area_town_name": "片淵四丁目",
        "area_lat": 32.761169,
        "area_lng": 129.889748
    },
    {
        "area_city_code": 42201,
        "area_city_name": "長崎市",
        "area_town_code": "422010077005",
        "area_town_name": "片淵五丁目",
        "area_lat": 32.767345,
        "area_lng": 129.892913
    },
    {
        "area_city_code": 42201,
        "area_city_name": "長崎市",
        "area_town_code": "422010078000",
        "area_town_name": "勝山町",
        "area_lat": 32.751081,
        "area_lng": 129.879854
    },
    {
        "area_city_code": 42201,
        "area_city_name": "長崎市",
        "area_town_code": "422010079000",
        "area_town_name": "金堀町",
        "area_lat": 32.774267,
        "area_lng": 129.844259
    },
    {
        "area_city_code": 42201,
        "area_city_name": "長崎市",
        "area_town_code": "422010080000",
        "area_town_name": "金屋町",
        "area_lat": 32.749069,
        "area_lng": 129.874641
    },
    {
        "area_city_code": 42201,
        "area_city_name": "長崎市",
        "area_town_code": "422010081000",
        "area_town_name": "鹿尾町",
        "area_lat": 32.68653,
        "area_lng": 129.866983
    },
    {
        "area_city_code": 42201,
        "area_city_name": "長崎市",
        "area_town_code": "422010082000",
        "area_town_name": "樺島町",
        "area_lat": 32.746391,
        "area_lng": 129.873147
    },
    {
        "area_city_code": 42201,
        "area_city_name": "長崎市",
        "area_town_code": "422010083000",
        "area_town_name": "上浦町",
        "area_lat": 32.788166,
        "area_lng": 129.817856
    },
    {
        "area_city_code": 42201,
        "area_city_name": "長崎市",
        "area_town_code": "422010084000",
        "area_town_name": "上大野町",
        "area_lat": 32.86739,
        "area_lng": 129.68311
    },
    {
        "area_city_code": 42201,
        "area_city_name": "長崎市",
        "area_town_code": "422010085000",
        "area_town_name": "上黒崎町",
        "area_lat": 32.849746,
        "area_lng": 129.724557
    },
    {
        "area_city_code": 42201,
        "area_city_name": "長崎市",
        "area_town_code": "422010086001",
        "area_town_name": "上小島一丁目",
        "area_lat": 32.7372,
        "area_lng": 129.884165
    },
    {
        "area_city_code": 42201,
        "area_city_name": "長崎市",
        "area_town_code": "422010086002",
        "area_town_name": "上小島二丁目",
        "area_lat": 32.736016,
        "area_lng": 129.886287
    },
    {
        "area_city_code": 42201,
        "area_city_name": "長崎市",
        "area_town_code": "422010086003",
        "area_town_name": "上小島三丁目",
        "area_lat": 32.732919,
        "area_lng": 129.88796
    },
    {
        "area_city_code": 42201,
        "area_city_name": "長崎市",
        "area_town_code": "422010086004",
        "area_town_name": "上小島四丁目",
        "area_lat": 32.732388,
        "area_lng": 129.885338
    },
    {
        "area_city_code": 42201,
        "area_city_name": "長崎市",
        "area_town_code": "422010086005",
        "area_town_name": "上小島五丁目",
        "area_lat": 32.728766,
        "area_lng": 129.88815
    },
    {
        "area_city_code": 42201,
        "area_city_name": "長崎市",
        "area_town_code": "422010087000",
        "area_town_name": "上銭座町",
        "area_lat": 32.763617,
        "area_lng": 129.869481
    },
    {
        "area_city_code": 42201,
        "area_city_name": "長崎市",
        "area_town_code": "422010088000",
        "area_town_name": "上戸石町",
        "area_lat": 32.778166,
        "area_lng": 129.973074
    },
    {
        "area_city_code": 42201,
        "area_city_name": "長崎市",
        "area_town_code": "422010089000",
        "area_town_name": "上戸町",
        "area_lat": 32.7235,
        "area_lng": 129.870261
    },
    {
        "area_city_code": 42201,
        "area_city_name": "長崎市",
        "area_town_code": "422010090001",
        "area_town_name": "上戸町一丁目",
        "area_lat": 32.717985,
        "area_lng": 129.868747
    },
    {
        "area_city_code": 42201,
        "area_city_name": "長崎市",
        "area_town_code": "422010090002",
        "area_town_name": "上戸町二丁目",
        "area_lat": 32.715715,
        "area_lng": 129.867638
    },
    {
        "area_city_code": 42201,
        "area_city_name": "長崎市",
        "area_town_code": "422010090003",
        "area_town_name": "上戸町三丁目",
        "area_lat": 32.716567,
        "area_lng": 129.870097
    },
    {
        "area_city_code": 42201,
        "area_city_name": "長崎市",
        "area_town_code": "422010090004",
        "area_town_name": "上戸町四丁目",
        "area_lat": 32.707545,
        "area_lng": 129.883174
    },
    {
        "area_city_code": 42201,
        "area_city_name": "長崎市",
        "area_town_code": "422010091000",
        "area_town_name": "上西山町",
        "area_lat": 32.75499,
        "area_lng": 129.883802
    },
    {
        "area_city_code": 42201,
        "area_city_name": "長崎市",
        "area_town_code": "422010092001",
        "area_town_name": "神ノ島町一丁目",
        "area_lat": 32.725877,
        "area_lng": 129.828471
    },
    {
        "area_city_code": 42201,
        "area_city_name": "長崎市",
        "area_town_code": "422010092003",
        "area_town_name": "神ノ島町三丁目",
        "area_lat": 32.723141,
        "area_lng": 129.823215
    },
    {
        "area_city_code": 42201,
        "area_city_name": "長崎市",
        "area_town_code": "422010093000",
        "area_town_name": "川上町",
        "area_lat": 32.72789,
        "area_lng": 129.878
    },
    {
        "area_city_code": 42201,
        "area_city_name": "長崎市",
        "area_town_code": "422010094000",
        "area_town_name": "川口町",
        "area_lat": 32.767966,
        "area_lng": 129.863549
    },
    {
        "area_city_code": 42201,
        "area_city_name": "長崎市",
        "area_town_code": "422010095000",
        "area_town_name": "川内町",
        "area_lat": 32.780078,
        "area_lng": 129.986953
    },
    {
        "area_city_code": 42201,
        "area_city_name": "長崎市",
        "area_town_code": "422010096000",
        "area_town_name": "川平町",
        "area_lat": 32.801392,
        "area_lng": 129.890218
    },
    {
        "area_city_code": 42201,
        "area_city_name": "長崎市",
        "area_town_code": "422010097000",
        "area_town_name": "川原町",
        "area_lat": 32.631627,
        "area_lng": 129.822863
    },
    {
        "area_city_code": 42201,
        "area_city_name": "長崎市",
        "area_town_code": "422010098000",
        "area_town_name": "館内町",
        "area_lat": 32.738959,
        "area_lng": 129.877078
    },
    {
        "area_city_code": 42201,
        "area_city_name": "長崎市",
        "area_town_code": "422010099000",
        "area_town_name": "北浦町",
        "area_lat": 32.718165,
        "area_lng": 129.91384
    },
    {
        "area_city_code": 42201,
        "area_city_name": "長崎市",
        "area_town_code": "422010100001",
        "area_town_name": "木鉢町一丁目",
        "area_lat": 32.724875,
        "area_lng": 129.842289
    },
    {
        "area_city_code": 42201,
        "area_city_name": "長崎市",
        "area_town_code": "422010100002",
        "area_town_name": "木鉢町二丁目",
        "area_lat": 32.73362,
        "area_lng": 129.840848
    },
    {
        "area_city_code": 42201,
        "area_city_name": "長崎市",
        "area_town_code": "422010101000",
        "area_town_name": "京太郎町",
        "area_lat": 32.691974,
        "area_lng": 129.853951
    },
    {
        "area_city_code": 42201,
        "area_city_name": "長崎市",
        "area_town_code": "422010102001",
        "area_town_name": "京泊一丁目",
        "area_lat": 32.828452,
        "area_lng": 129.774028
    },
    {
        "area_city_code": 42201,
        "area_city_name": "長崎市",
        "area_town_code": "422010102002",
        "area_town_name": "京泊二丁目",
        "area_lat": 32.822244,
        "area_lng": 129.774635
    },
    {
        "area_city_code": 42201,
        "area_city_name": "長崎市",
        "area_town_code": "422010102003",
        "area_town_name": "京泊三丁目",
        "area_lat": 32.823151,
        "area_lng": 129.767628
    },
    {
        "area_city_code": 42201,
        "area_city_name": "長崎市",
        "area_town_code": "422010103000",
        "area_town_name": "琴海大平町",
        "area_lat": 32.958773,
        "area_lng": 129.799611
    },
    {
        "area_city_code": 42201,
        "area_city_name": "長崎市",
        "area_town_code": "422010104000",
        "area_town_name": "琴海尾戸町",
        "area_lat": 32.935656,
        "area_lng": 129.80703
    },
    {
        "area_city_code": 42201,
        "area_city_name": "長崎市",
        "area_town_code": "422010105000",
        "area_town_name": "琴海形上町",
        "area_lat": 32.943932,
        "area_lng": 129.762448
    },
    {
        "area_city_code": 42201,
        "area_city_name": "長崎市",
        "area_town_code": "422010106000",
        "area_town_name": "琴海戸根原町",
        "area_lat": 32.903196,
        "area_lng": 129.798386
    },
    {
        "area_city_code": 42201,
        "area_city_name": "長崎市",
        "area_town_code": "422010107000",
        "area_town_name": "琴海戸根町",
        "area_lat": 32.894895,
        "area_lng": 129.764636
    },
    {
        "area_city_code": 42201,
        "area_city_name": "長崎市",
        "area_town_code": "422010108000",
        "area_town_name": "琴海村松町",
        "area_lat": 32.875931,
        "area_lng": 129.776853
    },
    {
        "area_city_code": 42201,
        "area_city_name": "長崎市",
        "area_town_code": "422010109000",
        "area_town_name": "銀屋町",
        "area_lat": 32.745903,
        "area_lng": 129.880844
    },
    {
        "area_city_code": 42201,
        "area_city_name": "長崎市",
        "area_town_code": "422010110000",
        "area_town_name": "草住町",
        "area_lat": 32.688719,
        "area_lng": 129.848937
    },
    {
        "area_city_code": 42201,
        "area_city_name": "長崎市",
        "area_town_code": "422010111000",
        "area_town_name": "黒浜町",
        "area_lat": 32.631165,
        "area_lng": 129.801553
    },
    {
        "area_city_code": 42201,
        "area_city_name": "長崎市",
        "area_town_code": "422010112000",
        "area_town_name": "毛井首町",
        "area_lat": 32.692474,
        "area_lng": 129.838088
    },
    {
        "area_city_code": 42201,
        "area_city_name": "長崎市",
        "area_town_code": "422010113000",
        "area_town_name": "けやき台町",
        "area_lat": 32.796701,
        "area_lng": 129.879673
    },
    {
        "area_city_code": 42201,
        "area_city_name": "長崎市",
        "area_town_code": "422010114000",
        "area_town_name": "麹屋町",
        "area_lat": 32.748821,
        "area_lng": 129.883267
    },
    {
        "area_city_code": 42201,
        "area_city_name": "長崎市",
        "area_town_code": "422010115000",
        "area_town_name": "興善町",
        "area_lat": 32.748794,
        "area_lng": 129.876546
    },
    {
        "area_city_code": 42201,
        "area_city_name": "長崎市",
        "area_town_code": "422010116000",
        "area_town_name": "神浦江川町",
        "area_lat": 32.881164,
        "area_lng": 129.681588
    },
    {
        "area_city_code": 42201,
        "area_city_name": "長崎市",
        "area_town_code": "422010117000",
        "area_town_name": "神浦扇山町",
        "area_lat": 32.891664,
        "area_lng": 129.728013
    },
    {
        "area_city_code": 42201,
        "area_city_name": "長崎市",
        "area_town_code": "422010118000",
        "area_town_name": "神浦上大中尾町",
        "area_lat": 32.893149,
        "area_lng": 129.708356
    },
    {
        "area_city_code": 42201,
        "area_city_name": "長崎市",
        "area_town_code": "422010119000",
        "area_town_name": "神浦上道徳町",
        "area_lat": 32.888038,
        "area_lng": 129.682478
    },
    {
        "area_city_code": 42201,
        "area_city_name": "長崎市",
        "area_town_code": "422010120000",
        "area_town_name": "神浦北大中尾町",
        "area_lat": 32.894035,
        "area_lng": 129.698306
    },
    {
        "area_city_code": 42201,
        "area_city_name": "長崎市",
        "area_town_code": "422010121000",
        "area_town_name": "神浦口福町",
        "area_lat": 32.895536,
        "area_lng": 129.678799
    },
    {
        "area_city_code": 42201,
        "area_city_name": "長崎市",
        "area_town_code": "422010122000",
        "area_town_name": "神浦下大中尾町",
        "area_lat": 32.877183,
        "area_lng": 129.725391
    },
    {
        "area_city_code": 42201,
        "area_city_name": "長崎市",
        "area_town_code": "422010123000",
        "area_town_name": "神浦下道徳町",
        "area_lat": 32.886625,
        "area_lng": 129.675497
    },
    {
        "area_city_code": 42201,
        "area_city_name": "長崎市",
        "area_town_code": "422010124000",
        "area_town_name": "神浦夏井町",
        "area_lat": 32.873443,
        "area_lng": 129.68161
    },
    {
        "area_city_code": 42201,
        "area_city_name": "長崎市",
        "area_town_code": "422010125000",
        "area_town_name": "神浦丸尾町",
        "area_lat": 32.883402,
        "area_lng": 129.686182
    },
    {
        "area_city_code": 42201,
        "area_city_name": "長崎市",
        "area_town_code": "422010126000",
        "area_town_name": "神浦向町",
        "area_lat": 32.872238,
        "area_lng": 129.703919
    },
    {
        "area_city_code": 42201,
        "area_city_name": "長崎市",
        "area_town_code": "422010127000",
        "area_town_name": "香焼町",
        "area_lat": 32.693089,
        "area_lng": 129.816611
    },
    {
        "area_city_code": 42201,
        "area_city_name": "長崎市",
        "area_town_code": "422010128000",
        "area_town_name": "小浦町",
        "area_lat": 32.756614,
        "area_lng": 129.829495
    },
    {
        "area_city_code": 42201,
        "area_city_name": "長崎市",
        "area_town_code": "422010129001",
        "area_town_name": "小江原一丁目",
        "area_lat": 32.787118,
        "area_lng": 129.837022
    },
    {
        "area_city_code": 42201,
        "area_city_name": "長崎市",
        "area_town_code": "422010129002",
        "area_town_name": "小江原二丁目",
        "area_lat": 32.779058,
        "area_lng": 129.838712
    },
    {
        "area_city_code": 42201,
        "area_city_name": "長崎市",
        "area_town_code": "422010129003",
        "area_town_name": "小江原三丁目",
        "area_lat": 32.779452,
        "area_lng": 129.832468
    },
    {
        "area_city_code": 42201,
        "area_city_name": "長崎市",
        "area_town_code": "422010129004",
        "area_town_name": "小江原四丁目",
        "area_lat": 32.782256,
        "area_lng": 129.830864
    },
    {
        "area_city_code": 42201,
        "area_city_name": "長崎市",
        "area_town_code": "422010129005",
        "area_town_name": "小江原五丁目",
        "area_lat": 32.784525,
        "area_lng": 129.827372
    },
    {
        "area_city_code": 42201,
        "area_city_name": "長崎市",
        "area_town_code": "422010130000",
        "area_town_name": "小江町",
        "area_lat": 32.765257,
        "area_lng": 129.816433
    },
    {
        "area_city_code": 42201,
        "area_city_name": "長崎市",
        "area_town_code": "422010131001",
        "area_town_name": "小ケ倉町一丁目",
        "area_lat": 32.709472,
        "area_lng": 129.853141
    },
    {
        "area_city_code": 42201,
        "area_city_name": "長崎市",
        "area_town_code": "422010131002",
        "area_town_name": "小ケ倉町二丁目",
        "area_lat": 32.705347,
        "area_lng": 129.852917
    },
    {
        "area_city_code": 42201,
        "area_city_name": "長崎市",
        "area_town_code": "422010131003",
        "area_town_name": "小ケ倉町三丁目",
        "area_lat": 32.703028,
        "area_lng": 129.846796
    },
    {
        "area_city_code": 42201,
        "area_city_name": "長崎市",
        "area_town_code": "422010132000",
        "area_town_name": "古賀町",
        "area_lat": 32.80494,
        "area_lng": 129.957236
    },
    {
        "area_city_code": 42201,
        "area_city_name": "長崎市",
        "area_town_code": "422010133000",
        "area_town_name": "国分町",
        "area_lat": 32.725995,
        "area_lng": 129.858865
    },
    {
        "area_city_code": 42201,
        "area_city_name": "長崎市",
        "area_town_code": "422010134000",
        "area_town_name": "小菅町",
        "area_lat": 32.726106,
        "area_lng": 129.864493
    },
    {
        "area_city_code": 42201,
        "area_city_name": "長崎市",
        "area_town_code": "422010135000",
        "area_town_name": "小瀬戸町",
        "area_lat": 32.72684,
        "area_lng": 129.834553
    },
    {
        "area_city_code": 42201,
        "area_city_name": "長崎市",
        "area_town_code": "422010136000",
        "area_town_name": "小曽根町",
        "area_lat": 32.734088,
        "area_lng": 129.866621
    },
    {
        "area_city_code": 42201,
        "area_city_name": "長崎市",
        "area_town_code": "422010137000",
        "area_town_name": "五島町",
        "area_lat": 32.748799,
        "area_lng": 129.87309
    },
    {
        "area_city_code": 42201,
        "area_city_name": "長崎市",
        "area_town_code": "422010138000",
        "area_town_name": "木場町",
        "area_lat": 32.773034,
        "area_lng": 129.903794
    },
    {
        "area_city_code": 42201,
        "area_city_name": "長崎市",
        "area_town_code": "422010139000",
        "area_town_name": "小峰町",
        "area_lat": 32.781747,
        "area_lng": 129.872292
    },
    {
        "area_city_code": 42201,
        "area_city_name": "長崎市",
        "area_town_code": "422010140000",
        "area_town_name": "米山町",
        "area_lat": 32.69032,
        "area_lng": 129.844477
    },
    {
        "area_city_code": 42201,
        "area_city_name": "長崎市",
        "area_town_code": "422010141000",
        "area_town_name": "幸町",
        "area_lat": 32.757288,
        "area_lng": 129.865199
    },
    {
        "area_city_code": 42201,
        "area_city_name": "長崎市",
        "area_town_code": "422010142000",
        "area_town_name": "竿浦町",
        "area_lat": 32.674506,
        "area_lng": 129.839886
    },
    {
        "area_city_code": 42201,
        "area_city_name": "長崎市",
        "area_town_code": "422010143001",
        "area_town_name": "界一丁目",
        "area_lat": 32.752766,
        "area_lng": 129.933647
    },
    {
        "area_city_code": 42201,
        "area_city_name": "長崎市",
        "area_town_code": "422010143002",
        "area_town_name": "界二丁目",
        "area_lat": 32.755279,
        "area_lng": 129.940767
    },
    {
        "area_city_code": 42201,
        "area_city_name": "長崎市",
        "area_town_code": "422010144000",
        "area_town_name": "栄町",
        "area_lat": 32.747575,
        "area_lng": 129.878208
    },
    {
        "area_city_code": 42201,
        "area_city_name": "長崎市",
        "area_town_code": "422010145001",
        "area_town_name": "坂本一丁目",
        "area_lat": 32.770214,
        "area_lng": 129.868548
    },
    {
        "area_city_code": 42201,
        "area_city_name": "長崎市",
        "area_town_code": "422010145002",
        "area_town_name": "坂本二丁目",
        "area_lat": 32.766186,
        "area_lng": 129.872192
    },
    {
        "area_city_code": 42201,
        "area_city_name": "長崎市",
        "area_town_code": "422010145003",
        "area_town_name": "坂本三丁目",
        "area_lat": 32.769723,
        "area_lng": 129.871657
    },
    {
        "area_city_code": 42201,
        "area_city_name": "長崎市",
        "area_town_code": "422010146000",
        "area_town_name": "桜木町",
        "area_lat": 32.729536,
        "area_lng": 129.890919
    },
    {
        "area_city_code": 42201,
        "area_city_name": "長崎市",
        "area_town_code": "422010147001",
        "area_town_name": "さくらの里一丁目",
        "area_lat": 32.832276,
        "area_lng": 129.771313
    },
    {
        "area_city_code": 42201,
        "area_city_name": "長崎市",
        "area_town_code": "422010147002",
        "area_town_name": "さくらの里二丁目",
        "area_lat": 32.832283,
        "area_lng": 129.765039
    },
    {
        "area_city_code": 42201,
        "area_city_name": "長崎市",
        "area_town_code": "422010147003",
        "area_town_name": "さくらの里三丁目",
        "area_lat": 32.827235,
        "area_lng": 129.760708
    },
    {
        "area_city_code": 42201,
        "area_city_name": "長崎市",
        "area_town_code": "422010148001",
        "area_town_name": "桜馬場一丁目",
        "area_lat": 32.752809,
        "area_lng": 129.888296
    },
    {
        "area_city_code": 42201,
        "area_city_name": "長崎市",
        "area_town_code": "422010148002",
        "area_town_name": "桜馬場二丁目",
        "area_lat": 32.753548,
        "area_lng": 129.890845
    },
    {
        "area_city_code": 42201,
        "area_city_name": "長崎市",
        "area_town_code": "422010149000",
        "area_town_name": "桜町",
        "area_lat": 32.749966,
        "area_lng": 129.878143
    },
    {
        "area_city_code": 42201,
        "area_city_name": "長崎市",
        "area_town_code": "422010150000",
        "area_town_name": "三京町",
        "area_lat": 32.834407,
        "area_lng": 129.759198
    },
    {
        "area_city_code": 42201,
        "area_city_name": "長崎市",
        "area_town_code": "422010151000",
        "area_town_name": "三景台町",
        "area_lat": 32.726474,
        "area_lng": 129.896647
    },
    {
        "area_city_code": 42201,
        "area_city_name": "長崎市",
        "area_town_code": "422010152000",
        "area_town_name": "三和町",
        "area_lat": 32.693454,
        "area_lng": 129.849317
    },
    {
        "area_city_code": 42201,
        "area_city_name": "長崎市",
        "area_town_code": "422010153000",
        "area_town_name": "椎の木町",
        "area_lat": 32.728725,
        "area_lng": 129.88068
    },
    {
        "area_city_code": 42201,
        "area_city_name": "長崎市",
        "area_town_code": "422010154000",
        "area_town_name": "塩浜町",
        "area_lat": 32.740856,
        "area_lng": 129.850326
    },
    {
        "area_city_code": 42201,
        "area_city_name": "長崎市",
        "area_town_code": "422010155000",
        "area_town_name": "潮見町",
        "area_lat": 32.74056,
        "area_lng": 129.942709
    },
    {
        "area_city_code": 42201,
        "area_city_name": "長崎市",
        "area_town_code": "422010156000",
        "area_town_name": "式見町",
        "area_lat": 32.787626,
        "area_lng": 129.790831
    },
    {
        "area_city_code": 42201,
        "area_city_name": "長崎市",
        "area_town_code": "422010157000",
        "area_town_name": "下町",
        "area_lat": 32.734267,
        "area_lng": 129.873306
    },
    {
        "area_city_code": 42201,
        "area_city_name": "長崎市",
        "area_town_code": "422010158000",
        "area_town_name": "清水町",
        "area_lat": 32.78593,
        "area_lng": 129.859154
    },
    {
        "area_city_code": 42201,
        "area_city_name": "長崎市",
        "area_town_code": "422010159000",
        "area_town_name": "下大野町",
        "area_lat": 32.860899,
        "area_lng": 129.690009
    },
    {
        "area_city_code": 42201,
        "area_city_name": "長崎市",
        "area_town_code": "422010160000",
        "area_town_name": "下黒崎町",
        "area_lat": 32.83878,
        "area_lng": 129.711627
    },
    {
        "area_city_code": 42201,
        "area_city_name": "長崎市",
        "area_town_code": "422010161000",
        "area_town_name": "下西山町",
        "area_lat": 32.755804,
        "area_lng": 129.885534
    },
    {
        "area_city_code": 42201,
        "area_city_name": "長崎市",
        "area_town_code": "422010162000",
        "area_town_name": "十人町",
        "area_lat": 32.738801,
        "area_lng": 129.875153
    },
    {
        "area_city_code": 42201,
        "area_city_name": "長崎市",
        "area_town_code": "422010163000",
        "area_town_name": "宿町",
        "area_lat": 32.763263,
        "area_lng": 129.934806
    },
    {
        "area_city_code": 42201,
        "area_city_name": "長崎市",
        "area_town_code": "422010164000",
        "area_town_name": "城栄町",
        "area_lat": 32.776573,
        "area_lng": 129.856031
    },
    {
        "area_city_code": 42201,
        "area_city_name": "長崎市",
        "area_town_code": "422010165001",
        "area_town_name": "昭和一丁目",
        "area_lat": 32.791113,
        "area_lng": 129.867518
    },
    {
        "area_city_code": 42201,
        "area_city_name": "長崎市",
        "area_town_code": "422010165002",
        "area_town_name": "昭和二丁目",
        "area_lat": 32.793244,
        "area_lng": 129.870802
    },
    {
        "area_city_code": 42201,
        "area_city_name": "長崎市",
        "area_town_code": "422010165003",
        "area_town_name": "昭和三丁目",
        "area_lat": 32.798279,
        "area_lng": 129.872653
    },
    {
        "area_city_code": 42201,
        "area_city_name": "長崎市",
        "area_town_code": "422010166000",
        "area_town_name": "白鳥町",
        "area_lat": 32.7861,
        "area_lng": 129.855551
    },
    {
        "area_city_code": 42201,
        "area_city_name": "長崎市",
        "area_town_code": "422010167000",
        "area_town_name": "白木町",
        "area_lat": 32.740854,
        "area_lng": 129.898677
    },
    {
        "area_city_code": 42201,
        "area_city_name": "長崎市",
        "area_town_code": "422010168001",
        "area_town_name": "城山台一丁目",
        "area_lat": 32.770583,
        "area_lng": 129.842943
    },
    {
        "area_city_code": 42201,
        "area_city_name": "長崎市",
        "area_town_code": "422010168002",
        "area_town_name": "城山台二丁目",
        "area_lat": 32.772293,
        "area_lng": 129.837032
    },
    {
        "area_city_code": 42201,
        "area_city_name": "長崎市",
        "area_town_code": "422010169000",
        "area_town_name": "城山町",
        "area_lat": 32.772602,
        "area_lng": 129.857962
    },
    {
        "area_city_code": 42201,
        "area_city_name": "長崎市",
        "area_town_code": "422010170001",
        "area_town_name": "新小が倉一丁目",
        "area_lat": 32.708518,
        "area_lng": 129.859459
    },
    {
        "area_city_code": 42201,
        "area_city_name": "長崎市",
        "area_town_code": "422010170002",
        "area_town_name": "新小が倉二丁目",
        "area_lat": 32.70816,
        "area_lng": 129.861974
    },
    {
        "area_city_code": 42201,
        "area_city_name": "長崎市",
        "area_town_code": "422010171000",
        "area_town_name": "新大工町",
        "area_lat": 32.752809,
        "area_lng": 129.885753
    },
    {
        "area_city_code": 42201,
        "area_city_name": "長崎市",
        "area_town_code": "422010172000",
        "area_town_name": "新地町",
        "area_lat": 32.741123,
        "area_lng": 129.874551
    },
    {
        "area_city_code": 42201,
        "area_city_name": "長崎市",
        "area_town_code": "422010173001",
        "area_town_name": "新戸町一丁目",
        "area_lat": 32.712822,
        "area_lng": 129.860792
    },
    {
        "area_city_code": 42201,
        "area_city_name": "長崎市",
        "area_town_code": "422010173002",
        "area_town_name": "新戸町二丁目",
        "area_lat": 32.712588,
        "area_lng": 129.865956
    },
    {
        "area_city_code": 42201,
        "area_city_name": "長崎市",
        "area_town_code": "422010173003",
        "area_town_name": "新戸町三丁目",
        "area_lat": 32.707258,
        "area_lng": 129.873319
    },
    {
        "area_city_code": 42201,
        "area_city_name": "長崎市",
        "area_town_code": "422010173004",
        "area_town_name": "新戸町四丁目",
        "area_lat": 32.7114,
        "area_lng": 129.871981
    },
    {
        "area_city_code": 42201,
        "area_city_name": "長崎市",
        "area_town_code": "422010174000",
        "area_town_name": "新中川町",
        "area_lat": 32.751308,
        "area_lng": 129.889924
    },
    {
        "area_city_code": 42201,
        "area_city_name": "長崎市",
        "area_town_code": "422010175000",
        "area_town_name": "新牧野町",
        "area_lat": 32.859859,
        "area_lng": 129.715822
    },
    {
        "area_city_code": 42201,
        "area_city_name": "長崎市",
        "area_town_code": "422010176000",
        "area_town_name": "末石町",
        "area_lat": 32.683354,
        "area_lng": 129.837585
    },
    {
        "area_city_code": 42201,
        "area_city_name": "長崎市",
        "area_town_code": "422010177000",
        "area_town_name": "芒塚町",
        "area_lat": 32.752985,
        "area_lng": 129.927741
    },
    {
        "area_city_code": 42201,
        "area_city_name": "長崎市",
        "area_town_code": "422010178000",
        "area_town_name": "住吉台町",
        "area_lat": 32.795703,
        "area_lng": 129.859107
    },
    {
        "area_city_code": 42201,
        "area_city_name": "長崎市",
        "area_town_code": "422010179000",
        "area_town_name": "住吉町",
        "area_lat": 32.792992,
        "area_lng": 129.860398
    },
    {
        "area_city_code": 42201,
        "area_city_name": "長崎市",
        "area_town_code": "422010180000",
        "area_town_name": "諏訪町",
        "area_lat": 32.747179,
        "area_lng": 129.881531
    },
    {
        "area_city_code": 42201,
        "area_city_name": "長崎市",
        "area_town_code": "422010181000",
        "area_town_name": "銭座町",
        "area_lat": 32.761156,
        "area_lng": 129.868111
    },
    {
        "area_city_code": 42201,
        "area_city_name": "長崎市",
        "area_town_code": "422010182000",
        "area_town_name": "園田町",
        "area_lat": 32.797127,
        "area_lng": 129.811427
    },
    {
        "area_city_code": 42201,
        "area_city_name": "長崎市",
        "area_town_code": "422010183000",
        "area_town_name": "大黒町",
        "area_lat": 32.752149,
        "area_lng": 129.872589
    },
    {
        "area_city_code": 42201,
        "area_city_name": "長崎市",
        "area_town_code": "422010184001",
        "area_town_name": "ダイヤランド一丁目",
        "area_lat": 32.703943,
        "area_lng": 129.863482
    },
    {
        "area_city_code": 42201,
        "area_city_name": "長崎市",
        "area_town_code": "422010184002",
        "area_town_name": "ダイヤランド二丁目",
        "area_lat": 32.703924,
        "area_lng": 129.858088
    },
    {
        "area_city_code": 42201,
        "area_city_name": "長崎市",
        "area_town_code": "422010184003",
        "area_town_name": "ダイヤランド三丁目",
        "area_lat": 32.700941,
        "area_lng": 129.854156
    },
    {
        "area_city_code": 42201,
        "area_city_name": "長崎市",
        "area_town_code": "422010184004",
        "area_town_name": "ダイヤランド四丁目",
        "area_lat": 32.698958,
        "area_lng": 129.856608
    },
    {
        "area_city_code": 42201,
        "area_city_name": "長崎市",
        "area_town_code": "422010185000",
        "area_town_name": "多以良町",
        "area_lat": 32.813948,
        "area_lng": 129.779095
    },
    {
        "area_city_code": 42201,
        "area_city_name": "長崎市",
        "area_town_code": "422010186001",
        "area_town_name": "高丘一丁目",
        "area_lat": 32.732652,
        "area_lng": 129.879459
    },
    {
        "area_city_code": 42201,
        "area_city_name": "長崎市",
        "area_town_code": "422010186002",
        "area_town_name": "高丘二丁目",
        "area_lat": 32.732524,
        "area_lng": 129.882087
    },
    {
        "area_city_code": 42201,
        "area_city_name": "長崎市",
        "area_town_code": "422010187000",
        "area_town_name": "高尾町",
        "area_lat": 32.778313,
        "area_lng": 129.874709
    },
    {
        "area_city_code": 42201,
        "area_city_name": "長崎市",
        "area_town_code": "422010188000",
        "area_town_name": "高島町",
        "area_lat": 32.65791,
        "area_lng": 129.752881
    },
    {
        "area_city_code": 42201,
        "area_city_name": "長崎市",
        "area_town_code": "422010189001",
        "area_town_name": "高城台一丁目",
        "area_lat": 32.776834,
        "area_lng": 129.947733
    },
    {
        "area_city_code": 42201,
        "area_city_name": "長崎市",
        "area_town_code": "422010189002",
        "area_town_name": "高城台二丁目",
        "area_lat": 32.778782,
        "area_lng": 129.943324
    },
    {
        "area_city_code": 42201,
        "area_city_name": "長崎市",
        "area_town_code": "422010190000",
        "area_town_name": "高浜町",
        "area_lat": 32.601542,
        "area_lng": 129.786111
    },
    {
        "area_city_code": 42201,
        "area_city_name": "長崎市",
        "area_town_code": "422010191000",
        "area_town_name": "高平町",
        "area_lat": 32.741682,
        "area_lng": 129.885728
    },
    {
        "area_city_code": 42201,
        "area_city_name": "長崎市",
        "area_town_code": "422010192001",
        "area_town_name": "田上一丁目",
        "area_lat": 32.72353,
        "area_lng": 129.895604
    },
    {
        "area_city_code": 42201,
        "area_city_name": "長崎市",
        "area_town_code": "422010192002",
        "area_town_name": "田上二丁目",
        "area_lat": 32.725632,
        "area_lng": 129.886515
    },
    {
        "area_city_code": 42201,
        "area_city_name": "長崎市",
        "area_town_code": "422010192003",
        "area_town_name": "田上三丁目",
        "area_lat": 32.721901,
        "area_lng": 129.891423
    },
    {
        "area_city_code": 42201,
        "area_city_name": "長崎市",
        "area_town_code": "422010192004",
        "area_town_name": "田上四丁目",
        "area_lat": 32.722052,
        "area_lng": 129.886506
    },
    {
        "area_city_code": 42201,
        "area_city_name": "長崎市",
        "area_town_code": "422010193000",
        "area_town_name": "宝町",
        "area_lat": 32.758753,
        "area_lng": 129.867549
    },
    {
        "area_city_code": 42201,
        "area_city_name": "長崎市",
        "area_town_code": "422010194000",
        "area_town_name": "竹の久保町",
        "area_lat": 32.765971,
        "area_lng": 129.859931
    },
    {
        "area_city_code": 42201,
        "area_city_name": "長崎市",
        "area_town_code": "422010195000",
        "area_town_name": "立岩町",
        "area_lat": 32.76487,
        "area_lng": 129.845998
    },
    {
        "area_city_code": 42201,
        "area_city_name": "長崎市",
        "area_town_code": "422010196001",
        "area_town_name": "立山一丁目",
        "area_lat": 32.754768,
        "area_lng": 129.88004
    },
    {
        "area_city_code": 42201,
        "area_city_name": "長崎市",
        "area_town_code": "422010196002",
        "area_town_name": "立山二丁目",
        "area_lat": 32.754588,
        "area_lng": 129.877009
    },
    {
        "area_city_code": 42201,
        "area_city_name": "長崎市",
        "area_town_code": "422010196003",
        "area_town_name": "立山三丁目",
        "area_lat": 32.756875,
        "area_lng": 129.878054
    },
    {
        "area_city_code": 42201,
        "area_city_name": "長崎市",
        "area_town_code": "422010196004",
        "area_town_name": "立山四丁目",
        "area_lat": 32.756924,
        "area_lng": 129.879547
    },
    {
        "area_city_code": 42201,
        "area_city_name": "長崎市",
        "area_town_code": "422010196005",
        "area_town_name": "立山五丁目",
        "area_lat": 32.760687,
        "area_lng": 129.878234
    },
    {
        "area_city_code": 42201,
        "area_city_name": "長崎市",
        "area_town_code": "422010197000",
        "area_town_name": "田手原町",
        "area_lat": 32.74073,
        "area_lng": 129.911085
    },
    {
        "area_city_code": 42201,
        "area_city_name": "長崎市",
        "area_town_code": "422010198000",
        "area_town_name": "田中町",
        "area_lat": 32.771125,
        "area_lng": 129.931912
    },
    {
        "area_city_code": 42201,
        "area_city_name": "長崎市",
        "area_town_code": "422010199000",
        "area_town_name": "玉園町",
        "area_lat": 32.752661,
        "area_lng": 129.87765
    },
    {
        "area_city_code": 42201,
        "area_city_name": "長崎市",
        "area_town_code": "422010200000",
        "area_town_name": "為石町",
        "area_lat": 32.644865,
        "area_lng": 129.839972
    },
    {
        "area_city_code": 42201,
        "area_city_name": "長崎市",
        "area_town_code": "422010201000",
        "area_town_name": "筑後町",
        "area_lat": 32.753445,
        "area_lng": 129.874457
    },
    {
        "area_city_code": 42201,
        "area_city_name": "長崎市",
        "area_town_code": "422010202000",
        "area_town_name": "千々町",
        "area_lat": 32.661974,
        "area_lng": 129.87149
    },
    {
        "area_city_code": 42201,
        "area_city_name": "長崎市",
        "area_town_code": "422010203000",
        "area_town_name": "千歳町",
        "area_lat": 32.789787,
        "area_lng": 129.86226
    },
    {
        "area_city_code": 42201,
        "area_city_name": "長崎市",
        "area_town_code": "422010204000",
        "area_town_name": "築町",
        "area_lat": 32.745168,
        "area_lng": 129.876104
    },
    {
        "area_city_code": 42201,
        "area_city_name": "長崎市",
        "area_town_code": "422010205000",
        "area_town_name": "辻町",
        "area_lat": 32.785203,
        "area_lng": 129.876739
    },
    {
        "area_city_code": 42201,
        "area_city_name": "長崎市",
        "area_town_code": "422010206001",
        "area_town_name": "つつじが丘一丁目",
        "area_lat": 32.803594,
        "area_lng": 129.961312
    },
    {
        "area_city_code": 42201,
        "area_city_name": "長崎市",
        "area_town_code": "422010206002",
        "area_town_name": "つつじが丘二丁目",
        "area_lat": 32.804277,
        "area_lng": 129.959724
    },
    {
        "area_city_code": 42201,
        "area_city_name": "長崎市",
        "area_town_code": "422010206003",
        "area_town_name": "つつじが丘三丁目",
        "area_lat": 32.807943,
        "area_lng": 129.95955
    },
    {
        "area_city_code": 42201,
        "area_city_name": "長崎市",
        "area_town_code": "422010206004",
        "area_town_name": "つつじが丘四丁目",
        "area_lat": 32.80752,
        "area_lng": 129.962105
    },
    {
        "area_city_code": 42201,
        "area_city_name": "長崎市",
        "area_town_code": "422010206005",
        "area_town_name": "つつじが丘五丁目",
        "area_lat": 32.809875,
        "area_lng": 129.961762
    },
    {
        "area_city_code": 42201,
        "area_city_name": "長崎市",
        "area_town_code": "422010207000",
        "area_town_name": "椿が丘町",
        "area_lat": 32.645564,
        "area_lng": 129.8287
    },
    {
        "area_city_code": 42201,
        "area_city_name": "長崎市",
        "area_town_code": "422010208000",
        "area_town_name": "鶴の尾町",
        "area_lat": 32.793624,
        "area_lng": 129.94926
    },
    {
        "area_city_code": 42201,
        "area_city_name": "長崎市",
        "area_town_code": "422010209001",
        "area_town_name": "鶴見台一丁目",
        "area_lat": 32.687449,
        "area_lng": 129.841889
    },
    {
        "area_city_code": 42201,
        "area_city_name": "長崎市",
        "area_town_code": "422010209002",
        "area_town_name": "鶴見台二丁目",
        "area_lat": 32.69045,
        "area_lng": 129.841667
    },
    {
        "area_city_code": 42201,
        "area_city_name": "長崎市",
        "area_town_code": "422010210000",
        "area_town_name": "出来大工町",
        "area_lat": 32.751759,
        "area_lng": 129.883059
    },
    {
        "area_city_code": 42201,
        "area_city_name": "長崎市",
        "area_town_code": "422010211000",
        "area_town_name": "手熊町",
        "area_lat": 32.782174,
        "area_lng": 129.802278
    },
    {
        "area_city_code": 42201,
        "area_city_name": "長崎市",
        "area_town_code": "422010212000",
        "area_town_name": "出島町",
        "area_lat": 32.742998,
        "area_lng": 129.872367
    },
    {
        "area_city_code": 42201,
        "area_city_name": "長崎市",
        "area_town_code": "422010213000",
        "area_town_name": "寺町",
        "area_lat": 32.747277,
        "area_lng": 129.884096
    },
    {
        "area_city_code": 42201,
        "area_city_name": "長崎市",
        "area_town_code": "422010214000",
        "area_town_name": "天神町",
        "area_lat": 32.759588,
        "area_lng": 129.869744
    },
    {
        "area_city_code": 42201,
        "area_city_name": "長崎市",
        "area_town_code": "422010215000",
        "area_town_name": "戸石町",
        "area_lat": 32.766716,
        "area_lng": 129.978611
    },
    {
        "area_city_code": 42201,
        "area_city_name": "長崎市",
        "area_town_code": "422010216000",
        "area_town_name": "土井首町",
        "area_lat": 32.696301,
        "area_lng": 129.836811
    },
    {
        "area_city_code": 42201,
        "area_city_name": "長崎市",
        "area_town_code": "422010217000",
        "area_town_name": "銅座町",
        "area_lat": 32.742984,
        "area_lng": 129.876577
    },
    {
        "area_city_code": 42201,
        "area_city_name": "長崎市",
        "area_town_code": "422010218000",
        "area_town_name": "藤田尾町",
        "area_lat": 32.649748,
        "area_lng": 129.856287
    },
    {
        "area_city_code": 42201,
        "area_city_name": "長崎市",
        "area_town_code": "422010219000",
        "area_town_name": "常盤町",
        "area_lat": 32.739694,
        "area_lng": 129.870537
    },
    {
        "area_city_code": 42201,
        "area_city_name": "長崎市",
        "area_town_code": "422010220001",
        "area_town_name": "戸町一丁目",
        "area_lat": 32.724577,
        "area_lng": 129.860871
    },
    {
        "area_city_code": 42201,
        "area_city_name": "長崎市",
        "area_town_code": "422010220002",
        "area_town_name": "戸町二丁目",
        "area_lat": 32.723684,
        "area_lng": 129.865873
    },
    {
        "area_city_code": 42201,
        "area_city_name": "長崎市",
        "area_town_code": "422010220003",
        "area_town_name": "戸町三丁目",
        "area_lat": 32.718618,
        "area_lng": 129.863843
    },
    {
        "area_city_code": 42201,
        "area_city_name": "長崎市",
        "area_town_code": "422010220004",
        "area_town_name": "戸町四丁目",
        "area_lat": 32.719373,
        "area_lng": 129.858476
    },
    {
        "area_city_code": 42201,
        "area_city_name": "長崎市",
        "area_town_code": "422010220005",
        "area_town_name": "戸町五丁目",
        "area_lat": 32.716668,
        "area_lng": 129.854957
    },
    {
        "area_city_code": 42201,
        "area_city_name": "長崎市",
        "area_town_code": "422010221000",
        "area_town_name": "長浦町",
        "area_lat": 32.917203,
        "area_lng": 129.764132
    },
    {
        "area_city_code": 42201,
        "area_city_name": "長崎市",
        "area_town_code": "422010222001",
        "area_town_name": "中川一丁目",
        "area_lat": 32.751187,
        "area_lng": 129.892647
    },
    {
        "area_city_code": 42201,
        "area_city_name": "長崎市",
        "area_town_code": "422010222002",
        "area_town_name": "中川二丁目",
        "area_lat": 32.75197,
        "area_lng": 129.894473
    },
    {
        "area_city_code": 42201,
        "area_city_name": "長崎市",
        "area_town_code": "422010223001",
        "area_town_name": "中小島一丁目",
        "area_lat": 32.738564,
        "area_lng": 129.881004
    },
    {
        "area_city_code": 42201,
        "area_city_name": "長崎市",
        "area_town_code": "422010223002",
        "area_town_name": "中小島二丁目",
        "area_lat": 32.7361,
        "area_lng": 129.881357
    },
    {
        "area_city_code": 42201,
        "area_city_name": "長崎市",
        "area_town_code": "422010224000",
        "area_town_name": "中里町",
        "area_lat": 32.804724,
        "area_lng": 129.967065
    },
    {
        "area_city_code": 42201,
        "area_city_name": "長崎市",
        "area_town_code": "422010225000",
        "area_town_name": "中新町",
        "area_lat": 32.735791,
        "area_lng": 129.877038
    },
    {
        "area_city_code": 42201,
        "area_city_name": "長崎市",
        "area_town_code": "422010226000",
        "area_town_name": "中園町",
        "area_lat": 32.792194,
        "area_lng": 129.858749
    },
    {
        "area_city_code": 42201,
        "area_city_name": "長崎市",
        "area_town_code": "422010227000",
        "area_town_name": "永田町",
        "area_lat": 32.835469,
        "area_lng": 129.725844
    },
    {
        "area_city_code": 42201,
        "area_city_name": "長崎市",
        "area_town_code": "422010228000",
        "area_town_name": "中町",
        "area_lat": 32.751974,
        "area_lng": 129.874354
    },
    {
        "area_city_code": 42201,
        "area_city_name": "長崎市",
        "area_town_code": "422010229000",
        "area_town_name": "浪の平町",
        "area_lat": 32.732011,
        "area_lng": 129.865011
    },
    {
        "area_city_code": 42201,
        "area_city_name": "長崎市",
        "area_town_code": "422010230001",
        "area_town_name": "滑石一丁目",
        "area_lat": 32.808842,
        "area_lng": 129.847024
    },
    {
        "area_city_code": 42201,
        "area_city_name": "長崎市",
        "area_town_code": "422010230002",
        "area_town_name": "滑石二丁目",
        "area_lat": 32.808176,
        "area_lng": 129.843602
    },
    {
        "area_city_code": 42201,
        "area_city_name": "長崎市",
        "area_town_code": "422010230003",
        "area_town_name": "滑石三丁目",
        "area_lat": 32.80983,
        "area_lng": 129.834581
    },
    {
        "area_city_code": 42201,
        "area_city_name": "長崎市",
        "area_town_code": "422010230004",
        "area_town_name": "滑石四丁目",
        "area_lat": 32.804353,
        "area_lng": 129.82202
    },
    {
        "area_city_code": 42201,
        "area_city_name": "長崎市",
        "area_town_code": "422010230005",
        "area_town_name": "滑石五丁目",
        "area_lat": 32.805016,
        "area_lng": 129.833428
    },
    {
        "area_city_code": 42201,
        "area_city_name": "長崎市",
        "area_town_code": "422010230006",
        "area_town_name": "滑石六丁目",
        "area_lat": 32.803865,
        "area_lng": 129.835686
    },
    {
        "area_city_code": 42201,
        "area_city_name": "長崎市",
        "area_town_code": "422010231001",
        "area_town_name": "鳴滝一丁目",
        "area_lat": 32.755801,
        "area_lng": 129.895574
    },
    {
        "area_city_code": 42201,
        "area_city_name": "長崎市",
        "area_town_code": "422010231002",
        "area_town_name": "鳴滝二丁目",
        "area_lat": 32.756727,
        "area_lng": 129.892022
    },
    {
        "area_city_code": 42201,
        "area_city_name": "長崎市",
        "area_town_code": "422010231003",
        "area_town_name": "鳴滝三丁目",
        "area_lat": 32.761884,
        "area_lng": 129.900265
    },
    {
        "area_city_code": 42201,
        "area_city_name": "長崎市",
        "area_town_code": "422010232001",
        "area_town_name": "鳴見台一丁目",
        "area_lat": 32.820415,
        "area_lng": 129.806284
    },
    {
        "area_city_code": 42201,
        "area_city_name": "長崎市",
        "area_town_code": "422010232002",
        "area_town_name": "鳴見台二丁目",
        "area_lat": 32.822904,
        "area_lng": 129.805516
    },
    {
        "area_city_code": 42201,
        "area_city_name": "長崎市",
        "area_town_code": "422010233000",
        "area_town_name": "鳴見町",
        "area_lat": 32.821768,
        "area_lng": 129.815461
    },
    {
        "area_city_code": 42201,
        "area_city_name": "長崎市",
        "area_town_code": "422010234000",
        "area_town_name": "南越町",
        "area_lat": 32.593458,
        "area_lng": 129.767874
    },
    {
        "area_city_code": 42201,
        "area_city_name": "長崎市",
        "area_town_code": "422010235000",
        "area_town_name": "賑町",
        "area_lat": 32.746623,
        "area_lng": 129.877299
    },
    {
        "area_city_code": 42201,
        "area_city_name": "長崎市",
        "area_town_code": "422010236000",
        "area_town_name": "西海町",
        "area_lat": 32.859352,
        "area_lng": 129.77479
    },
    {
        "area_city_code": 42201,
        "area_city_name": "長崎市",
        "area_town_code": "422010237000",
        "area_town_name": "虹が丘町",
        "area_lat": 32.797863,
        "area_lng": 129.841504
    },
    {
        "area_city_code": 42201,
        "area_city_name": "長崎市",
        "area_town_code": "422010238001",
        "area_town_name": "錦一丁目",
        "area_lat": 32.7899,
        "area_lng": 129.856011
    },
    {
        "area_city_code": 42201,
        "area_city_name": "長崎市",
        "area_town_code": "422010238002",
        "area_town_name": "錦二丁目",
        "area_lat": 32.78941,
        "area_lng": 129.853767
    },
    {
        "area_city_code": 42201,
        "area_city_name": "長崎市",
        "area_town_code": "422010238003",
        "area_town_name": "錦三丁目",
        "area_lat": 32.789602,
        "area_lng": 129.846406
    },
    {
        "area_city_code": 42201,
        "area_city_name": "長崎市",
        "area_town_code": "422010239000",
        "area_town_name": "西北町",
        "area_lat": 32.796984,
        "area_lng": 129.850695
    },
    {
        "area_city_code": 42201,
        "area_city_name": "長崎市",
        "area_town_code": "422010240001",
        "area_town_name": "西小島一丁目",
        "area_lat": 32.739998,
        "area_lng": 129.878371
    },
    {
        "area_city_code": 42201,
        "area_city_name": "長崎市",
        "area_town_code": "422010240002",
        "area_town_name": "西小島二丁目",
        "area_lat": 32.736191,
        "area_lng": 129.879502
    },
    {
        "area_city_code": 42201,
        "area_city_name": "長崎市",
        "area_town_code": "422010241000",
        "area_town_name": "西琴平町",
        "area_lat": 32.728378,
        "area_lng": 129.862817
    },
    {
        "area_city_code": 42201,
        "area_city_name": "長崎市",
        "area_town_code": "422010242000",
        "area_town_name": "西坂町",
        "area_lat": 32.755841,
        "area_lng": 129.874518
    },
    {
        "area_city_code": 42201,
        "area_city_name": "長崎市",
        "area_town_code": "422010243000",
        "area_town_name": "西出津町",
        "area_lat": 32.851923,
        "area_lng": 129.699195
    },
    {
        "area_city_code": 42201,
        "area_city_name": "長崎市",
        "area_town_code": "422010244000",
        "area_town_name": "西立神町",
        "area_lat": 32.734326,
        "area_lng": 129.850883
    },
    {
        "area_city_code": 42201,
        "area_city_name": "長崎市",
        "area_town_code": "422010245000",
        "area_town_name": "西泊町",
        "area_lat": 32.728563,
        "area_lng": 129.848716
    },
    {
        "area_city_code": 42201,
        "area_city_name": "長崎市",
        "area_town_code": "422010246000",
        "area_town_name": "西町",
        "area_lat": 32.785799,
        "area_lng": 129.849536
    },
    {
        "area_city_code": 42201,
        "area_city_name": "長崎市",
        "area_town_code": "422010247001",
        "area_town_name": "西山一丁目",
        "area_lat": 32.762289,
        "area_lng": 129.881578
    },
    {
        "area_city_code": 42201,
        "area_city_name": "長崎市",
        "area_town_code": "422010247002",
        "area_town_name": "西山二丁目",
        "area_lat": 32.760711,
        "area_lng": 129.887133
    },
    {
        "area_city_code": 42201,
        "area_city_name": "長崎市",
        "area_town_code": "422010247003",
        "area_town_name": "西山三丁目",
        "area_lat": 32.767616,
        "area_lng": 129.887491
    },
    {
        "area_city_code": 42201,
        "area_city_name": "長崎市",
        "area_town_code": "422010247004",
        "area_town_name": "西山四丁目",
        "area_lat": 32.774705,
        "area_lng": 129.888875
    },
    {
        "area_city_code": 42201,
        "area_city_name": "長崎市",
        "area_town_code": "422010248001",
        "area_town_name": "西山台一丁目",
        "area_lat": 32.782031,
        "area_lng": 129.888167
    },
    {
        "area_city_code": 42201,
        "area_city_name": "長崎市",
        "area_town_code": "422010248002",
        "area_town_name": "西山台二丁目",
        "area_lat": 32.781751,
        "area_lng": 129.893179
    },
    {
        "area_city_code": 42201,
        "area_city_name": "長崎市",
        "area_town_code": "422010249000",
        "area_town_name": "西山本町",
        "area_lat": 32.757796,
        "area_lng": 129.883034
    },
    {
        "area_city_code": 42201,
        "area_city_name": "長崎市",
        "area_town_code": "422010250000",
        "area_town_name": "布巻町",
        "area_lat": 32.655617,
        "area_lng": 129.838135
    },
    {
        "area_city_code": 42201,
        "area_city_name": "長崎市",
        "area_town_code": "422010251000",
        "area_town_name": "野母崎樺島町",
        "area_lat": 32.560863,
        "area_lng": 129.78263
    },
    {
        "area_city_code": 42201,
        "area_city_name": "長崎市",
        "area_town_code": "422010252000",
        "area_town_name": "野母町",
        "area_lat": 32.582143,
        "area_lng": 129.744906
    },
    {
        "area_city_code": 42201,
        "area_city_name": "長崎市",
        "area_town_code": "422010253000",
        "area_town_name": "橋口町",
        "area_lat": 32.778686,
        "area_lng": 129.864769
    },
    {
        "area_city_code": 42201,
        "area_city_name": "長崎市",
        "area_town_code": "422010254000",
        "area_town_name": "八郎岳町",
        "area_lat": 32.678507,
        "area_lng": 129.853556
    },
    {
        "area_city_code": 42201,
        "area_city_name": "長崎市",
        "area_town_code": "422010255000",
        "area_town_name": "八景町",
        "area_lat": 32.726151,
        "area_lng": 129.883848
    },
    {
        "area_city_code": 42201,
        "area_city_name": "長崎市",
        "area_town_code": "422010256000",
        "area_town_name": "花丘町",
        "area_lat": 32.792238,
        "area_lng": 129.86393
    },
    {
        "area_city_code": 42201,
        "area_city_name": "長崎市",
        "area_town_code": "422010257000",
        "area_town_name": "花園町",
        "area_lat": 32.77152,
        "area_lng": 129.850704
    },
    {
        "area_city_code": 42201,
        "area_city_name": "長崎市",
        "area_town_code": "422010258000",
        "area_town_name": "浜口町",
        "area_lat": 32.769237,
        "area_lng": 129.865419
    },
    {
        "area_city_code": 42201,
        "area_city_name": "長崎市",
        "area_town_code": "422010259001",
        "area_town_name": "浜平一丁目",
        "area_lat": 32.759343,
        "area_lng": 129.872749
    },
    {
        "area_city_code": 42201,
        "area_city_name": "長崎市",
        "area_town_code": "422010259002",
        "area_town_name": "浜平二丁目",
        "area_lat": 32.76087,
        "area_lng": 129.874993
    },
    {
        "area_city_code": 42201,
        "area_city_name": "長崎市",
        "area_town_code": "422010260000",
        "area_town_name": "浜町",
        "area_lat": 32.744284,
        "area_lng": 129.877763
    },
    {
        "area_city_code": 42201,
        "area_city_name": "長崎市",
        "area_town_code": "422010261000",
        "area_town_name": "早坂町",
        "area_lat": 32.727375,
        "area_lng": 129.906397
    },
    {
        "area_city_code": 42201,
        "area_city_name": "長崎市",
        "area_town_code": "422010262001",
        "area_town_name": "葉山一丁目",
        "area_lat": 32.80468,
        "area_lng": 129.849055
    },
    {
        "area_city_code": 42201,
        "area_city_name": "長崎市",
        "area_town_code": "422010262002",
        "area_town_name": "葉山二丁目",
        "area_lat": 32.803732,
        "area_lng": 129.843672
    },
    {
        "area_city_code": 42201,
        "area_city_name": "長崎市",
        "area_town_code": "422010263000",
        "area_town_name": "春木町",
        "area_lat": 32.762971,
        "area_lng": 129.852792
    },
    {
        "area_city_code": 42201,
        "area_city_name": "長崎市",
        "area_town_code": "422010264000",
        "area_town_name": "晴海台町",
        "area_lat": 32.661896,
        "area_lng": 129.820891
    },
    {
        "area_city_code": 42201,
        "area_city_name": "長崎市",
        "area_town_code": "422010265000",
        "area_town_name": "東小島町",
        "area_lat": 32.739612,
        "area_lng": 129.882882
    },
    {
        "area_city_code": 42201,
        "area_city_name": "長崎市",
        "area_town_code": "422010266001",
        "area_town_name": "東琴平一丁目",
        "area_lat": 32.729438,
        "area_lng": 129.865785
    },
    {
        "area_city_code": 42201,
        "area_city_name": "長崎市",
        "area_town_code": "422010266002",
        "area_town_name": "東琴平二丁目",
        "area_lat": 32.731141,
        "area_lng": 129.868997
    },
    {
        "area_city_code": 42201,
        "area_city_name": "長崎市",
        "area_town_code": "422010267000",
        "area_town_name": "東立神町",
        "area_lat": 32.737431,
        "area_lng": 129.849935
    },
    {
        "area_city_code": 42201,
        "area_city_name": "長崎市",
        "area_town_code": "422010268000",
        "area_town_name": "東古川町",
        "area_lat": 32.745743,
        "area_lng": 129.88022
    },
    {
        "area_city_code": 42201,
        "area_city_name": "長崎市",
        "area_town_code": "422010269000",
        "area_town_name": "東町",
        "area_lat": 32.782899,
        "area_lng": 129.959455
    },
    {
        "area_city_code": 42201,
        "area_city_name": "長崎市",
        "area_town_code": "422010270000",
        "area_town_name": "東山手町",
        "area_lat": 32.737122,
        "area_lng": 129.873968
    },
    {
        "area_city_code": 42201,
        "area_city_name": "長崎市",
        "area_town_code": "422010271000",
        "area_town_name": "東山町",
        "area_lat": 32.734022,
        "area_lng": 129.874788
    },
    {
        "area_city_code": 42201,
        "area_city_name": "長崎市",
        "area_town_code": "422010272000",
        "area_town_name": "光町",
        "area_lat": 32.755205,
        "area_lng": 129.863958
    },
    {
        "area_city_code": 42201,
        "area_city_name": "長崎市",
        "area_town_code": "422010273000",
        "area_town_name": "彦見町",
        "area_lat": 32.741108,
        "area_lng": 129.891941
    },
    {
        "area_city_code": 42201,
        "area_city_name": "長崎市",
        "area_town_code": "422010274000",
        "area_town_name": "日の出町",
        "area_lat": 32.731733,
        "area_lng": 129.875294
    },
    {
        "area_city_code": 42201,
        "area_city_name": "長崎市",
        "area_town_code": "422010275000",
        "area_town_name": "平瀬町",
        "area_lat": 32.688852,
        "area_lng": 129.838373
    },
    {
        "area_city_code": 42201,
        "area_city_name": "長崎市",
        "area_town_code": "422010276000",
        "area_town_name": "平戸小屋町",
        "area_lat": 32.751177,
        "area_lng": 129.85849
    },
    {
        "area_city_code": 42201,
        "area_city_name": "長崎市",
        "area_town_code": "422010277000",
        "area_town_name": "平野町",
        "area_lat": 32.77153,
        "area_lng": 129.86514
    },
    {
        "area_city_code": 42201,
        "area_city_name": "長崎市",
        "area_town_code": "422010278000",
        "area_town_name": "平間町",
        "area_lat": 32.797899,
        "area_lng": 129.937789
    },
    {
        "area_city_code": 42201,
        "area_city_name": "長崎市",
        "area_town_code": "422010279001",
        "area_town_name": "平山台一丁目",
        "area_lat": 32.662634,
        "area_lng": 129.831153
    },
    {
        "area_city_code": 42201,
        "area_city_name": "長崎市",
        "area_town_code": "422010279002",
        "area_town_name": "平山台二丁目",
        "area_lat": 32.662983,
        "area_lng": 129.827019
    },
    {
        "area_city_code": 42201,
        "area_city_name": "長崎市",
        "area_town_code": "422010280000",
        "area_town_name": "平山町",
        "area_lat": 32.666221,
        "area_lng": 129.841919
    },
    {
        "area_city_code": 42201,
        "area_city_name": "長崎市",
        "area_town_code": "422010281000",
        "area_town_name": "夫婦川町",
        "area_lat": 32.754822,
        "area_lng": 129.88964
    },
    {
        "area_city_code": 42201,
        "area_city_name": "長崎市",
        "area_town_code": "422010282001",
        "area_town_name": "深堀町一丁目",
        "area_lat": 32.684582,
        "area_lng": 129.831834
    },
    {
        "area_city_code": 42201,
        "area_city_name": "長崎市",
        "area_town_code": "422010282002",
        "area_town_name": "深堀町二丁目",
        "area_lat": 32.686919,
        "area_lng": 129.82758
    },
    {
        "area_city_code": 42201,
        "area_city_name": "長崎市",
        "area_town_code": "422010282003",
        "area_town_name": "深堀町三丁目",
        "area_lat": 32.686566,
        "area_lng": 129.825335
    },
    {
        "area_city_code": 42201,
        "area_city_name": "長崎市",
        "area_town_code": "422010282004",
        "area_town_name": "深堀町四丁目",
        "area_lat": 32.678937,
        "area_lng": 129.828959
    },
    {
        "area_city_code": 42201,
        "area_city_name": "長崎市",
        "area_town_code": "422010282005",
        "area_town_name": "深堀町五丁目",
        "area_lat": 32.683128,
        "area_lng": 129.79989
    },
    {
        "area_city_code": 42201,
        "area_city_name": "長崎市",
        "area_town_code": "422010282006",
        "area_town_name": "深堀町六丁目",
        "area_lat": 32.680343,
        "area_lng": 129.820261
    },
    {
        "area_city_code": 42201,
        "area_city_name": "長崎市",
        "area_town_code": "422010283000",
        "area_town_name": "福田本町",
        "area_lat": 32.753156,
        "area_lng": 129.819092
    },
    {
        "area_city_code": 42201,
        "area_city_name": "長崎市",
        "area_town_code": "422010284000",
        "area_town_name": "富士見町",
        "area_lat": 32.772242,
        "area_lng": 129.854414
    },
    {
        "area_city_code": 42201,
        "area_city_name": "長崎市",
        "area_town_code": "422010285000",
        "area_town_name": "淵町",
        "area_lat": 32.75943,
        "area_lng": 129.855544
    },
    {
        "area_city_code": 42201,
        "area_city_name": "長崎市",
        "area_town_code": "422010286000",
        "area_town_name": "船石町",
        "area_lat": 32.798049,
        "area_lng": 129.97921
    },
    {
        "area_city_code": 42201,
        "area_city_name": "長崎市",
        "area_town_code": "422010287000",
        "area_town_name": "船大工町",
        "area_lat": 32.741967,
        "area_lng": 129.878799
    },
    {
        "area_city_code": 42201,
        "area_city_name": "長崎市",
        "area_town_code": "422010288000",
        "area_town_name": "古川町",
        "area_lat": 32.745891,
        "area_lng": 129.881714
    },
    {
        "area_city_code": 42201,
        "area_city_name": "長崎市",
        "area_town_code": "422010289000",
        "area_town_name": "古河町",
        "area_lat": 32.730005,
        "area_lng": 129.863103
    },
    {
        "area_city_code": 42201,
        "area_city_name": "長崎市",
        "area_town_code": "422010290000",
        "area_town_name": "古町",
        "area_lat": 32.750185,
        "area_lng": 129.881596
    },
    {
        "area_city_code": 42201,
        "area_city_name": "長崎市",
        "area_town_code": "422010291000",
        "area_town_name": "古道町",
        "area_lat": 32.697068,
        "area_lng": 129.858044
    },
    {
        "area_city_code": 42201,
        "area_city_name": "長崎市",
        "area_town_code": "422010292000",
        "area_town_name": "文教町",
        "area_lat": 32.786923,
        "area_lng": 129.866995
    },
    {
        "area_city_code": 42201,
        "area_city_name": "長崎市",
        "area_town_code": "422010293000",
        "area_town_name": "平和町",
        "area_lat": 32.774946,
        "area_lng": 129.865625
    },
    {
        "area_city_code": 42201,
        "area_city_name": "長崎市",
        "area_town_code": "422010294000",
        "area_town_name": "弁天町",
        "area_lat": 32.752893,
        "area_lng": 129.864099
    },
    {
        "area_city_code": 42201,
        "area_city_name": "長崎市",
        "area_town_code": "422010295000",
        "area_town_name": "宝栄町",
        "area_lat": 32.769688,
        "area_lng": 129.859996
    },
    {
        "area_city_code": 42201,
        "area_city_name": "長崎市",
        "area_town_code": "422010296001",
        "area_town_name": "豊洋台一丁目",
        "area_lat": 32.831879,
        "area_lng": 129.791754
    },
    {
        "area_city_code": 42201,
        "area_city_name": "長崎市",
        "area_town_code": "422010296002",
        "area_town_name": "豊洋台二丁目",
        "area_lat": 32.828481,
        "area_lng": 129.793916
    },
    {
        "area_city_code": 42201,
        "area_city_name": "長崎市",
        "area_town_code": "422010297000",
        "area_town_name": "北栄町",
        "area_lat": 32.800307,
        "area_lng": 129.827964
    },
    {
        "area_city_code": 42201,
        "area_city_name": "長崎市",
        "area_town_code": "422010298000",
        "area_town_name": "北陽町",
        "area_lat": 32.811114,
        "area_lng": 129.822512
    },
    {
        "area_city_code": 42201,
        "area_city_name": "長崎市",
        "area_town_code": "422010299001",
        "area_town_name": "星取一丁目",
        "area_lat": 32.723195,
        "area_lng": 129.881179
    },
    {
        "area_city_code": 42201,
        "area_city_name": "長崎市",
        "area_town_code": "422010299002",
        "area_town_name": "星取二丁目",
        "area_lat": 32.71885,
        "area_lng": 129.88529
    },
    {
        "area_city_code": 42201,
        "area_city_name": "長崎市",
        "area_town_code": "422010300001",
        "area_town_name": "本河内一丁目",
        "area_lat": 32.749607,
        "area_lng": 129.897547
    },
    {
        "area_city_code": 42201,
        "area_city_name": "長崎市",
        "area_town_code": "422010300002",
        "area_town_name": "本河内二丁目",
        "area_lat": 32.750737,
        "area_lng": 129.902321
    },
    {
        "area_city_code": 42201,
        "area_city_name": "長崎市",
        "area_town_code": "422010300003",
        "area_town_name": "本河内三丁目",
        "area_lat": 32.750949,
        "area_lng": 129.915229
    },
    {
        "area_city_code": 42201,
        "area_city_name": "長崎市",
        "area_town_code": "422010300004",
        "area_town_name": "本河内四丁目",
        "area_lat": 32.762006,
        "area_lng": 129.913866
    },
    {
        "area_city_code": 42201,
        "area_city_name": "長崎市",
        "area_town_code": "422010301000",
        "area_town_name": "牧島町",
        "area_lat": 32.754249,
        "area_lng": 129.975679
    },
    {
        "area_city_code": 42201,
        "area_city_name": "長崎市",
        "area_town_code": "422010302000",
        "area_town_name": "牧野町",
        "area_lat": 32.797856,
        "area_lng": 129.799222
    },
    {
        "area_city_code": 42201,
        "area_city_name": "長崎市",
        "area_town_code": "422010303000",
        "area_town_name": "松が枝町",
        "area_lat": 32.736011,
        "area_lng": 129.868172
    },
    {
        "area_city_code": 42201,
        "area_city_name": "長崎市",
        "area_town_code": "422010304000",
        "area_town_name": "松崎町",
        "area_lat": 32.85348,
        "area_lng": 129.743317
    },
    {
        "area_city_code": 42201,
        "area_city_name": "長崎市",
        "area_town_code": "422010305000",
        "area_town_name": "松原町",
        "area_lat": 32.805865,
        "area_lng": 129.946953
    },
    {
        "area_city_code": 42201,
        "area_city_name": "長崎市",
        "area_town_code": "422010306000",
        "area_town_name": "松山町",
        "area_lat": 32.774064,
        "area_lng": 129.86181
    },
    {
        "area_city_code": 42201,
        "area_city_name": "長崎市",
        "area_town_code": "422010307000",
        "area_town_name": "丸尾町",
        "area_lat": 32.74778,
        "area_lng": 129.861931
    },
    {
        "area_city_code": 42201,
        "area_city_name": "長崎市",
        "area_town_code": "422010308000",
        "area_town_name": "丸山町",
        "area_lat": 32.741153,
        "area_lng": 129.880569
    },
    {
        "area_city_code": 42201,
        "area_city_name": "長崎市",
        "area_town_code": "422010309000",
        "area_town_name": "万才町",
        "area_lat": 32.746636,
        "area_lng": 129.875162
    },
    {
        "area_city_code": 42201,
        "area_city_name": "長崎市",
        "area_town_code": "422010310000",
        "area_town_name": "三重田町",
        "area_lat": 32.828235,
        "area_lng": 129.734529
    },
    {
        "area_city_code": 42201,
        "area_city_name": "長崎市",
        "area_town_code": "422010311000",
        "area_town_name": "三重町",
        "area_lat": 32.831763,
        "area_lng": 129.745034
    },
    {
        "area_city_code": 42201,
        "area_city_name": "長崎市",
        "area_town_code": "422010312000",
        "area_town_name": "三川町",
        "area_lat": 32.787923,
        "area_lng": 129.895434
    },
    {
        "area_city_code": 42201,
        "area_city_name": "長崎市",
        "area_town_code": "422010313000",
        "area_town_name": "見崎町",
        "area_lat": 32.803835,
        "area_lng": 129.778733
    },
    {
        "area_city_code": 42201,
        "area_city_name": "長崎市",
        "area_town_code": "422010314000",
        "area_town_name": "水の浦町",
        "area_lat": 32.748933,
        "area_lng": 129.853913
    },
    {
        "area_city_code": 42201,
        "area_city_name": "長崎市",
        "area_town_code": "422010315000",
        "area_town_name": "三ツ山町",
        "area_lat": 32.802842,
        "area_lng": 129.907329
    },
    {
        "area_city_code": 42201,
        "area_city_name": "長崎市",
        "area_town_code": "422010316000",
        "area_town_name": "緑が丘町",
        "area_lat": 32.782684,
        "area_lng": 129.855632
    },
    {
        "area_city_code": 42201,
        "area_city_name": "長崎市",
        "area_town_code": "422010317000",
        "area_town_name": "緑町",
        "area_lat": 32.763106,
        "area_lng": 129.867237
    },
    {
        "area_city_code": 42201,
        "area_city_name": "長崎市",
        "area_town_code": "422010318001",
        "area_town_name": "みなと坂一丁目",
        "area_lat": 32.730143,
        "area_lng": 129.835688
    },
    {
        "area_city_code": 42201,
        "area_city_name": "長崎市",
        "area_town_code": "422010318002",
        "area_town_name": "みなと坂二丁目",
        "area_lat": 32.734665,
        "area_lng": 129.836298
    },
    {
        "area_city_code": 42201,
        "area_city_name": "長崎市",
        "area_town_code": "422010319000",
        "area_town_name": "南が丘町",
        "area_lat": 32.727765,
        "area_lng": 129.885623
    },
    {
        "area_city_code": 42201,
        "area_city_name": "長崎市",
        "area_town_code": "422010320000",
        "area_town_name": "南町",
        "area_lat": 32.72958,
        "area_lng": 129.88279
    },
    {
        "area_city_code": 42201,
        "area_city_name": "長崎市",
        "area_town_code": "422010321000",
        "area_town_name": "南山手町",
        "area_lat": 32.733205,
        "area_lng": 129.869126
    },
    {
        "area_city_code": 42201,
        "area_city_name": "長崎市",
        "area_town_code": "422010322001",
        "area_town_name": "三原一丁目",
        "area_lat": 32.781643,
        "area_lng": 129.879277
    },
    {
        "area_city_code": 42201,
        "area_city_name": "長崎市",
        "area_town_code": "422010322002",
        "area_town_name": "三原二丁目",
        "area_lat": 32.783464,
        "area_lng": 129.883756
    },
    {
        "area_city_code": 42201,
        "area_city_name": "長崎市",
        "area_town_code": "422010322003",
        "area_town_name": "三原三丁目",
        "area_lat": 32.777212,
        "area_lng": 129.883763
    },
    {
        "area_city_code": 42201,
        "area_city_name": "長崎市",
        "area_town_code": "422010323000",
        "area_town_name": "宮崎町",
        "area_lat": 32.618282,
        "area_lng": 129.820062
    },
    {
        "area_city_code": 42201,
        "area_city_name": "長崎市",
        "area_town_code": "422010324000",
        "area_town_name": "宮摺町",
        "area_lat": 32.684524,
        "area_lng": 129.892959
    },
    {
        "area_city_code": 42201,
        "area_city_name": "長崎市",
        "area_town_code": "422010325000",
        "area_town_name": "三芳町",
        "area_lat": 32.781124,
        "area_lng": 129.860424
    },
    {
        "area_city_code": 42201,
        "area_city_name": "長崎市",
        "area_town_code": "422010326000",
        "area_town_name": "向町",
        "area_lat": 32.786459,
        "area_lng": 129.797236
    },
    {
        "area_city_code": 42201,
        "area_city_name": "長崎市",
        "area_town_code": "422010327000",
        "area_town_name": "目覚町",
        "area_lat": 32.76342,
        "area_lng": 129.86557
    },
    {
        "area_city_code": 42201,
        "area_city_name": "長崎市",
        "area_town_code": "422010328001",
        "area_town_name": "女の都一丁目",
        "area_lat": 32.797754,
        "area_lng": 129.876529
    },
    {
        "area_city_code": 42201,
        "area_city_name": "長崎市",
        "area_town_code": "422010328002",
        "area_town_name": "女の都二丁目",
        "area_lat": 32.802431,
        "area_lng": 129.880166
    },
    {
        "area_city_code": 42201,
        "area_city_name": "長崎市",
        "area_town_code": "422010328003",
        "area_town_name": "女の都三丁目",
        "area_lat": 32.806055,
        "area_lng": 129.879807
    },
    {
        "area_city_code": 42201,
        "area_city_name": "長崎市",
        "area_town_code": "422010328004",
        "area_town_name": "女の都四丁目",
        "area_lat": 32.802622,
        "area_lng": 129.875442
    },
    {
        "area_city_code": 42201,
        "area_city_name": "長崎市",
        "area_town_code": "422010329000",
        "area_town_name": "茂木町",
        "area_lat": 32.704498,
        "area_lng": 129.900824
    },
    {
        "area_city_code": 42201,
        "area_city_name": "長崎市",
        "area_town_code": "422010330000",
        "area_town_name": "本尾町",
        "area_lat": 32.775583,
        "area_lng": 129.870973
    },
    {
        "area_city_code": 42201,
        "area_city_name": "長崎市",
        "area_town_code": "422010331000",
        "area_town_name": "本石灰町",
        "area_lat": 32.74217,
        "area_lng": 129.879973
    },
    {
        "area_city_code": 42201,
        "area_city_name": "長崎市",
        "area_town_code": "422010332000",
        "area_town_name": "本原町",
        "area_lat": 32.781213,
        "area_lng": 129.868044
    },
    {
        "area_city_code": 42201,
        "area_city_name": "長崎市",
        "area_town_code": "422010333000",
        "area_town_name": "元船町",
        "area_lat": 32.747201,
        "area_lng": 129.869973
    },
    {
        "area_city_code": 42201,
        "area_city_name": "長崎市",
        "area_town_code": "422010334000",
        "area_town_name": "元町",
        "area_lat": 32.733699,
        "area_lng": 129.876845
    },
    {
        "area_city_code": 42201,
        "area_city_name": "長崎市",
        "area_town_code": "422010335000",
        "area_town_name": "茂里町",
        "area_lat": 32.764047,
        "area_lng": 129.863023
    },
    {
        "area_city_code": 42201,
        "area_city_name": "長崎市",
        "area_town_code": "422010336000",
        "area_town_name": "八百屋町",
        "area_lat": 32.751667,
        "area_lng": 129.880106
    },
    {
        "area_city_code": 42201,
        "area_city_name": "長崎市",
        "area_town_code": "422010337000",
        "area_town_name": "矢上町",
        "area_lat": 32.776164,
        "area_lng": 129.950987
    },
    {
        "area_city_code": 42201,
        "area_city_name": "長崎市",
        "area_town_code": "422010338000",
        "area_town_name": "八千代町",
        "area_lat": 32.755631,
        "area_lng": 129.869636
    },
    {
        "area_city_code": 42201,
        "area_city_name": "長崎市",
        "area_town_code": "422010339000",
        "area_town_name": "八つ尾町",
        "area_lat": 32.735775,
        "area_lng": 129.897198
    },
    {
        "area_city_code": 42201,
        "area_city_name": "長崎市",
        "area_town_code": "422010340000",
        "area_town_name": "梁川町",
        "area_lat": 32.762513,
        "area_lng": 129.858817
    },
    {
        "area_city_code": 42201,
        "area_city_name": "長崎市",
        "area_town_code": "422010341000",
        "area_town_name": "柳谷町",
        "area_lat": 32.792566,
        "area_lng": 129.85505
    },
    {
        "area_city_code": 42201,
        "area_city_name": "長崎市",
        "area_town_code": "422010342000",
        "area_town_name": "柳田町",
        "area_lat": 32.685592,
        "area_lng": 129.846303
    },
    {
        "area_city_code": 42201,
        "area_city_name": "長崎市",
        "area_town_code": "422010343001",
        "area_town_name": "矢の平一丁目",
        "area_lat": 32.747876,
        "area_lng": 129.89417
    },
    {
        "area_city_code": 42201,
        "area_city_name": "長崎市",
        "area_town_code": "422010343002",
        "area_town_name": "矢の平二丁目",
        "area_lat": 32.748251,
        "area_lng": 129.891174
    },
    {
        "area_city_code": 42201,
        "area_city_name": "長崎市",
        "area_town_code": "422010343003",
        "area_town_name": "矢の平三丁目",
        "area_lat": 32.744679,
        "area_lng": 129.894219
    },
    {
        "area_city_code": 42201,
        "area_city_name": "長崎市",
        "area_town_code": "422010343004",
        "area_town_name": "矢の平四丁目",
        "area_lat": 32.741858,
        "area_lng": 129.895537
    },
    {
        "area_city_code": 42201,
        "area_city_name": "長崎市",
        "area_town_code": "422010344000",
        "area_town_name": "八幡町",
        "area_lat": 32.75038,
        "area_lng": 129.884187
    },