{
    "1130104": {
        "station_name": "川崎",
        "line_cd": 11301,
        "pref_cd": 14,
        "lon": 139.697485,
        "lat": 35.531311
    },
    "1130105": {
        "station_name": "横浜",
        "line_cd": 11301,
        "pref_cd": 14,
        "lon": 139.622704,
        "lat": 35.466195
    },
    "1130106": {
        "station_name": "戸塚",
        "line_cd": 11301,
        "pref_cd": 14,
        "lon": 139.534282,
        "lat": 35.400432
    },
    "1130107": {
        "station_name": "大船",
        "line_cd": 11301,
        "pref_cd": 14,
        "lon": 139.531127,
        "lat": 35.353466
    },
    "1130108": {
        "station_name": "藤沢",
        "line_cd": 11301,
        "pref_cd": 14,
        "lon": 139.487293,
        "lat": 35.338882
    },
    "1130109": {
        "station_name": "辻堂",
        "line_cd": 11301,
        "pref_cd": 14,
        "lon": 139.447106,
        "lat": 35.336847
    },
    "1130110": {
        "station_name": "茅ケ崎",
        "line_cd": 11301,
        "pref_cd": 14,
        "lon": 139.407197,
        "lat": 35.330741
    },
    "1130111": {
        "station_name": "平塚",
        "line_cd": 11301,
        "pref_cd": 14,
        "lon": 139.349063,
        "lat": 35.327647
    },
    "1130112": {
        "station_name": "大磯",
        "line_cd": 11301,
        "pref_cd": 14,
        "lon": 139.313388,
        "lat": 35.311299
    },
    "1130113": {
        "station_name": "二宮",
        "line_cd": 11301,
        "pref_cd": 14,
        "lon": 139.256925,
        "lat": 35.298644
    },
    "1130114": {
        "station_name": "国府津",
        "line_cd": 11301,
        "pref_cd": 14,
        "lon": 139.212932,
        "lat": 35.280832
    },
    "1130115": {
        "station_name": "鴨宮",
        "line_cd": 11301,
        "pref_cd": 14,
        "lon": 139.180147,
        "lat": 35.275744
    },
    "1130116": {
        "station_name": "小田原",
        "line_cd": 11301,
        "pref_cd": 14,
        "lon": 139.155772,
        "lat": 35.256225
    },
    "1130117": {
        "station_name": "早川",
        "line_cd": 11301,
        "pref_cd": 14,
        "lon": 139.145014,
        "lat": 35.238875
    },
    "1130118": {
        "station_name": "根府川",
        "line_cd": 11301,
        "pref_cd": 14,
        "lon": 139.138504,
        "lat": 35.202455
    },
    "1130119": {
        "station_name": "真鶴",
        "line_cd": 11301,
        "pref_cd": 14,
        "lon": 139.132148,
        "lat": 35.156837
    },
    "1130120": {
        "station_name": "湯河原",
        "line_cd": 11301,
        "pref_cd": 14,
        "lon": 139.102142,
        "lat": 35.146178
    },
    "1130301": {
        "station_name": "川崎",
        "line_cd": 11303,
        "pref_cd": 14,
        "lon": 139.697485,
        "lat": 35.531311
    },
    "1130302": {
        "station_name": "尻手",
        "line_cd": 11303,
        "pref_cd": 14,
        "lon": 139.684233,
        "lat": 35.530939
    },
    "1130303": {
        "station_name": "矢向",
        "line_cd": 11303,
        "pref_cd": 14,
        "lon": 139.68055,
        "lat": 35.539408
    },
    "1130304": {
        "station_name": "鹿島田",
        "line_cd": 11303,
        "pref_cd": 14,
        "lon": 139.674964,
        "lat": 35.551459
    },
    "1130305": {
        "station_name": "平間",
        "line_cd": 11303,
        "pref_cd": 14,
        "lon": 139.671039,
        "lat": 35.560565
    },
    "1130306": {
        "station_name": "向河原",
        "line_cd": 11303,
        "pref_cd": 14,
        "lon": 139.66725,
        "lat": 35.572891
    },
    "1130307": {
        "station_name": "武蔵小杉",
        "line_cd": 11303,
        "pref_cd": 14,
        "lon": 139.65963,
        "lat": 35.57669
    },
    "1130308": {
        "station_name": "武蔵中原",
        "line_cd": 11303,
        "pref_cd": 14,
        "lon": 139.640613,
        "lat": 35.581498
    },
    "1130309": {
        "station_name": "武蔵新城",
        "line_cd": 11303,
        "pref_cd": 14,
        "lon": 139.629419,
        "lat": 35.587369
    },
    "1130310": {
        "station_name": "武蔵溝ノ口",
        "line_cd": 11303,
        "pref_cd": 14,
        "lon": 139.61139,
        "lat": 35.598923
    },
    "1130311": {
        "station_name": "津田山",
        "line_cd": 11303,
        "pref_cd": 14,
        "lon": 139.600002,
        "lat": 35.604259
    },
    "1130312": {
        "station_name": "久地",
        "line_cd": 11303,
        "pref_cd": 14,
        "lon": 139.592714,
        "lat": 35.610363
    },
    "1130313": {
        "station_name": "宿河原",
        "line_cd": 11303,
        "pref_cd": 14,
        "lon": 139.579565,
        "lat": 35.615429
    },
    "1130314": {
        "station_name": "登戸",
        "line_cd": 11303,
        "pref_cd": 14,
        "lon": 139.570028,
        "lat": 35.620889
    },
    "1130315": {
        "station_name": "中野島",
        "line_cd": 11303,
        "pref_cd": 14,
        "lon": 139.5501,
        "lat": 35.630135
    },
    "1130316": {
        "station_name": "稲田堤",
        "line_cd": 11303,
        "pref_cd": 14,
        "lon": 139.535173,
        "lat": 35.633701
    },
    "1130326": {
        "station_name": "八丁畷",
        "line_cd": 11303,
        "pref_cd": 14,
        "lon": 139.691446,
        "lat": 35.523071
    },
    "1130327": {
        "station_name": "川崎新町",
        "line_cd": 11303,
        "pref_cd": 14,
        "lon": 139.699348,
        "lat": 35.518234
    },
    "1130328": {
        "station_name": "浜川崎",
        "line_cd": 11303,
        "pref_cd": 14,
        "lon": 139.713483,
        "lat": 35.510428
    },
    "1130330": {
        "station_name": "小田栄",
        "line_cd": 11303,
        "pref_cd": 14,
        "lon": 139.704944,
        "lat": 35.5145
    },
    "1130401": {
        "station_name": "鶴見",
        "line_cd": 11304,
        "pref_cd": 14,
        "lon": 139.67614,
        "lat": 35.508387
    },
    "1130402": {
        "station_name": "国道",
        "line_cd": 11304,
        "pref_cd": 14,
        "lon": 139.675599,
        "lat": 35.50083
    },
    "1130403": {
        "station_name": "鶴見小野",
        "line_cd": 11304,
        "pref_cd": 14,
        "lon": 139.681226,
        "lat": 35.497005
    },
    "1130404": {
        "station_name": "弁天橋",
        "line_cd": 11304,
        "pref_cd": 14,
        "lon": 139.689451,
        "lat": 35.495758
    },
    "1130405": {
        "station_name": "浅野",
        "line_cd": 11304,
        "pref_cd": 14,
        "lon": 139.695739,
        "lat": 35.497555
    },
    "1130406": {
        "station_name": "新芝浦",
        "line_cd": 11304,
        "pref_cd": 14,
        "lon": 139.7001,
        "lat": 35.491914
    },
    "1130407": {
        "station_name": "海芝浦",
        "line_cd": 11304,
        "pref_cd": 14,
        "lon": 139.700603,
        "lat": 35.486073
    },
    "1130408": {
        "station_name": "安善",
        "line_cd": 11304,
        "pref_cd": 14,
        "lon": 139.700663,
        "lat": 35.499668
    },
    "1130409": {
        "station_name": "大川",
        "line_cd": 11304,
        "pref_cd": 14,
        "lon": 139.711038,
        "lat": 35.495646
    },
    "1130410": {
        "station_name": "武蔵白石",
        "line_cd": 11304,
        "pref_cd": 14,
        "lon": 139.706513,
        "lat": 35.501912
    },
    "1130411": {
        "station_name": "浜川崎",
        "line_cd": 11304,
        "pref_cd": 14,
        "lon": 139.713575,
        "lat": 35.509863
    },
    "1130412": {
        "station_name": "昭和",
        "line_cd": 11304,
        "pref_cd": 14,
        "lon": 139.723897,
        "lat": 35.506836
    },
    "1130413": {
        "station_name": "扇町",
        "line_cd": 11304,
        "pref_cd": 14,
        "lon": 139.722147,
        "lat": 35.501452
    },
    "1130601": {
        "station_name": "東神奈川",
        "line_cd": 11306,
        "pref_cd": 14,
        "lon": 139.633466,
        "lat": 35.47804
    },
    "1130602": {
        "station_name": "大口",
        "line_cd": 11306,
        "pref_cd": 14,
        "lon": 139.646288,
        "lat": 35.492375
    },
    "1130603": {
        "station_name": "菊名",
        "line_cd": 11306,
        "pref_cd": 14,
        "lon": 139.630147,
        "lat": 35.509749
    },
    "1130604": {
        "station_name": "新横浜",
        "line_cd": 11306,
        "pref_cd": 14,
        "lon": 139.617348,
        "lat": 35.506824
    },
    "1130605": {
        "station_name": "小机",
        "line_cd": 11306,
        "pref_cd": 14,
        "lon": 139.599787,
        "lat": 35.508533
    },
    "1130606": {
        "station_name": "鴨居",
        "line_cd": 11306,
        "pref_cd": 14,
        "lon": 139.56707,
        "lat": 35.510955
    },
    "1130607": {
        "station_name": "中山",
        "line_cd": 11306,
        "pref_cd": 14,
        "lon": 139.539692,
        "lat": 35.514745
    },
    "1130608": {
        "station_name": "十日市場",
        "line_cd": 11306,
        "pref_cd": 14,
        "lon": 139.51669,
        "lat": 35.526254
    },
    "1130609": {
        "station_name": "長津田",
        "line_cd": 11306,
        "pref_cd": 14,
        "lon": 139.49468,
        "lat": 35.531698
    },
    "1130612": {
        "station_name": "古淵",
        "line_cd": 11306,
        "pref_cd": 14,
        "lon": 139.419151,
        "lat": 35.556055
    },
    "1130613": {
        "station_name": "淵野辺",
        "line_cd": 11306,
        "pref_cd": 14,
        "lon": 139.395075,
        "lat": 35.568784
    },
    "1130614": {
        "station_name": "矢部",
        "line_cd": 11306,
        "pref_cd": 14,
        "lon": 139.386373,
        "lat": 35.573275
    },
    "1130615": {
        "station_name": "相模原",
        "line_cd": 11306,
        "pref_cd": 14,
        "lon": 139.371007,
        "lat": 35.58113
    },
    "1130616": {
        "station_name": "橋本",
        "line_cd": 11306,
        "pref_cd": 14,
        "lon": 139.344586,
        "lat": 35.594975
    },
    "1130701": {
        "station_name": "横浜",
        "line_cd": 11307,
        "pref_cd": 14,
        "lon": 139.622704,
        "lat": 35.466195
    },
    "1130702": {
        "station_name": "桜木町",
        "line_cd": 11307,
        "pref_cd": 14,
        "lon": 139.630881,
        "lat": 35.451112
    },
    "1130703": {
        "station_name": "関内",
        "line_cd": 11307,
        "pref_cd": 14,
        "lon": 139.636984,
        "lat": 35.443336
    },
    "1130704": {
        "station_name": "石川町",
        "line_cd": 11307,
        "pref_cd": 14,
        "lon": 139.642934,
        "lat": 35.438808
    },
    "1130705": {
        "station_name": "山手",
        "line_cd": 11307,
        "pref_cd": 14,
        "lon": 139.646425,
        "lat": 35.426891
    },
    "1130706": {
        "station_name": "根岸",
        "line_cd": 11307,
        "pref_cd": 14,
        "lon": 139.636034,
        "lat": 35.415887
    },
    "1130707": {
        "station_name": "磯子",
        "line_cd": 11307,
        "pref_cd": 14,
        "lon": 139.617916,
        "lat": 35.399881
    },
    "1130708": {
        "station_name": "新杉田",
        "line_cd": 11307,
        "pref_cd": 14,
        "lon": 139.619483,
        "lat": 35.386863
    },
    "1130709": {
        "station_name": "洋光台",
        "line_cd": 11307,
        "pref_cd": 14,
        "lon": 139.596852,
        "lat": 35.378785
    },
    "1130710": {
        "station_name": "港南台",
        "line_cd": 11307,
        "pref_cd": 14,
        "lon": 139.576243,
        "lat": 35.375183
    },
    "1130711": {
        "station_name": "本郷台",
        "line_cd": 11307,
        "pref_cd": 14,
        "lon": 139.550159,
        "lat": 35.36787
    },
    "1130712": {
        "station_name": "大船",
        "line_cd": 11307,
        "pref_cd": 14,
        "lon": 139.531127,
        "lat": 35.353466
    },
    "1130805": {
        "station_name": "新川崎",
        "line_cd": 11308,
        "pref_cd": 14,
        "lon": 139.671481,
        "lat": 35.551784
    },
    "1130806": {
        "station_name": "横浜",
        "line_cd": 11308,
        "pref_cd": 14,
        "lon": 139.622704,
        "lat": 35.466195
    },
    "1130807": {
        "station_name": "保土ケ谷",
        "line_cd": 11308,
        "pref_cd": 14,
        "lon": 139.599671,
        "lat": 35.446746
    },
    "1130808": {
        "station_name": "東戸塚",
        "line_cd": 11308,
        "pref_cd": 14,
        "lon": 139.556794,
        "lat": 35.430353
    },
    "1130809": {
        "station_name": "戸塚",
        "line_cd": 11308,
        "pref_cd": 14,
        "lon": 139.534282,
        "lat": 35.400432
    },
    "1130810": {
        "station_name": "大船",
        "line_cd": 11308,
        "pref_cd": 14,
        "lon": 139.531127,
        "lat": 35.353466
    },
    "1130811": {
        "station_name": "北鎌倉",
        "line_cd": 11308,
        "pref_cd": 14,
        "lon": 139.545134,
        "lat": 35.337198
    },
    "1130812": {
        "station_name": "鎌倉",
        "line_cd": 11308,
        "pref_cd": 14,
        "lon": 139.550428,
        "lat": 35.318793
    },
    "1130813": {
        "station_name": "逗子",
        "line_cd": 11308,
        "pref_cd": 14,
        "lon": 139.578292,
        "lat": 35.297392
    },
    "1130814": {
        "station_name": "東逗子",
        "line_cd": 11308,
        "pref_cd": 14,
        "lon": 139.601768,
        "lat": 35.298781
    },
    "1130815": {
        "station_name": "田浦",
        "line_cd": 11308,
        "pref_cd": 14,
        "lon": 139.637726,
        "lat": 35.29271
    },
    "1130816": {
        "station_name": "横須賀",
        "line_cd": 11308,
        "pref_cd": 14,
        "lon": 139.655855,
        "lat": 35.284022
    },
    "1130817": {
        "station_name": "衣笠",
        "line_cd": 11308,
        "pref_cd": 14,
        "lon": 139.661193,
        "lat": 35.257091
    },
    "1130818": {
        "station_name": "久里浜",
        "line_cd": 11308,
        "pref_cd": 14,
        "lon": 139.700862,
        "lat": 35.233107
    },
    "1130819": {
        "station_name": "武蔵小杉",
        "line_cd": 11308,
        "pref_cd": 14,
        "lon": 139.663278,
        "lat": 35.575965
    },
    "1130901": {
        "station_name": "茅ケ崎",
        "line_cd": 11309,
        "pref_cd": 14,
        "lon": 139.407197,
        "lat": 35.330741
    },
    "1130902": {
        "station_name": "北茅ケ崎",
        "line_cd": 11309,
        "pref_cd": 14,
        "lon": 139.407569,
        "lat": 35.339167
    },
    "1130903": {
        "station_name": "香川",
        "line_cd": 11309,
        "pref_cd": 14,
        "lon": 139.400044,
        "lat": 35.35655
    },
    "1130904": {
        "station_name": "寒川",
        "line_cd": 11309,
        "pref_cd": 14,
        "lon": 139.387452,
        "lat": 35.367579
    },
    "1130905": {
        "station_name": "宮山",
        "line_cd": 11309,
        "pref_cd": 14,
        "lon": 139.379639,
        "lat": 35.382261
    },
    "1130906": {
        "station_name": "倉見",
        "line_cd": 11309,
        "pref_cd": 14,
        "lon": 139.378422,
        "lat": 35.395098
    },
    "1130907": {
        "station_name": "門沢橋",
        "line_cd": 11309,
        "pref_cd": 14,
        "lon": 139.380139,
        "lat": 35.406761
    },
    "1130908": {
        "station_name": "社家",
        "line_cd": 11309,
        "pref_cd": 14,
        "lon": 139.377281,
        "lat": 35.420543
    },
    "1130909": {
        "station_name": "厚木",
        "line_cd": 11309,
        "pref_cd": 14,
        "lon": 139.378631,
        "lat": 35.44375
    },
    "1130910": {
        "station_name": "海老名",
        "line_cd": 11309,
        "pref_cd": 14,
        "lon": 139.389328,
        "lat": 35.454282
    },
    "1130911": {
        "station_name": "入谷",
        "line_cd": 11309,
        "pref_cd": 14,
        "lon": 139.391913,
        "lat": 35.478478
    },
    "1130912": {
        "station_name": "相武台下",
        "line_cd": 11309,
        "pref_cd": 14,
        "lon": 139.386297,
        "lat": 35.492734
    },
    "1130913": {
        "station_name": "下溝",
        "line_cd": 11309,
        "pref_cd": 14,
        "lon": 139.380428,
        "lat": 35.518516
    },
    "1130914": {
        "station_name": "原当麻",
        "line_cd": 11309,
        "pref_cd": 14,
        "lon": 139.375355,
        "lat": 35.528978
    },
    "1130915": {
        "station_name": "番田",
        "line_cd": 11309,
        "pref_cd": 14,
        "lon": 139.362988,
        "lat": 35.545392
    },
    "1130916": {
        "station_name": "上溝",
        "line_cd": 11309,
        "pref_cd": 14,
        "lon": 139.36315,
        "lat": 35.557623
    },
    "1130917": {
        "station_name": "南橋本",
        "line_cd": 11309,
        "pref_cd": 14,
        "lon": 139.352484,
        "lat": 35.58042
    },
    "1130918": {
        "station_name": "橋本",
        "line_cd": 11309,
        "pref_cd": 14,
        "lon": 139.344586,
        "lat": 35.594975
    },
    "1131113": {
        "station_name": "相模湖",
        "line_cd": 11311,
        "pref_cd": 14,
        "lon": 139.1885,
        "lat": 35.617335
    },
    "1131114": {
        "station_name": "藤野",
        "line_cd": 11311,
        "pref_cd": 14,
        "lon": 139.15239,
        "lat": 35.615918
    },
    "1132801": {
        "station_name": "大船",
        "line_cd": 11328,
        "pref_cd": 14,
        "lon": 139.531127,
        "lat": 35.353466
    },
    "1132802": {
        "station_name": "戸塚",
        "line_cd": 11328,
        "pref_cd": 14,
        "lon": 139.534282,
        "lat": 35.400432
    },
    "1132803": {
        "station_name": "横浜",
        "line_cd": 11328,
        "pref_cd": 14,
        "lon": 139.622704,
        "lat": 35.466195
    },
    "1132821": {
        "station_name": "武蔵小杉",
        "line_cd": 11328,
        "pref_cd": 14,
        "lon": 139.663278,
        "lat": 35.575965
    },
    "1133231": {
        "station_name": "川崎",
        "line_cd": 11332,
        "pref_cd": 14,
        "lon": 139.697485,
        "lat": 35.531311
    },
    "1133232": {
        "station_name": "鶴見",
        "line_cd": 11332,
        "pref_cd": 14,
        "lon": 139.67614,
        "lat": 35.508387
    },
    "1133233": {
        "station_name": "新子安",
        "line_cd": 11332,
        "pref_cd": 14,
        "lon": 139.654776,
        "lat": 35.487064
    },
    "1133234": {
        "station_name": "東神奈川",
        "line_cd": 11332,
        "pref_cd": 14,
        "lon": 139.633466,
        "lat": 35.47804
    },
    "1133235": {
        "station_name": "横浜",
        "line_cd": 11332,
        "pref_cd": 14,
        "lon": 139.622704,
        "lat": 35.466195
    },
    "1133309": {
        "station_name": "新川崎",
        "line_cd": 11333,
        "pref_cd": 14,
        "lon": 139.671481,
        "lat": 35.551784
    },
    "1133310": {
        "station_name": "横浜",
        "line_cd": 11333,
        "pref_cd": 14,
        "lon": 139.622704,
        "lat": 35.466195
    },
    "1133311": {
        "station_name": "保土ケ谷",
        "line_cd": 11333,
        "pref_cd": 14,
        "lon": 139.599671,
        "lat": 35.446746
    },
    "1133312": {
        "station_name": "東戸塚",
        "line_cd": 11333,
        "pref_cd": 14,
        "lon": 139.556794,
        "lat": 35.430353
    },
    "1133313": {
        "station_name": "戸塚",
        "line_cd": 11333,
        "pref_cd": 14,
        "lon": 139.534282,
        "lat": 35.400432
    },
    "1133314": {
        "station_name": "大船",
        "line_cd": 11333,
        "pref_cd": 14,
        "lon": 139.531127,
        "lat": 35.353466
    },
    "1133315": {
        "station_name": "武蔵小杉",
        "line_cd": 11333,
        "pref_cd": 14,
        "lon": 139.65963,
        "lat": 35.57669
    },
    "1150501": {
        "station_name": "国府津",
        "line_cd": 11505,
        "pref_cd": 14,
        "lon": 139.212932,
        "lat": 35.280832
    },
    "1150502": {
        "station_name": "下曽我",
        "line_cd": 11505,
        "pref_cd": 14,
        "lon": 139.183395,
        "lat": 35.303554
    },
    "1150503": {
        "station_name": "上大井",
        "line_cd": 11505,
        "pref_cd": 14,
        "lon": 139.163508,
        "lat": 35.321883
    },
    "1150504": {
        "station_name": "相模金子",
        "line_cd": 11505,
        "pref_cd": 14,
        "lon": 139.150753,
        "lat": 35.33364
    },
    "1150505": {
        "station_name": "松田",
        "line_cd": 11505,
        "pref_cd": 14,
        "lon": 139.137417,
        "lat": 35.346843
    },
    "1150506": {
        "station_name": "東山北",
        "line_cd": 11505,
        "pref_cd": 14,
        "lon": 139.10765,
        "lat": 35.357637
    },
    "1150507": {
        "station_name": "山北",
        "line_cd": 11505,
        "pref_cd": 14,
        "lon": 139.080212,
        "lat": 35.360808
    },
    "1150508": {
        "station_name": "谷峨",
        "line_cd": 11505,
        "pref_cd": 14,
        "lon": 139.038234,
        "lat": 35.366561
    },
    "2400203": {
        "station_name": "京王稲田堤",
        "line_cd": 24002,
        "pref_cd": 14,
        "lon": 139.531099,
        "lat": 35.633895
    },
    "2400206": {
        "station_name": "若葉台",
        "line_cd": 24002,
        "pref_cd": 14,
        "lon": 139.472189,
        "lat": 35.619325
    },
    "2400212": {
        "station_name": "橋本",
        "line_cd": 24002,
        "pref_cd": 14,
        "lon": 139.343226,
        "lat": 35.595518
    },
    "2500118": {
        "station_name": "登戸",
        "line_cd": 25001,
        "pref_cd": 14,
        "lon": 139.569449,
        "lat": 35.62115
    },
    "2500119": {
        "station_name": "向ヶ丘遊園",
        "line_cd": 25001,
        "pref_cd": 14,
        "lon": 139.564719,
        "lat": 35.617273
    },
    "2500120": {
        "station_name": "生田",
        "line_cd": 25001,
        "pref_cd": 14,
        "lon": 139.542024,
        "lat": 35.614954
    },
    "2500121": {
        "station_name": "読売ランド前",
        "line_cd": 25001,
        "pref_cd": 14,
        "lon": 139.527903,
        "lat": 35.614723
    },
    "2500122": {
        "station_name": "百合ヶ丘",
        "line_cd": 25001,
        "pref_cd": 14,
        "lon": 139.516121,
        "lat": 35.60903
    },
    "2500123": {
        "station_name": "新百合ヶ丘",
        "line_cd": 25001,
        "pref_cd": 14,
        "lon": 139.507608,
        "lat": 35.603705
    },
    "2500124": {
        "station_name": "柿生",
        "line_cd": 25001,
        "pref_cd": 14,
        "lon": 139.497614,
        "lat": 35.589597
    },
    "2500128": {
        "station_name": "相模大野",
        "line_cd": 25001,
        "pref_cd": 14,
        "lon": 139.437836,
        "lat": 35.532208
    },
    "2500129": {
        "station_name": "小田急相模原",
        "line_cd": 25001,
        "pref_cd": 14,
        "lon": 139.422571,
        "lat": 35.515134
    },
    "2500130": {
        "station_name": "相武台前",
        "line_cd": 25001,
        "pref_cd": 14,
        "lon": 139.408509,
        "lat": 35.499294
    },
    "2500131": {
        "station_name": "座間",
        "line_cd": 25001,
        "pref_cd": 14,
        "lon": 139.399899,
        "lat": 35.480913
    },
    "2500132": {
        "station_name": "海老名",
        "line_cd": 25001,
        "pref_cd": 14,
        "lon": 139.390905,
        "lat": 35.452709
    },
    "2500133": {
        "station_name": "厚木",
        "line_cd": 25001,
        "pref_cd": 14,
        "lon": 139.377896,
        "lat": 35.443081
    },
    "2500134": {
        "station_name": "本厚木",
        "line_cd": 25001,
        "pref_cd": 14,
        "lon": 139.364261,
        "lat": 35.439338
    },
    "2500135": {
        "station_name": "愛甲石田",
        "line_cd": 25001,
        "pref_cd": 14,
        "lon": 139.344098,
        "lat": 35.417634
    },
    "2500136": {
        "station_name": "伊勢原",
        "line_cd": 25001,
        "pref_cd": 14,
        "lon": 139.313768,
        "lat": 35.396081
    },
    "2500137": {
        "station_name": "鶴巻温泉",
        "line_cd": 25001,
        "pref_cd": 14,
        "lon": 139.277813,
        "lat": 35.381131
    },
    "2500138": {
        "station_name": "東海大学前",
        "line_cd": 25001,
        "pref_cd": 14,
        "lon": 139.271236,
        "lat": 35.373151
    },
    "2500139": {
        "station_name": "秦野",
        "line_cd": 25001,
        "pref_cd": 14,
        "lon": 139.226009,
        "lat": 35.370075
    },
    "2500140": {
        "station_name": "渋沢",
        "line_cd": 25001,
        "pref_cd": 14,
        "lon": 139.184405,
        "lat": 35.374032
    },
    "2500141": {
        "station_name": "新松田",
        "line_cd": 25001,
        "pref_cd": 14,
        "lon": 139.139848,
        "lat": 35.345082
    },
    "2500142": {
        "station_name": "開成",
        "line_cd": 25001,
        "pref_cd": 14,
        "lon": 139.135785,
        "lat": 35.326532
    },
    "2500143": {
        "station_name": "栢山",
        "line_cd": 25001,
        "pref_cd": 14,
        "lon": 139.14258,
        "lat": 35.310679
    },
    "2500144": {
        "station_name": "富水",
        "line_cd": 25001,
        "pref_cd": 14,
        "lon": 139.145166,
        "lat": 35.296759
    },
    "2500145": {
        "station_name": "螢田",
        "line_cd": 25001,
        "pref_cd": 14,
        "lon": 139.152036,
        "lat": 35.285055
    },
    "2500146": {
        "station_name": "足柄",
        "line_cd": 25001,
        "pref_cd": 14,
        "lon": 139.15447,
        "lat": 35.271763
    },
    "2500147": {
        "station_name": "小田原",
        "line_cd": 25001,
        "pref_cd": 14,
        "lon": 139.155396,
        "lat": 35.256229
    },
    "2500201": {
        "station_name": "相模大野",
        "line_cd": 25002,
        "pref_cd": 14,
        "lon": 139.437836,
        "lat": 35.532208
    },
    "2500202": {
        "station_name": "東林間",
        "line_cd": 25002,
        "pref_cd": 14,
        "lon": 139.438883,
        "lat": 35.520541
    },
    "2500203": {
        "station_name": "中央林間",
        "line_cd": 25002,
        "pref_cd": 14,
        "lon": 139.444105,
        "lat": 35.508066
    },
    "2500204": {
        "station_name": "南林間",
        "line_cd": 25002,
        "pref_cd": 14,
        "lon": 139.447911,
        "lat": 35.495627
    },
    "2500205": {
        "station_name": "鶴間",
        "line_cd": 25002,
        "pref_cd": 14,
        "lon": 139.450572,
        "lat": 35.49057
    },
    "2500206": {
        "station_name": "大和",
        "line_cd": 25002,
        "pref_cd": 14,
        "lon": 139.461553,
        "lat": 35.46965
    },
    "2500207": {
        "station_name": "桜ヶ丘",
        "line_cd": 25002,
        "pref_cd": 14,
        "lon": 139.465734,
        "lat": 35.450486
    },
    "2500208": {
        "station_name": "高座渋谷",
        "line_cd": 25002,
        "pref_cd": 14,
        "lon": 139.464854,
        "lat": 35.432519
    },
    "2500209": {
        "station_name": "長後",
        "line_cd": 25002,
        "pref_cd": 14,
        "lon": 139.465307,
        "lat": 35.41261
    },
    "2500210": {
        "station_name": "湘南台",
        "line_cd": 25002,
        "pref_cd": 14,
        "lon": 139.466451,
        "lat": 35.396488
    },
    "2500211": {
        "station_name": "六会日大前",
        "line_cd": 25002,
        "pref_cd": 14,
        "lon": 139.470665,
        "lat": 35.383761
    },
    "2500212": {
        "station_name": "善行",
        "line_cd": 25002,
        "pref_cd": 14,
        "lon": 139.473199,
        "lat": 35.36285
    },
    "2500213": {
        "station_name": "藤沢本町",
        "line_cd": 25002,
        "pref_cd": 14,
        "lon": 139.476046,
        "lat": 35.348188
    },
    "2500214": {
        "station_name": "藤沢",
        "line_cd": 25002,
        "pref_cd": 14,
        "lon": 139.486971,
        "lat": 35.338558
    },
    "2500215": {
        "station_name": "本鵠沼",
        "line_cd": 25002,
        "pref_cd": 14,
        "lon": 139.475412,
        "lat": 35.331129
    },
    "2500216": {
        "station_name": "鵠沼海岸",
        "line_cd": 25002,
        "pref_cd": 14,
        "lon": 139.47121,
        "lat": 35.320744
    },
    "2500217": {
        "station_name": "片瀬江ノ島",
        "line_cd": 25002,
        "pref_cd": 14,
        "lon": 139.482934,
        "lat": 35.309345
    },
    "2500301": {
        "station_name": "新百合ヶ丘",
        "line_cd": 25003,
        "pref_cd": 14,
        "lon": 139.507608,
        "lat": 35.603705
    },
    "2500302": {
        "station_name": "五月台",
        "line_cd": 25003,
        "pref_cd": 14,
        "lon": 139.493542,
        "lat": 35.600174
    },
    "2500303": {
        "station_name": "栗平",
        "line_cd": 25003,
        "pref_cd": 14,
        "lon": 139.481298,
        "lat": 35.605731
    },
    "2500304": {
        "station_name": "黒川",
        "line_cd": 25003,
        "pref_cd": 14,
        "lon": 139.470731,
        "lat": 35.613203
    },
    "2500305": {
        "station_name": "はるひ野",
        "line_cd": 25003,
        "pref_cd": 14,
        "lon": 139.464534,
        "lat": 35.618885
    },
    "2600110": {
        "station_name": "新丸子",
        "line_cd": 26001,
        "pref_cd": 14,
        "lon": 139.661964,
        "lat": 35.58049
    },
    "2600111": {
        "station_name": "武蔵小杉",
        "line_cd": 26001,
        "pref_cd": 14,
        "lon": 139.659652,
        "lat": 35.575752
    },
    "2600112": {
        "station_name": "元住吉",
        "line_cd": 26001,
        "pref_cd": 14,
        "lon": 139.654668,
        "lat": 35.565698
    },
    "2600113": {
        "station_name": "日吉",
        "line_cd": 26001,
        "pref_cd": 14,
        "lon": 139.646944,
        "lat": 35.5539
    },
    "2600114": {
        "station_name": "綱島",
        "line_cd": 26001,
        "pref_cd": 14,
        "lon": 139.63491,
        "lat": 35.536906
    },
    "2600115": {
        "station_name": "大倉山",
        "line_cd": 26001,
        "pref_cd": 14,
        "lon": 139.629808,
        "lat": 35.52243
    },
    "2600116": {
        "station_name": "菊名",
        "line_cd": 26001,
        "pref_cd": 14,
        "lon": 139.63137,
        "lat": 35.509854
    },
    "2600117": {
        "station_name": "妙蓮寺",
        "line_cd": 26001,
        "pref_cd": 14,
        "lon": 139.633194,
        "lat": 35.498779
    },
    "2600118": {
        "station_name": "白楽",
        "line_cd": 26001,
        "pref_cd": 14,
        "lon": 139.627875,
        "lat": 35.489555
    },
    "2600119": {
        "station_name": "東白楽",
        "line_cd": 26001,
        "pref_cd": 14,
        "lon": 139.629364,
        "lat": 35.483523
    },
    "2600120": {
        "station_name": "反町",
        "line_cd": 26001,
        "pref_cd": 14,
        "lon": 139.625337,
        "lat": 35.47474
    },
    "2600121": {
        "station_name": "横浜",
        "line_cd": 26001,
        "pref_cd": 14,
        "lon": 139.622299,
        "lat": 35.466372
    },
    "2600210": {
        "station_name": "新丸子",
        "line_cd": 26002,
        "pref_cd": 14,
        "lon": 139.661964,
        "lat": 35.58049
    },
    "2600211": {
        "station_name": "武蔵小杉",
        "line_cd": 26002,
        "pref_cd": 14,
        "lon": 139.659652,
        "lat": 35.575752
    },
    "2600212": {
        "station_name": "元住吉",
        "line_cd": 26002,
        "pref_cd": 14,
        "lon": 139.654668,
        "lat": 35.565698
    },
    "2600213": {
        "station_name": "日吉",
        "line_cd": 26002,
        "pref_cd": 14,
        "lon": 139.646944,
        "lat": 35.5539
    },
    "2600308": {
        "station_name": "二子新地",
        "line_cd": 26003,
        "pref_cd": 14,
        "lon": 139.622338,
        "lat": 35.606994
    },
    "2600309": {
        "station_name": "高津",
        "line_cd": 26003,
        "pref_cd": 14,
        "lon": 139.616934,
        "lat": 35.603248
    },
    "2600310": {
        "station_name": "溝の口",
        "line_cd": 26003,
        "pref_cd": 14,
        "lon": 139.610487,
        "lat": 35.59984
    },
    "2600311": {
        "station_name": "梶が谷",
        "line_cd": 26003,
        "pref_cd": 14,
        "lon": 139.605885,
        "lat": 35.593963
    },
    "2600312": {
        "station_name": "宮崎台",
        "line_cd": 26003,
        "pref_cd": 14,
        "lon": 139.591313,
        "lat": 35.587228
    },
    "2600313": {
        "station_name": "宮前平",
        "line_cd": 26003,
        "pref_cd": 14,
        "lon": 139.581983,
        "lat": 35.584951
    },
    "2600314": {
        "station_name": "鷺沼",
        "line_cd": 26003,
        "pref_cd": 14,
        "lon": 139.573268,
        "lat": 35.579762
    },
    "2600315": {
        "station_name": "たまプラーザ",
        "line_cd": 26003,
        "pref_cd": 14,
        "lon": 139.558447,
        "lat": 35.577427
    },
    "2600316": {
        "station_name": "あざみ野",
        "line_cd": 26003,
        "pref_cd": 14,
        "lon": 139.553462,
        "lat": 35.568645
    },
    "2600317": {
        "station_name": "江田",
        "line_cd": 26003,
        "pref_cd": 14,
        "lon": 139.551518,
        "lat": 35.558671
    },
    "2600318": {
        "station_name": "市が尾",
        "line_cd": 26003,
        "pref_cd": 14,
        "lon": 139.541496,
        "lat": 35.551483
    },
    "2600319": {
        "station_name": "藤が丘",
        "line_cd": 26003,
        "pref_cd": 14,
        "lon": 139.527655,
        "lat": 35.543454
    },
    "2600320": {
        "station_name": "青葉台",
        "line_cd": 26003,
        "pref_cd": 14,
        "lon": 139.517376,
        "lat": 35.542855
    },
    "2600321": {
        "station_name": "田奈",
        "line_cd": 26003,
        "pref_cd": 14,
        "lon": 139.504855,
        "lat": 35.536204
    },
    "2600322": {
        "station_name": "長津田",
        "line_cd": 26003,
        "pref_cd": 14,
        "lon": 139.493548,
        "lat": 35.53196
    },
    "2600326": {
        "station_name": "つきみ野",
        "line_cd": 26003,
        "pref_cd": 14,
        "lon": 139.458651,
        "lat": 35.510546
    },
    "2600327": {
        "station_name": "中央林間",
        "line_cd": 26003,
        "pref_cd": 14,
        "lon": 139.444935,
        "lat": 35.507671
    },
    "2600416": {
        "station_name": "二子新地",
        "line_cd": 26004,
        "pref_cd": 14,
        "lon": 139.622338,
        "lat": 35.606994
    },
    "2600417": {
        "station_name": "高津",
        "line_cd": 26004,
        "pref_cd": 14,
        "lon": 139.616934,
        "lat": 35.603248
    },
    "2600418": {
        "station_name": "溝の口",
        "line_cd": 26004,
        "pref_cd": 14,
        "lon": 139.610487,
        "lat": 35.59984
    },
    "2600801": {
        "station_name": "長津田",
        "line_cd": 26008,
        "pref_cd": 14,
        "lon": 139.493548,
        "lat": 35.53196
    },
    "2600802": {
        "station_name": "恩田",
        "line_cd": 26008,
        "pref_cd": 14,
        "lon": 139.492127,
        "lat": 35.545535
    },
    "2600803": {
        "station_name": "こどもの国",
        "line_cd": 26008,
        "pref_cd": 14,
        "lon": 139.486657,
        "lat": 35.558035
    },
    "2600901": {
        "station_name": "新横浜",
        "line_cd": 26009,
        "pref_cd": 14,
        "lon": 139.617472,
        "lat": 35.509056
    },
    "2600902": {
        "station_name": "新綱島",
        "line_cd": 26009,
        "pref_cd": 14,
        "lon": 139.636167,
        "lat": 35.536639
    },
    "2600903": {
        "station_name": "日吉",
        "line_cd": 26009,
        "pref_cd": 14,
        "lon": 139.646944,
        "lat": 35.5539
    },
    "2700115": {
        "station_name": "京急川崎",
        "line_cd": 27001,
        "pref_cd": 14,
        "lon": 139.700893,
        "lat": 35.53285
    },
    "2700116": {
        "station_name": "八丁畷",
        "line_cd": 27001,
        "pref_cd": 14,
        "lon": 139.691346,
        "lat": 35.523054
    },
    "2700117": {
        "station_name": "鶴見市場",
        "line_cd": 27001,
        "pref_cd": 14,
        "lon": 139.68642,
        "lat": 35.517594
    },
    "2700118": {
        "station_name": "京急鶴見",
        "line_cd": 27001,
        "pref_cd": 14,
        "lon": 139.677743,
        "lat": 35.507032
    },
    "2700119": {
        "station_name": "花月総持寺",
        "line_cd": 27001,
        "pref_cd": 14,
        "lon": 139.672813,
        "lat": 35.500358
    },
    "2700120": {
        "station_name": "生麦",
        "line_cd": 27001,
        "pref_cd": 14,
        "lon": 139.6673,
        "lat": 35.4956
    },
    "2700121": {
        "station_name": "京急新子安",
        "line_cd": 27001,
        "pref_cd": 14,
        "lon": 139.655848,
        "lat": 35.487242
    },
    "2700122": {
        "station_name": "子安",
        "line_cd": 27001,
        "pref_cd": 14,
        "lon": 139.644965,
        "lat": 35.484556
    },
    "2700123": {
        "station_name": "神奈川新町",
        "line_cd": 27001,
        "pref_cd": 14,
        "lon": 139.640152,
        "lat": 35.481559
    },
    "2700124": {
        "station_name": "京急東神奈川",
        "line_cd": 27001,
        "pref_cd": 14,
        "lon": 139.634669,
        "lat": 35.477412
    },
    "2700125": {
        "station_name": "神奈川",
        "line_cd": 27001,
        "pref_cd": 14,
        "lon": 139.627364,
        "lat": 35.471304
    },
    "2700126": {
        "station_name": "横浜",
        "line_cd": 27001,
        "pref_cd": 14,
        "lon": 139.623055,
        "lat": 35.466066
    },
    "2700127": {
        "station_name": "戸部",
        "line_cd": 27001,
        "pref_cd": 14,
        "lon": 139.61956,
        "lat": 35.456631
    },
    "2700128": {
        "station_name": "日ノ出町",
        "line_cd": 27001,
        "pref_cd": 14,
        "lon": 139.626696,
        "lat": 35.445524
    },
    "2700129": {
        "station_name": "黄金町",
        "line_cd": 27001,
        "pref_cd": 14,
        "lon": 139.62246,
        "lat": 35.439694
    },
    "2700130": {
        "station_name": "南太田",
        "line_cd": 27001,
        "pref_cd": 14,
        "lon": 139.613408,
        "lat": 35.436923
    },
    "2700131": {
        "station_name": "井土ヶ谷",
        "line_cd": 27001,
        "pref_cd": 14,
        "lon": 139.60061,
        "lat": 35.433895
    },
    "2700132": {
        "station_name": "弘明寺",
        "line_cd": 27001,
        "pref_cd": 14,
        "lon": 139.596791,
        "lat": 35.42437
    },
    "2700133": {
        "station_name": "上大岡",
        "line_cd": 27001,
        "pref_cd": 14,
        "lon": 139.596552,
        "lat": 35.409418
    },
    "2700134": {
        "station_name": "屏風浦",
        "line_cd": 27001,
        "pref_cd": 14,
        "lon": 139.610387,
        "lat": 35.394176
    },
    "2700135": {
        "station_name": "杉田",
        "line_cd": 27001,
        "pref_cd": 14,
        "lon": 139.615734,
        "lat": 35.383796
    },
    "2700136": {
        "station_name": "京急富岡",
        "line_cd": 27001,
        "pref_cd": 14,
        "lon": 139.629772,
        "lat": 35.366743
    },
    "2700137": {
        "station_name": "能見台",
        "line_cd": 27001,
        "pref_cd": 14,
        "lon": 139.629233,
        "lat": 35.360528
    },
    "2700138": {
        "station_name": "金沢文庫",
        "line_cd": 27001,
        "pref_cd": 14,
        "lon": 139.621606,
        "lat": 35.342966
    },
    "2700139": {
        "station_name": "金沢八景",
        "line_cd": 27001,
        "pref_cd": 14,
        "lon": 139.62018,
        "lat": 35.331223
    },
    "2700140": {
        "station_name": "追浜",
        "line_cd": 27001,
        "pref_cd": 14,
        "lon": 139.624905,
        "lat": 35.315461
    },
    "2700141": {
        "station_name": "京急田浦",
        "line_cd": 27001,
        "pref_cd": 14,
        "lon": 139.625252,
        "lat": 35.300892
    },
    "2700142": {
        "station_name": "安針塚",
        "line_cd": 27001,
        "pref_cd": 14,
        "lon": 139.64292,
        "lat": 35.286641
    },
    "2700143": {
        "station_name": "逸見",
        "line_cd": 27001,
        "pref_cd": 14,
        "lon": 139.653149,
        "lat": 35.28048
    },
    "2700144": {
        "station_name": "汐入",
        "line_cd": 27001,
        "pref_cd": 14,
        "lon": 139.662443,
        "lat": 35.280241
    },
    "2700145": {
        "station_name": "横須賀中央",
        "line_cd": 27001,
        "pref_cd": 14,
        "lon": 139.670217,
        "lat": 35.27858
    },
    "2700146": {
        "station_name": "県立大学",
        "line_cd": 27001,
        "pref_cd": 14,
        "lon": 139.677033,
        "lat": 35.269731
    },
    "2700147": {
        "station_name": "堀ノ内",
        "line_cd": 27001,
        "pref_cd": 14,
        "lon": 139.686932,
        "lat": 35.26322
    },
    "2700148": {
        "station_name": "京急大津",
        "line_cd": 27001,
        "pref_cd": 14,
        "lon": 139.695334,
        "lat": 35.261068
    },
    "2700149": {
        "station_name": "馬堀海岸",
        "line_cd": 27001,
        "pref_cd": 14,
        "lon": 139.707328,
        "lat": 35.259651
    },
    "2700150": {
        "station_name": "浦賀",
        "line_cd": 27001,
        "pref_cd": 14,
        "lon": 139.714999,
        "lat": 35.250933
    },
    "2700301": {
        "station_name": "京急川崎",
        "line_cd": 27003,
        "pref_cd": 14,
        "lon": 139.700893,
        "lat": 35.53285
    },
    "2700302": {
        "station_name": "港町",
        "line_cd": 27003,
        "pref_cd": 14,
        "lon": 139.712578,
        "lat": 35.535014
    },
    "2700303": {
        "station_name": "鈴木町",
        "line_cd": 27003,
        "pref_cd": 14,
        "lon": 139.720655,
        "lat": 35.53535
    },
    "2700304": {
        "station_name": "川崎大師",
        "line_cd": 27003,
        "pref_cd": 14,
        "lon": 139.725946,
        "lat": 35.535711
    },
    "2700305": {
        "station_name": "東門前",
        "line_cd": 27003,
        "pref_cd": 14,
        "lon": 139.734298,
        "lat": 35.536566
    },
    "2700306": {
        "station_name": "大師橋",
        "line_cd": 27003,
        "pref_cd": 14,
        "lon": 139.740381,
        "lat": 35.536611
    },
    "2700307": {
        "station_name": "小島新田",
        "line_cd": 27003,
        "pref_cd": 14,
        "lon": 139.747575,
        "lat": 35.534798
    },
    "2700401": {
        "station_name": "金沢八景",
        "line_cd": 27004,
        "pref_cd": 14,
        "lon": 139.62018,
        "lat": 35.331223
    },
    "2700402": {
        "station_name": "六浦",
        "line_cd": 27004,
        "pref_cd": 14,
        "lon": 139.611532,
        "lat": 35.32269
    },
    "2700403": {
        "station_name": "神武寺",
        "line_cd": 27004,
        "pref_cd": 14,
        "lon": 139.592947,
        "lat": 35.306233
    },
    "2700404": {
        "station_name": "逗子・葉山",
        "line_cd": 27004,
        "pref_cd": 14,
        "lon": 139.580359,
        "lat": 35.294189
    },
    "2700501": {
        "station_name": "堀ノ内",
        "line_cd": 27005,
        "pref_cd": 14,
        "lon": 139.686932,
        "lat": 35.26322
    },
    "2700502": {
        "station_name": "新大津",
        "line_cd": 27005,
        "pref_cd": 14,
        "lon": 139.69016,
        "lat": 35.257013
    },
    "2700503": {
        "station_name": "北久里浜",
        "line_cd": 27005,
        "pref_cd": 14,
        "lon": 139.686368,
        "lat": 35.249355
    },
    "2700504": {
        "station_name": "京急久里浜",
        "line_cd": 27005,
        "pref_cd": 14,
        "lon": 139.702139,
        "lat": 35.231332
    },
    "2700505": {
        "station_name": "ＹＲＰ野比",
        "line_cd": 27005,
        "pref_cd": 14,
        "lon": 139.685068,
        "lat": 35.212229
    },
    "2700506": {
        "station_name": "京急長沢",
        "line_cd": 27005,
        "pref_cd": 14,
        "lon": 139.674048,
        "lat": 35.20548
    },
    "2700507": {
        "station_name": "津久井浜",
        "line_cd": 27005,
        "pref_cd": 14,
        "lon": 139.665279,
        "lat": 35.198419
    },
    "2700508": {
        "station_name": "三浦海岸",
        "line_cd": 27005,
        "pref_cd": 14,
        "lon": 139.653138,
        "lat": 35.188084
    },
    "2700509": {
        "station_name": "三崎口",
        "line_cd": 27005,
        "pref_cd": 14,
        "lon": 139.633207,
        "lat": 35.177515
    },
    "2900101": {
        "station_name": "横浜",
        "line_cd": 29001,
        "pref_cd": 14,
        "lon": 139.621768,
        "lat": 35.465852
    },
    "2900102": {
        "station_name": "平沼橋",
        "line_cd": 29001,
        "pref_cd": 14,
        "lon": 139.616897,
        "lat": 35.460355
    },
    "2900103": {
        "station_name": "西横浜",
        "line_cd": 29001,
        "pref_cd": 14,
        "lon": 139.608745,
        "lat": 35.453437
    },
    "2900104": {
        "station_name": "天王町",
        "line_cd": 29001,
        "pref_cd": 14,
        "lon": 139.602554,
        "lat": 35.453984
    },
    "2900105": {
        "station_name": "星川",
        "line_cd": 29001,
        "pref_cd": 14,
        "lon": 139.594816,
        "lat": 35.458634
    },
    "2900106": {
        "station_name": "和田町",
        "line_cd": 29001,
        "pref_cd": 14,
        "lon": 139.586786,
        "lat": 35.463597
    },
    "2900107": {
        "station_name": "上星川",
        "line_cd": 29001,
        "pref_cd": 14,
        "lon": 139.580078,
        "lat": 35.467694
    },
    "2900108": {
        "station_name": "西谷",
        "line_cd": 29001,
        "pref_cd": 14,
        "lon": 139.565721,
        "lat": 35.478092
    },
    "2900109": {
        "station_name": "鶴ヶ峰",
        "line_cd": 29001,
        "pref_cd": 14,
        "lon": 139.549586,
        "lat": 35.475031
    },
    "2900110": {
        "station_name": "二俣川",
        "line_cd": 29001,
        "pref_cd": 14,
        "lon": 139.532207,
        "lat": 35.463335
    },
    "2900111": {
        "station_name": "希望ヶ丘",
        "line_cd": 29001,
        "pref_cd": 14,
        "lon": 139.5143,
        "lat": 35.460399
    },
    "2900112": {
        "station_name": "三ツ境",
        "line_cd": 29001,
        "pref_cd": 14,
        "lon": 139.502662,
        "lat": 35.467779
    },
    "2900113": {
        "station_name": "瀬谷",
        "line_cd": 29001,
        "pref_cd": 14,
        "lon": 139.482574,
        "lat": 35.470412
    },
    "2900114": {
        "station_name": "大和",
        "line_cd": 29001,
        "pref_cd": 14,
        "lon": 139.461383,
        "lat": 35.469924
    },
    "2900115": {
        "station_name": "相模大塚",
        "line_cd": 29001,
        "pref_cd": 14,
        "lon": 139.441232,
        "lat": 35.470666
    },
    "2900116": {
        "station_name": "さがみ野",
        "line_cd": 29001,
        "pref_cd": 14,
        "lon": 139.429055,
        "lat": 35.471485
    },
    "2900117": {
        "station_name": "かしわ台",
        "line_cd": 29001,
        "pref_cd": 14,
        "lon": 139.415851,
        "lat": 35.466744
    },
    "2900118": {
        "station_name": "海老名",
        "line_cd": 29001,
        "pref_cd": 14,
        "lon": 139.392074,
        "lat": 35.453381
    },
    "2900201": {
        "station_name": "二俣川",
        "line_cd": 29002,
        "pref_cd": 14,
        "lon": 139.532207,
        "lat": 35.463335
    },
    "2900202": {
        "station_name": "南万騎が原",
        "line_cd": 29002,
        "pref_cd": 14,
        "lon": 139.526344,
        "lat": 35.452522
    },
    "2900203": {
        "station_name": "緑園都市",
        "line_cd": 29002,
        "pref_cd": 14,
        "lon": 139.521841,
        "lat": 35.439502
    },
    "2900204": {
        "station_name": "弥生台",
        "line_cd": 29002,
        "pref_cd": 14,
        "lon": 139.506615,
        "lat": 35.429933
    },
    "2900205": {
        "station_name": "いずみ野",
        "line_cd": 29002,
        "pref_cd": 14,
        "lon": 139.495135,
        "lat": 35.429434
    },
    "2900206": {
        "station_name": "いずみ中央",
        "line_cd": 29002,
        "pref_cd": 14,
        "lon": 139.48727,
        "lat": 35.415385
    },
    "2900207": {
        "station_name": "ゆめが丘",
        "line_cd": 29002,
        "pref_cd": 14,
        "lon": 139.482192,
        "lat": 35.405436
    },
    "2900208": {
        "station_name": "湘南台",
        "line_cd": 29002,
        "pref_cd": 14,
        "lon": 139.467031,
        "lat": 35.396642
    },
    "2900301": {
        "station_name": "羽沢横浜国大",
        "line_cd": 29003,
        "pref_cd": 14,
        "lon": 139.586389,
        "lat": 35.481389
    },
    "2900302": {
        "station_name": "西谷",
        "line_cd": 29003,
        "pref_cd": 14,
        "lon": 139.565721,
        "lat": 35.478092
    },
    "2900308": {
        "station_name": "武蔵小杉",
        "line_cd": 29003,
        "pref_cd": 14,
        "lon": 139.65963,
        "lat": 35.57669
    },
    "2900309": {
        "station_name": "鶴ヶ峰",
        "line_cd": 29003,
        "pref_cd": 14,
        "lon": 139.549586,
        "lat": 35.475031
    },
    "2900310": {
        "station_name": "二俣川",
        "line_cd": 29003,
        "pref_cd": 14,
        "lon": 139.532207,
        "lat": 35.463335
    },
    "2900311": {
        "station_name": "希望ヶ丘",
        "line_cd": 29003,
        "pref_cd": 14,
        "lon": 139.5143,
        "lat": 35.460399
    },
    "2900312": {
        "station_name": "三ツ境",
        "line_cd": 29003,
        "pref_cd": 14,
        "lon": 139.502662,
        "lat": 35.467779
    },
    "2900313": {
        "station_name": "瀬谷",
        "line_cd": 29003,
        "pref_cd": 14,
        "lon": 139.482574,
        "lat": 35.470412
    },
    "2900314": {
        "station_name": "大和",
        "line_cd": 29003,
        "pref_cd": 14,
        "lon": 139.461383,
        "lat": 35.469924
    },
    "2900315": {
        "station_name": "相模大塚",
        "line_cd": 29003,
        "pref_cd": 14,
        "lon": 139.441232,
        "lat": 35.470666
    },
    "2900316": {
        "station_name": "さがみ野",
        "line_cd": 29003,
        "pref_cd": 14,
        "lon": 139.429055,
        "lat": 35.471485
    },
    "2900317": {
        "station_name": "かしわ台",
        "line_cd": 29003,
        "pref_cd": 14,
        "lon": 139.415851,
        "lat": 35.466744
    },
    "2900318": {
        "station_name": "海老名",
        "line_cd": 29003,
        "pref_cd": 14,
        "lon": 139.392074,
        "lat": 35.453381
    },
    "2900401": {
        "station_name": "新横浜",
        "line_cd": 29004,
        "pref_cd": 14,
        "lon": 139.617472,
        "lat": 35.509056
    },
    "2900402": {
        "station_name": "羽沢横浜国大",
        "line_cd": 29004,
        "pref_cd": 14,
        "lon": 139.586389,
        "lat": 35.481389
    },
    "2900403": {
        "station_name": "西谷",
        "line_cd": 29004,
        "pref_cd": 14,
        "lon": 139.565721,
        "lat": 35.478092
    },
    "9931001": {
        "station_name": "横浜",
        "line_cd": 99310,
        "pref_cd": 14,
        "lon": 139.622299,
        "lat": 35.466372
    },
    "9931002": {
        "station_name": "新高島",
        "line_cd": 99310,
        "pref_cd": 14,
        "lon": 139.626499,
        "lat": 35.46192
    },
    "9931003": {
        "station_name": "みなとみらい",
        "line_cd": 99310,
        "pref_cd": 14,
        "lon": 139.632386,
        "lat": 35.458028
    },
    "9931004": {
        "station_name": "馬車道",
        "line_cd": 99310,
        "pref_cd": 14,
        "lon": 139.636175,
        "lat": 35.450135
    },
    "9931005": {
        "station_name": "日本大通り",
        "line_cd": 99310,
        "pref_cd": 14,
        "lon": 139.642608,
        "lat": 35.446821
    },
    "9931006": {
        "station_name": "元町・中華街",
        "line_cd": 99310,
        "pref_cd": 14,
        "lon": 139.650446,
        "lat": 35.44243
    },
    "9931401": {
        "station_name": "小田原",
        "line_cd": 99314,
        "pref_cd": 14,
        "lon": 139.156474,
        "lat": 35.25658
    },
    "9931402": {
        "station_name": "緑町",
        "line_cd": 99314,
        "pref_cd": 14,
        "lon": 139.158578,
        "lat": 35.259226
    },
    "9931403": {
        "station_name": "井細田",
        "line_cd": 99314,
        "pref_cd": 14,
        "lon": 139.157397,
        "lat": 35.268964
    },
    "9931404": {
        "station_name": "五百羅漢",
        "line_cd": 99314,
        "pref_cd": 14,
        "lon": 139.155758,
        "lat": 35.27519
    },
    "9931405": {
        "station_name": "穴部",
        "line_cd": 99314,
        "pref_cd": 14,
        "lon": 139.148787,
        "lat": 35.279887
    },
    "9931406": {
        "station_name": "飯田岡",
        "line_cd": 99314,
        "pref_cd": 14,
        "lon": 139.139109,
        "lat": 35.287913
    },
    "9931407": {
        "station_name": "相模沼田",
        "line_cd": 99314,
        "pref_cd": 14,
        "lon": 139.133945,
        "lat": 35.292334
    },
    "9931408": {
        "station_name": "岩原",
        "line_cd": 99314,
        "pref_cd": 14,
        "lon": 139.12879,
        "lat": 35.298825
    },
    "9931409": {
        "station_name": "塚原",
        "line_cd": 99314,
        "pref_cd": 14,
        "lon": 139.126632,
        "lat": 35.301305
    },
    "9931410": {
        "station_name": "和田河原",
        "line_cd": 99314,
        "pref_cd": 14,
        "lon": 139.118684,
        "lat": 35.31585
    },
    "9931411": {
        "station_name": "富士フイルム前",
        "line_cd": 99314,
        "pref_cd": 14,
        "lon": 139.109483,
        "lat": 35.317657
    },
    "9931412": {
        "station_name": "大雄山",
        "line_cd": 99314,
        "pref_cd": 14,
        "lon": 139.10365,
        "lat": 35.319046
    },
    "9931601": {
        "station_name": "あざみ野",
        "line_cd": 99316,
        "pref_cd": 14,
        "lon": 139.553694,
        "lat": 35.568076
    },
    "9931602": {
        "station_name": "中川",
        "line_cd": 99316,
        "pref_cd": 14,
        "lon": 139.569846,
        "lat": 35.562973
    },
    "9931603": {
        "station_name": "センター北",
        "line_cd": 99316,
        "pref_cd": 14,
        "lon": 139.578457,
        "lat": 35.55353
    },
    "9931604": {
        "station_name": "センター南",
        "line_cd": 99316,
        "pref_cd": 14,
        "lon": 139.574291,
        "lat": 35.545476
    },
    "9931605": {
        "station_name": "仲町台",
        "line_cd": 99316,
        "pref_cd": 14,
        "lon": 139.589715,
        "lat": 35.535258
    },
    "9931606": {
        "station_name": "新羽",
        "line_cd": 99316,
        "pref_cd": 14,
        "lon": 139.612065,
        "lat": 35.527701
    },
    "9931607": {
        "station_name": "北新横浜",
        "line_cd": 99316,
        "pref_cd": 14,
        "lon": 139.612818,
        "lat": 35.519271
    },
    "9931608": {
        "station_name": "新横浜",
        "line_cd": 99316,
        "pref_cd": 14,
        "lon": 139.617745,
        "lat": 35.508588
    },
    "9931609": {
        "station_name": "岸根公園",
        "line_cd": 99316,
        "pref_cd": 14,
        "lon": 139.617065,
        "lat": 35.496038
    },
    "9931610": {
        "station_name": "片倉町",
        "line_cd": 99316,
        "pref_cd": 14,
        "lon": 139.606511,
        "lat": 35.490205
    },
    "9931611": {
        "station_name": "三ツ沢上町",
        "line_cd": 99316,
        "pref_cd": 14,
        "lon": 139.605395,
        "lat": 35.476526
    },
    "9931612": {
        "station_name": "三ツ沢下町",
        "line_cd": 99316,
        "pref_cd": 14,
        "lon": 139.61481,
        "lat": 35.476512
    },
    "9931613": {
        "station_name": "横浜",
        "line_cd": 99316,
        "pref_cd": 14,
        "lon": 139.619912,
        "lat": 35.465826
    },
    "9931614": {
        "station_name": "高島町",
        "line_cd": 99316,
        "pref_cd": 14,
        "lon": 139.623548,
        "lat": 35.458804
    },
    "9931615": {
        "station_name": "桜木町",
        "line_cd": 99316,
        "pref_cd": 14,
        "lon": 139.630791,
        "lat": 35.449667
    },
    "9931616": {
        "station_name": "関内",
        "line_cd": 99316,
        "pref_cd": 14,
        "lon": 139.635855,
        "lat": 35.445821
    },
    "9931617": {
        "station_name": "伊勢佐木長者町",
        "line_cd": 99316,
        "pref_cd": 14,
        "lon": 139.633176,
        "lat": 35.441044
    },
    "9931618": {
        "station_name": "阪東橋",
        "line_cd": 99316,
        "pref_cd": 14,
        "lon": 139.624843,
        "lat": 35.437434
    },
    "9931619": {
        "station_name": "吉野町",
        "line_cd": 99316,
        "pref_cd": 14,
        "lon": 139.618455,
        "lat": 35.435489
    },
    "9931620": {
        "station_name": "蒔田",
        "line_cd": 99316,
        "pref_cd": 14,
        "lon": 139.610123,
        "lat": 35.429935
    },
    "9931621": {
        "station_name": "弘明寺",
        "line_cd": 99316,
        "pref_cd": 14,
        "lon": 139.602081,
        "lat": 35.423294
    },
    "9931622": {
        "station_name": "上大岡",
        "line_cd": 99316,
        "pref_cd": 14,
        "lon": 139.595901,
        "lat": 35.408745
    },
    "9931623": {
        "station_name": "港南中央",
        "line_cd": 99316,
        "pref_cd": 14,
        "lon": 139.590958,
        "lat": 35.401049
    },
    "9931624": {
        "station_name": "上永谷",
        "line_cd": 99316,
        "pref_cd": 14,
        "lon": 139.572713,
        "lat": 35.401391
    },
    "9931625": {
        "station_name": "下永谷",
        "line_cd": 99316,
        "pref_cd": 14,
        "lon": 139.559389,
        "lat": 35.402677
    },
    "9931626": {
        "station_name": "舞岡",
        "line_cd": 99316,
        "pref_cd": 14,
        "lon": 139.551509,
        "lat": 35.402685
    },
    "9931627": {
        "station_name": "戸塚",
        "line_cd": 99316,
        "pref_cd": 14,
        "lon": 139.534328,
        "lat": 35.400818
    },
    "9931628": {
        "station_name": "踊場",
        "line_cd": 99316,
        "pref_cd": 14,
        "lon": 139.518058,
        "lat": 35.405922
    },
    "9931629": {
        "station_name": "中田",
        "line_cd": 99316,
        "pref_cd": 14,
        "lon": 139.511301,
        "lat": 35.411161
    },
    "9931630": {
        "station_name": "立場",
        "line_cd": 99316,
        "pref_cd": 14,
        "lon": 139.500177,
        "lat": 35.414296
    },
    "9931631": {
        "station_name": "下飯田",
        "line_cd": 99316,
        "pref_cd": 14,
        "lon": 139.483195,
        "lat": 35.403503
    },
    "9931632": {
        "station_name": "湘南台",
        "line_cd": 99316,
        "pref_cd": 14,
        "lon": 139.467283,
        "lat": 35.396471
    },
    "9931701": {
        "station_name": "新杉田",
        "line_cd": 99317,
        "pref_cd": 14,
        "lon": 139.620502,
        "lat": 35.385919
    },
    "9931702": {
        "station_name": "南部市場",
        "line_cd": 99317,
        "pref_cd": 14,
        "lon": 139.633163,
        "lat": 35.380192
    },
    "9931703": {
        "station_name": "鳥浜",
        "line_cd": 99317,
        "pref_cd": 14,
        "lon": 139.641704,
        "lat": 35.377187
    },
    "9931704": {
        "station_name": "並木北",
        "line_cd": 99317,
        "pref_cd": 14,
        "lon": 139.642743,
        "lat": 35.372015
    },
    "9931705": {
        "station_name": "並木中央",
        "line_cd": 99317,
        "pref_cd": 14,
        "lon": 139.642945,
        "lat": 35.365505
    },
    "9931706": {
        "station_name": "幸浦",
        "line_cd": 99317,
        "pref_cd": 14,
        "lon": 139.643706,
        "lat": 35.358406
    },
    "9931707": {
        "station_name": "産業振興センター",
        "line_cd": 99317,
        "pref_cd": 14,
        "lon": 139.646326,
        "lat": 35.35339
    },
    "9931708": {
        "station_name": "福浦",
        "line_cd": 99317,
        "pref_cd": 14,
        "lon": 139.648517,
        "lat": 35.349627
    },
    "9931709": {
        "station_name": "市大医学部",
        "line_cd": 99317,
        "pref_cd": 14,
        "lon": 139.650156,
        "lat": 35.343966
    },
    "9931710": {
        "station_name": "八景島",
        "line_cd": 99317,
        "pref_cd": 14,
        "lon": 139.64079,
        "lat": 35.340914
    },
    "9931711": {
        "station_name": "海の公園柴口",
        "line_cd": 99317,
        "pref_cd": 14,
        "lon": 139.635846,
        "lat": 35.342086
    },
    "9931712": {
        "station_name": "海の公園南口",
        "line_cd": 99317,
        "pref_cd": 14,
        "lon": 139.632096,
        "lat": 35.337225
    },
    "9931713": {
        "station_name": "野島公園",
        "line_cd": 99317,
        "pref_cd": 14,
        "lon": 139.631524,
        "lat": 35.330559
    },
    "9931714": {
        "station_name": "金沢八景",
        "line_cd": 99317,
        "pref_cd": 14,
        "lon": 139.622133,
        "lat": 35.331285
    },
    "9932001": {
        "station_name": "藤沢",
        "line_cd": 99320,
        "pref_cd": 14,
        "lon": 139.487293,
        "lat": 35.337227
    },
    "9932002": {
        "station_name": "石上",
        "line_cd": 99320,
        "pref_cd": 14,
        "lon": 139.485572,
        "lat": 35.332482
    },
    "9932003": {
        "station_name": "柳小路",
        "line_cd": 99320,
        "pref_cd": 14,
        "lon": 139.485189,
        "lat": 35.327352
    },
    "9932004": {
        "station_name": "鵠沼",
        "line_cd": 99320,
        "pref_cd": 14,
        "lon": 139.482637,
        "lat": 35.321447
    },
    "9932005": {
        "station_name": "湘南海岸公園",
        "line_cd": 99320,
        "pref_cd": 14,
        "lon": 139.4833,
        "lat": 35.315203
    },
    "9932006": {
        "station_name": "江ノ島",
        "line_cd": 99320,
        "pref_cd": 14,
        "lon": 139.487581,
        "lat": 35.311003
    },
    "9932007": {
        "station_name": "腰越",
        "line_cd": 99320,
        "pref_cd": 14,
        "lon": 139.493286,
        "lat": 35.308287
    },
    "9932008": {
        "station_name": "鎌倉高校前",
        "line_cd": 99320,
        "pref_cd": 14,
        "lon": 139.500535,
        "lat": 35.306698
    },
    "9932009": {
        "station_name": "七里ヶ浜",
        "line_cd": 99320,
        "pref_cd": 14,
        "lon": 139.510101,
        "lat": 35.306243
    },
    "9932010": {
        "station_name": "稲村ヶ崎",
        "line_cd": 99320,
        "pref_cd": 14,
        "lon": 139.522322,
        "lat": 35.30426
    },
    "9932011": {
        "station_name": "極楽寺",
        "line_cd": 99320,
        "pref_cd": 14,
        "lon": 139.528721,
        "lat": 35.309318
    },
    "9932012": {
        "station_name": "長谷",
        "line_cd": 99320,
        "pref_cd": 14,
        "lon": 139.536168,
        "lat": 35.311265
    },
    "9932013": {
        "station_name": "由比ヶ浜",
        "line_cd": 99320,
        "pref_cd": 14,
        "lon": 139.54157,
        "lat": 35.312857
    },
    "9932014": {
        "station_name": "和田塚",
        "line_cd": 99320,
        "pref_cd": 14,
        "lon": 139.545362,
        "lat": 35.31372
    },
    "9932015": {
        "station_name": "鎌倉",
        "line_cd": 99320,
        "pref_cd": 14,
        "lon": 139.550121,
        "lat": 35.318491
    },
    "9932601": {
        "station_name": "大船",
        "line_cd": 99326,
        "pref_cd": 14,
        "lon": 139.531367,
        "lat": 35.352359
    },
    "9932602": {
        "station_name": "富士見町",
        "line_cd": 99326,
        "pref_cd": 14,
        "lon": 139.529277,
        "lat": 35.345389
    },
    "9932603": {
        "station_name": "湘南町屋",
        "line_cd": 99326,
        "pref_cd": 14,
        "lon": 139.522666,
        "lat": 35.337832
    },
    "9932604": {
        "station_name": "湘南深沢",
        "line_cd": 99326,
        "pref_cd": 14,
        "lon": 139.518903,
        "lat": 35.332865
    },
    "9932605": {
        "station_name": "西鎌倉",
        "line_cd": 99326,
        "pref_cd": 14,
        "lon": 139.504365,
        "lat": 35.319383
    },
    "9932606": {
        "station_name": "片瀬山",
        "line_cd": 99326,
        "pref_cd": 14,
        "lon": 139.496052,
        "lat": 35.317256
    },
    "9932607": {
        "station_name": "目白山下",
        "line_cd": 99326,
        "pref_cd": 14,
        "lon": 139.491533,
        "lat": 35.31402
    },
    "9932608": {
        "station_name": "湘南江の島",
        "line_cd": 99326,
        "pref_cd": 14,
        "lon": 139.487794,
        "lat": 35.311867
    },
    "9933901": {
        "station_name": "小田原",
        "line_cd": 99339,
        "pref_cd": 14,
        "lon": 139.155396,
        "lat": 35.256229
    },
    "9933902": {
        "station_name": "箱根板橋",
        "line_cd": 99339,
        "pref_cd": 14,
        "lon": 139.145169,
        "lat": 35.245169
    },
    "9933903": {
        "station_name": "風祭",
        "line_cd": 99339,
        "pref_cd": 14,
        "lon": 139.129104,
        "lat": 35.246229
    },
    "9933904": {
        "station_name": "入生田",
        "line_cd": 99339,
        "pref_cd": 14,
        "lon": 139.121244,
        "lat": 35.240894
    },
    "9933905": {
        "station_name": "箱根湯本",
        "line_cd": 99339,
        "pref_cd": 14,
        "lon": 139.103743,
        "lat": 35.233555
    },
    "9933906": {
        "station_name": "塔ノ沢",
        "line_cd": 99339,
        "pref_cd": 14,
        "lon": 139.094016,
        "lat": 35.234521
    },
    "9933907": {
        "station_name": "大平台",
        "line_cd": 99339,
        "pref_cd": 14,
        "lon": 139.073849,
        "lat": 35.238664
    },
    "9933908": {
        "station_name": "宮ノ下",
        "line_cd": 99339,
        "pref_cd": 14,
        "lon": 139.063052,
        "lat": 35.241913
    },
    "9933909": {
        "station_name": "小涌谷",
        "line_cd": 99339,
        "pref_cd": 14,
        "lon": 139.053162,
        "lat": 35.240374
    },
    "9933910": {
        "station_name": "彫刻の森",
        "line_cd": 99339,
        "pref_cd": 14,
        "lon": 139.050856,
        "lat": 35.246529
    },
    "9933911": {
        "station_name": "強羅",
        "line_cd": 99339,
        "pref_cd": 14,
        "lon": 139.048162,
        "lat": 35.25085
    },
    "9934301": {
        "station_name": "中山",
        "line_cd": 99343,
        "pref_cd": 14,
        "lon": 139.54032,
        "lat": 35.515029
    },
    "9934302": {
        "station_name": "川和町",
        "line_cd": 99343,
        "pref_cd": 14,
        "lon": 139.548745,
        "lat": 35.52802
    },
    "9934303": {
        "station_name": "都筑ふれあいの丘",
        "line_cd": 99343,
        "pref_cd": 14,
        "lon": 139.561359,
        "lat": 35.536583
    },
    "9934304": {
        "station_name": "センター南",
        "line_cd": 99343,
        "pref_cd": 14,
        "lon": 139.574325,
        "lat": 35.545863
    },
    "9934305": {
        "station_name": "センター北",
        "line_cd": 99343,
        "pref_cd": 14,
        "lon": 139.578386,
        "lat": 35.553534
    },
    "9934306": {
        "station_name": "北山田",
        "line_cd": 99343,
        "pref_cd": 14,
        "lon": 139.592258,
        "lat": 35.561077
    },
    "9934307": {
        "station_name": "東山田",
        "line_cd": 99343,
        "pref_cd": 14,
        "lon": 139.604369,
        "lat": 35.554302
    },
    "9934308": {
        "station_name": "高田",
        "line_cd": 99343,
        "pref_cd": 14,
        "lon": 139.619944,
        "lat": 35.549713
    },
    "9934309": {
        "station_name": "日吉本町",
        "line_cd": 99343,
        "pref_cd": 14,
        "lon": 139.633554,
        "lat": 35.549883
    },
    "9934310": {
        "station_name": "日吉",
        "line_cd": 99343,
        "pref_cd": 14,
        "lon": 139.647008,
        "lat": 35.553313
    },
    "9934401": {
        "station_name": "強羅",
        "line_cd": 99344,
        "pref_cd": 14,
        "lon": 139.048162,
        "lat": 35.25085
    },
    "9934402": {
        "station_name": "公園下",
        "line_cd": 99344,
        "pref_cd": 14,
        "lon": 139.045639,
        "lat": 35.249944
    },
    "9934403": {
        "station_name": "公園上",
        "line_cd": 99344,
        "pref_cd": 14,
        "lon": 139.043167,
        "lat": 35.249083
    },
    "9934404": {
        "station_name": "中強羅",
        "line_cd": 99344,
        "pref_cd": 14,
        "lon": 139.040556,
        "lat": 35.248167
    },
    "9934405": {
        "station_name": "上強羅",
        "line_cd": 99344,
        "pref_cd": 14,
        "lon": 139.038056,
        "lat": 35.247306
    },
    "9934406": {
        "station_name": "早雲山",
        "line_cd": 99344,
        "pref_cd": 14,
        "lon": 139.035611,
        "lat": 35.246444
    }
}