{
    "1130121": {
        "station_name": "熱海",
        "line_cd": 11301,
        "pref_cd": 22,
        "lon": 139.077679,
        "lat": 35.103573
    },
    "1140201": {
        "station_name": "富士",
        "line_cd": 11402,
        "pref_cd": 22,
        "lon": 138.651225,
        "lat": 35.151497
    },
    "1140202": {
        "station_name": "柚木",
        "line_cd": 11402,
        "pref_cd": 22,
        "lon": 138.639157,
        "lat": 35.157468
    },
    "1140203": {
        "station_name": "竪堀",
        "line_cd": 11402,
        "pref_cd": 22,
        "lon": 138.645881,
        "lat": 35.168075
    },
    "1140204": {
        "station_name": "入山瀬",
        "line_cd": 11402,
        "pref_cd": 22,
        "lon": 138.647622,
        "lat": 35.188276
    },
    "1140205": {
        "station_name": "富士根",
        "line_cd": 11402,
        "pref_cd": 22,
        "lon": 138.63562,
        "lat": 35.205251
    },
    "1140206": {
        "station_name": "源道寺",
        "line_cd": 11402,
        "pref_cd": 22,
        "lon": 138.627057,
        "lat": 35.214463
    },
    "1140207": {
        "station_name": "富士宮",
        "line_cd": 11402,
        "pref_cd": 22,
        "lon": 138.614924,
        "lat": 35.221409
    },
    "1140208": {
        "station_name": "西富士宮",
        "line_cd": 11402,
        "pref_cd": 22,
        "lon": 138.602567,
        "lat": 35.225456
    },
    "1140209": {
        "station_name": "沼久保",
        "line_cd": 11402,
        "pref_cd": 22,
        "lon": 138.584283,
        "lat": 35.199278
    },
    "1140210": {
        "station_name": "芝川",
        "line_cd": 11402,
        "pref_cd": 22,
        "lon": 138.563845,
        "lat": 35.197272
    },
    "1140211": {
        "station_name": "稲子",
        "line_cd": 11402,
        "pref_cd": 22,
        "lon": 138.536892,
        "lat": 35.230454
    },
    "1141327": {
        "station_name": "出馬",
        "line_cd": 11413,
        "pref_cd": 22,
        "lon": 137.744276,
        "lat": 35.049322
    },
    "1141328": {
        "station_name": "上市場",
        "line_cd": 11413,
        "pref_cd": 22,
        "lon": 137.752364,
        "lat": 35.050202
    },
    "1141329": {
        "station_name": "浦川",
        "line_cd": 11413,
        "pref_cd": 22,
        "lon": 137.763608,
        "lat": 35.056355
    },
    "1141330": {
        "station_name": "早瀬",
        "line_cd": 11413,
        "pref_cd": 22,
        "lon": 137.775126,
        "lat": 35.060521
    },
    "1141331": {
        "station_name": "下川合",
        "line_cd": 11413,
        "pref_cd": 22,
        "lon": 137.786422,
        "lat": 35.069321
    },
    "1141332": {
        "station_name": "中部天竜",
        "line_cd": 11413,
        "pref_cd": 22,
        "lon": 137.802898,
        "lat": 35.085283
    },
    "1141333": {
        "station_name": "佐久間",
        "line_cd": 11413,
        "pref_cd": 22,
        "lon": 137.809783,
        "lat": 35.091877
    },
    "1141334": {
        "station_name": "相月",
        "line_cd": 11413,
        "pref_cd": 22,
        "lon": 137.854345,
        "lat": 35.114988
    },
    "1141335": {
        "station_name": "城西",
        "line_cd": 11413,
        "pref_cd": 22,
        "lon": 137.86198,
        "lat": 35.131569
    },
    "1141336": {
        "station_name": "向市場",
        "line_cd": 11413,
        "pref_cd": 22,
        "lon": 137.869446,
        "lat": 35.154067
    },
    "1141337": {
        "station_name": "水窪",
        "line_cd": 11413,
        "pref_cd": 22,
        "lon": 137.870501,
        "lat": 35.163371
    },
    "1141338": {
        "station_name": "大嵐",
        "line_cd": 11413,
        "pref_cd": 22,
        "lon": 137.818509,
        "lat": 35.190466
    },
    "1141339": {
        "station_name": "小和田",
        "line_cd": 11413,
        "pref_cd": 22,
        "lon": 137.835971,
        "lat": 35.209862
    },
    "1150101": {
        "station_name": "熱海",
        "line_cd": 11501,
        "pref_cd": 22,
        "lon": 139.077679,
        "lat": 35.103573
    },
    "1150102": {
        "station_name": "函南",
        "line_cd": 11501,
        "pref_cd": 22,
        "lon": 138.970984,
        "lat": 35.108773
    },
    "1150103": {
        "station_name": "三島",
        "line_cd": 11501,
        "pref_cd": 22,
        "lon": 138.911133,
        "lat": 35.126253
    },
    "1150104": {
        "station_name": "沼津",
        "line_cd": 11501,
        "pref_cd": 22,
        "lon": 138.860104,
        "lat": 35.103011
    },
    "1150105": {
        "station_name": "片浜",
        "line_cd": 11501,
        "pref_cd": 22,
        "lon": 138.818937,
        "lat": 35.11825
    },
    "1150106": {
        "station_name": "原",
        "line_cd": 11501,
        "pref_cd": 22,
        "lon": 138.793387,
        "lat": 35.124915
    },
    "1150107": {
        "station_name": "東田子の浦",
        "line_cd": 11501,
        "pref_cd": 22,
        "lon": 138.745441,
        "lat": 35.136255
    },
    "1150108": {
        "station_name": "吉原",
        "line_cd": 11501,
        "pref_cd": 22,
        "lon": 138.702768,
        "lat": 35.143845
    },
    "1150109": {
        "station_name": "富士",
        "line_cd": 11501,
        "pref_cd": 22,
        "lon": 138.651225,
        "lat": 35.151497
    },
    "1150110": {
        "station_name": "富士川",
        "line_cd": 11501,
        "pref_cd": 22,
        "lon": 138.618571,
        "lat": 35.141119
    },
    "1150111": {
        "station_name": "新蒲原",
        "line_cd": 11501,
        "pref_cd": 22,
        "lon": 138.608117,
        "lat": 35.119599
    },
    "1150112": {
        "station_name": "蒲原",
        "line_cd": 11501,
        "pref_cd": 22,
        "lon": 138.582752,
        "lat": 35.114005
    },
    "1150113": {
        "station_name": "由比",
        "line_cd": 11501,
        "pref_cd": 22,
        "lon": 138.552756,
        "lat": 35.097108
    },
    "1150114": {
        "station_name": "興津",
        "line_cd": 11501,
        "pref_cd": 22,
        "lon": 138.521865,
        "lat": 35.052539
    },
    "1150115": {
        "station_name": "清水",
        "line_cd": 11501,
        "pref_cd": 22,
        "lon": 138.488958,
        "lat": 35.023248
    },
    "1150116": {
        "station_name": "草薙",
        "line_cd": 11501,
        "pref_cd": 22,
        "lon": 138.442025,
        "lat": 35.002854
    },
    "1150117": {
        "station_name": "東静岡",
        "line_cd": 11501,
        "pref_cd": 22,
        "lon": 138.413118,
        "lat": 34.985256
    },
    "1150118": {
        "station_name": "静岡",
        "line_cd": 11501,
        "pref_cd": 22,
        "lon": 138.388579,
        "lat": 34.971629
    },
    "1150119": {
        "station_name": "安倍川",
        "line_cd": 11501,
        "pref_cd": 22,
        "lon": 138.364029,
        "lat": 34.940961
    },
    "1150120": {
        "station_name": "用宗",
        "line_cd": 11501,
        "pref_cd": 22,
        "lon": 138.36006,
        "lat": 34.922512
    },
    "1150121": {
        "station_name": "焼津",
        "line_cd": 11501,
        "pref_cd": 22,
        "lon": 138.318457,
        "lat": 34.872261
    },
    "1150122": {
        "station_name": "西焼津",
        "line_cd": 11501,
        "pref_cd": 22,
        "lon": 138.28552,
        "lat": 34.859824
    },
    "1150123": {
        "station_name": "藤枝",
        "line_cd": 11501,
        "pref_cd": 22,
        "lon": 138.252748,
        "lat": 34.849511
    },
    "1150124": {
        "station_name": "六合",
        "line_cd": 11501,
        "pref_cd": 22,
        "lon": 138.203502,
        "lat": 34.836436
    },
    "1150125": {
        "station_name": "島田",
        "line_cd": 11501,
        "pref_cd": 22,
        "lon": 138.173436,
        "lat": 34.830159
    },
    "1150126": {
        "station_name": "金谷",
        "line_cd": 11501,
        "pref_cd": 22,
        "lon": 138.125578,
        "lat": 34.819049
    },
    "1150127": {
        "station_name": "菊川",
        "line_cd": 11501,
        "pref_cd": 22,
        "lon": 138.085648,
        "lat": 34.76176
    },
    "1150128": {
        "station_name": "掛川",
        "line_cd": 11501,
        "pref_cd": 22,
        "lon": 138.014937,
        "lat": 34.769463
    },
    "1150129": {
        "station_name": "愛野",
        "line_cd": 11501,
        "pref_cd": 22,
        "lon": 137.961663,
        "lat": 34.752257
    },
    "1150130": {
        "station_name": "袋井",
        "line_cd": 11501,
        "pref_cd": 22,
        "lon": 137.92596,
        "lat": 34.741377
    },
    "1150131": {
        "station_name": "磐田",
        "line_cd": 11501,
        "pref_cd": 22,
        "lon": 137.852244,
        "lat": 34.710132
    },
    "1150132": {
        "station_name": "豊田町",
        "line_cd": 11501,
        "pref_cd": 22,
        "lon": 137.82013,
        "lat": 34.7121
    },
    "1150133": {
        "station_name": "天竜川",
        "line_cd": 11501,
        "pref_cd": 22,
        "lon": 137.77923,
        "lat": 34.716994
    },
    "1150134": {
        "station_name": "浜松",
        "line_cd": 11501,
        "pref_cd": 22,
        "lon": 137.734759,
        "lat": 34.703866
    },
    "1150135": {
        "station_name": "御厨",
        "line_cd": 11501,
        "pref_cd": 22,
        "lon": 137.885,
        "lat": 34.7183
    },
    "1150201": {
        "station_name": "浜松",
        "line_cd": 11502,
        "pref_cd": 22,
        "lon": 137.734759,
        "lat": 34.703866
    },
    "1150203": {
        "station_name": "高塚",
        "line_cd": 11502,
        "pref_cd": 22,
        "lon": 137.681303,
        "lat": 34.690425
    },
    "1150204": {
        "station_name": "舞阪",
        "line_cd": 11502,
        "pref_cd": 22,
        "lon": 137.626422,
        "lat": 34.685701
    },
    "1150205": {
        "station_name": "弁天島",
        "line_cd": 11502,
        "pref_cd": 22,
        "lon": 137.603058,
        "lat": 34.690125
    },
    "1150206": {
        "station_name": "新居町",
        "line_cd": 11502,
        "pref_cd": 22,
        "lon": 137.568953,
        "lat": 34.694276
    },
    "1150207": {
        "station_name": "鷲津",
        "line_cd": 11502,
        "pref_cd": 22,
        "lon": 137.546116,
        "lat": 34.716819
    },
    "1150208": {
        "station_name": "新所原",
        "line_cd": 11502,
        "pref_cd": 22,
        "lon": 137.484399,
        "lat": 34.723205
    },
    "1150401": {
        "station_name": "熱海",
        "line_cd": 11504,
        "pref_cd": 22,
        "lon": 139.077679,
        "lat": 35.103573
    },
    "1150402": {
        "station_name": "来宮",
        "line_cd": 11504,
        "pref_cd": 22,
        "lon": 139.065575,
        "lat": 35.098723
    },
    "1150403": {
        "station_name": "伊豆多賀",
        "line_cd": 11504,
        "pref_cd": 22,
        "lon": 139.066847,
        "lat": 35.059411
    },
    "1150404": {
        "station_name": "網代",
        "line_cd": 11504,
        "pref_cd": 22,
        "lon": 139.081245,
        "lat": 35.043545
    },
    "1150405": {
        "station_name": "宇佐美",
        "line_cd": 11504,
        "pref_cd": 22,
        "lon": 139.079778,
        "lat": 35.005602
    },
    "1150406": {
        "station_name": "伊東",
        "line_cd": 11504,
        "pref_cd": 22,
        "lon": 139.092125,
        "lat": 34.9747
    },
    "1150509": {
        "station_name": "駿河小山",
        "line_cd": 11505,
        "pref_cd": 22,
        "lon": 138.997689,
        "lat": 35.359113
    },
    "1150510": {
        "station_name": "足柄",
        "line_cd": 11505,
        "pref_cd": 22,
        "lon": 138.981687,
        "lat": 35.332233
    },
    "1150511": {
        "station_name": "御殿場",
        "line_cd": 11505,
        "pref_cd": 22,
        "lon": 138.93424,
        "lat": 35.299933
    },
    "1150512": {
        "station_name": "南御殿場",
        "line_cd": 11505,
        "pref_cd": 22,
        "lon": 138.925789,
        "lat": 35.277269
    },
    "1150513": {
        "station_name": "富士岡",
        "line_cd": 11505,
        "pref_cd": 22,
        "lon": 138.920504,
        "lat": 35.257299
    },
    "1150514": {
        "station_name": "岩波",
        "line_cd": 11505,
        "pref_cd": 22,
        "lon": 138.919296,
        "lat": 35.21498
    },
    "1150515": {
        "station_name": "裾野",
        "line_cd": 11505,
        "pref_cd": 22,
        "lon": 138.909293,
        "lat": 35.171372
    },
    "1150516": {
        "station_name": "長泉なめり",
        "line_cd": 11505,
        "pref_cd": 22,
        "lon": 138.899364,
        "lat": 35.147633
    },
    "1150517": {
        "station_name": "下土狩",
        "line_cd": 11505,
        "pref_cd": 22,
        "lon": 138.895126,
        "lat": 35.128379
    },
    "1150518": {
        "station_name": "大岡",
        "line_cd": 11505,
        "pref_cd": 22,
        "lon": 138.881988,
        "lat": 35.116158
    },
    "1150519": {
        "station_name": "沼津",
        "line_cd": 11505,
        "pref_cd": 22,
        "lon": 138.860104,
        "lat": 35.103011
    },
    "9950101": {
        "station_name": "伊東",
        "line_cd": 99501,
        "pref_cd": 22,
        "lon": 139.092125,
        "lat": 34.9747
    },
    "9950102": {
        "station_name": "南伊東",
        "line_cd": 99501,
        "pref_cd": 22,
        "lon": 139.087893,
        "lat": 34.95757
    },
    "9950103": {
        "station_name": "川奈",
        "line_cd": 99501,
        "pref_cd": 22,
        "lon": 139.124936,
        "lat": 34.950906
    },
    "9950104": {
        "station_name": "富戸",
        "line_cd": 99501,
        "pref_cd": 22,
        "lon": 139.131676,
        "lat": 34.91005
    },
    "9950105": {
        "station_name": "城ヶ崎海岸",
        "line_cd": 99501,
        "pref_cd": 22,
        "lon": 139.1217,
        "lat": 34.889878
    },
    "9950106": {
        "station_name": "伊豆高原",
        "line_cd": 99501,
        "pref_cd": 22,
        "lon": 139.107961,
        "lat": 34.87732
    },
    "9950107": {
        "station_name": "伊豆大川",
        "line_cd": 99501,
        "pref_cd": 22,
        "lon": 139.074014,
        "lat": 34.843208
    },
    "9950108": {
        "station_name": "伊豆北川",
        "line_cd": 99501,
        "pref_cd": 22,
        "lon": 139.075487,
        "lat": 34.827174
    },
    "9950109": {
        "station_name": "伊豆熱川",
        "line_cd": 99501,
        "pref_cd": 22,
        "lon": 139.069307,
        "lat": 34.817042
    },
    "9950110": {
        "station_name": "片瀬白田",
        "line_cd": 99501,
        "pref_cd": 22,
        "lon": 139.06122,
        "lat": 34.801783
    },
    "9950111": {
        "station_name": "伊豆稲取",
        "line_cd": 99501,
        "pref_cd": 22,
        "lon": 139.037108,
        "lat": 34.774546
    },
    "9950112": {
        "station_name": "今井浜海岸",
        "line_cd": 99501,
        "pref_cd": 22,
        "lon": 139.004692,
        "lat": 34.753714
    },
    "9950113": {
        "station_name": "河津",
        "line_cd": 99501,
        "pref_cd": 22,
        "lon": 138.996179,
        "lat": 34.747711
    },
    "9950114": {
        "station_name": "稲梓",
        "line_cd": 99501,
        "pref_cd": 22,
        "lon": 138.949399,
        "lat": 34.722066
    },
    "9950115": {
        "station_name": "蓮台寺",
        "line_cd": 99501,
        "pref_cd": 22,
        "lon": 138.941274,
        "lat": 34.699634
    },
    "9950116": {
        "station_name": "伊豆急下田",
        "line_cd": 99501,
        "pref_cd": 22,
        "lon": 138.944274,
        "lat": 34.679647
    },
    "9950201": {
        "station_name": "三島",
        "line_cd": 99502,
        "pref_cd": 22,
        "lon": 138.911369,
        "lat": 35.125946
    },
    "9950202": {
        "station_name": "三島広小路",
        "line_cd": 99502,
        "pref_cd": 22,
        "lon": 138.911202,
        "lat": 35.119272
    },
    "9950203": {
        "station_name": "三島田町",
        "line_cd": 99502,
        "pref_cd": 22,
        "lon": 138.918421,
        "lat": 35.116205
    },
    "9950204": {
        "station_name": "三島二日町",
        "line_cd": 99502,
        "pref_cd": 22,
        "lon": 138.926001,
        "lat": 35.111039
    },
    "9950205": {
        "station_name": "大場",
        "line_cd": 99502,
        "pref_cd": 22,
        "lon": 138.939414,
        "lat": 35.092569
    },
    "9950206": {
        "station_name": "伊豆仁田",
        "line_cd": 99502,
        "pref_cd": 22,
        "lon": 138.941509,
        "lat": 35.078821
    },
    "9950207": {
        "station_name": "原木",
        "line_cd": 99502,
        "pref_cd": 22,
        "lon": 138.943695,
        "lat": 35.065653
    },
    "9950208": {
        "station_name": "韮山",
        "line_cd": 99502,
        "pref_cd": 22,
        "lon": 138.945467,
        "lat": 35.053547
    },
    "9950209": {
        "station_name": "伊豆長岡",
        "line_cd": 99502,
        "pref_cd": 22,
        "lon": 138.947539,
        "lat": 35.039907
    },
    "9950210": {
        "station_name": "田京",
        "line_cd": 99502,
        "pref_cd": 22,
        "lon": 138.945767,
        "lat": 35.014551
    },
    "9950211": {
        "station_name": "大仁",
        "line_cd": 99502,
        "pref_cd": 22,
        "lon": 138.937527,
        "lat": 34.994467
    },
    "9950212": {
        "station_name": "牧之郷",
        "line_cd": 99502,
        "pref_cd": 22,
        "lon": 138.954317,
        "lat": 34.988677
    },
    "9950213": {
        "station_name": "修善寺",
        "line_cd": 99502,
        "pref_cd": 22,
        "lon": 138.950545,
        "lat": 34.979091
    },
    "9950301": {
        "station_name": "吉原",
        "line_cd": 99503,
        "pref_cd": 22,
        "lon": 138.701839,
        "lat": 35.144176
    },
    "9950302": {
        "station_name": "ジヤトコ前（ジヤトコ１地区前）",
        "line_cd": 99503,
        "pref_cd": 22,
        "lon": 138.690076,
        "lat": 35.157775
    },
    "9950303": {
        "station_name": "吉原本町",
        "line_cd": 99503,
        "pref_cd": 22,
        "lon": 138.689774,
        "lat": 35.160821
    },
    "9950304": {
        "station_name": "本吉原",
        "line_cd": 99503,
        "pref_cd": 22,
        "lon": 138.692716,
        "lat": 35.161946
    },
    "9950305": {
        "station_name": "岳南原田",
        "line_cd": 99503,
        "pref_cd": 22,
        "lon": 138.704517,
        "lat": 35.166076
    },
    "9950306": {
        "station_name": "比奈",
        "line_cd": 99503,
        "pref_cd": 22,
        "lon": 138.713602,
        "lat": 35.161485
    },
    "9950307": {
        "station_name": "岳南富士岡",
        "line_cd": 99503,
        "pref_cd": 22,
        "lon": 138.723356,
        "lat": 35.160949
    },
    "9950308": {
        "station_name": "須津",
        "line_cd": 99503,
        "pref_cd": 22,
        "lon": 138.733944,
        "lat": 35.160444
    },
    "9950309": {
        "station_name": "神谷",
        "line_cd": 99503,
        "pref_cd": 22,
        "lon": 138.74303,
        "lat": 35.16103
    },
    "9950310": {
        "station_name": "岳南江尾",
        "line_cd": 99503,
        "pref_cd": 22,
        "lon": 138.751793,
        "lat": 35.155261
    },
    "9950401": {
        "station_name": "新静岡",
        "line_cd": 99504,
        "pref_cd": 22,
        "lon": 138.387423,
        "lat": 34.975823
    },
    "9950402": {
        "station_name": "日吉町",
        "line_cd": 99504,
        "pref_cd": 22,
        "lon": 138.391114,
        "lat": 34.977017
    },
    "9950403": {
        "station_name": "音羽町",
        "line_cd": 99504,
        "pref_cd": 22,
        "lon": 138.395775,
        "lat": 34.978387
    },
    "9950404": {
        "station_name": "春日町",
        "line_cd": 99504,
        "pref_cd": 22,
        "lon": 138.400544,
        "lat": 34.978387
    },
    "9950405": {
        "station_name": "柚木",
        "line_cd": 99504,
        "pref_cd": 22,
        "lon": 138.406084,
        "lat": 34.981891
    },
    "9950406": {
        "station_name": "長沼",
        "line_cd": 99504,
        "pref_cd": 22,
        "lon": 138.412884,
        "lat": 34.989069
    },
    "9950407": {
        "station_name": "古庄",
        "line_cd": 99504,
        "pref_cd": 22,
        "lon": 138.419581,
        "lat": 34.992855
    },
    "9950408": {
        "station_name": "県総合運動場",
        "line_cd": 99504,
        "pref_cd": 22,
        "lon": 138.430113,
        "lat": 34.993375
    },
    "9950409": {
        "station_name": "県立美術館前",
        "line_cd": 99504,
        "pref_cd": 22,
        "lon": 138.438088,
        "lat": 34.997494
    },
    "9950410": {
        "station_name": "草薙",
        "line_cd": 99504,
        "pref_cd": 22,
        "lon": 138.44269,
        "lat": 35.001457
    },
    "9950411": {
        "station_name": "御門台",
        "line_cd": 99504,
        "pref_cd": 22,
        "lon": 138.452464,
        "lat": 35.007902
    },
    "9950412": {
        "station_name": "狐ヶ崎",
        "line_cd": 99504,
        "pref_cd": 22,
        "lon": 138.459739,
        "lat": 35.011488
    },
    "9950413": {
        "station_name": "桜橋",
        "line_cd": 99504,
        "pref_cd": 22,
        "lon": 138.477573,
        "lat": 35.013107
    },
    "9950414": {
        "station_name": "入江岡",
        "line_cd": 99504,
        "pref_cd": 22,
        "lon": 138.481264,
        "lat": 35.014891
    },
    "9950415": {
        "station_name": "新清水",
        "line_cd": 99504,
        "pref_cd": 22,
        "lon": 138.487539,
        "lat": 35.017054
    },
    "9950501": {
        "station_name": "掛川",
        "line_cd": 99505,
        "pref_cd": 22,
        "lon": 138.014256,
        "lat": 34.769568
    },
    "9950502": {
        "station_name": "掛川市役所前",
        "line_cd": 99505,
        "pref_cd": 22,
        "lon": 138.000143,
        "lat": 34.770289
    },
    "9950503": {
        "station_name": "西掛川",
        "line_cd": 99505,
        "pref_cd": 22,
        "lon": 137.99501,
        "lat": 34.771952
    },
    "9950504": {
        "station_name": "桜木",
        "line_cd": 99505,
        "pref_cd": 22,
        "lon": 137.972764,
        "lat": 34.778216
    },
    "9950505": {
        "station_name": "いこいの広場",
        "line_cd": 99505,
        "pref_cd": 22,
        "lon": 137.963773,
        "lat": 34.788103
    },
    "9950506": {
        "station_name": "細谷",
        "line_cd": 99505,
        "pref_cd": 22,
        "lon": 137.961606,
        "lat": 34.792705
    },
    "9950507": {
        "station_name": "原谷",
        "line_cd": 99505,
        "pref_cd": 22,
        "lon": 137.955023,
        "lat": 34.808434
    },
    "9950508": {
        "station_name": "原田",
        "line_cd": 99505,
        "pref_cd": 22,
        "lon": 137.952911,
        "lat": 34.820183
    },
    "9950509": {
        "station_name": "戸綿",
        "line_cd": 99505,
        "pref_cd": 22,
        "lon": 137.931038,
        "lat": 34.831311
    },
    "9950510": {
        "station_name": "遠州森",
        "line_cd": 99505,
        "pref_cd": 22,
        "lon": 137.924297,
        "lat": 34.8311
    },
    "9950511": {
        "station_name": "円田",
        "line_cd": 99505,
        "pref_cd": 22,
        "lon": 137.907574,
        "lat": 34.820793
    },
    "9950512": {
        "station_name": "遠江一宮",
        "line_cd": 99505,
        "pref_cd": 22,
        "lon": 137.889145,
        "lat": 34.818045
    },
    "9950513": {
        "station_name": "敷地",
        "line_cd": 99505,
        "pref_cd": 22,
        "lon": 137.864355,
        "lat": 34.826218
    },
    "9950514": {
        "station_name": "豊岡",
        "line_cd": 99505,
        "pref_cd": 22,
        "lon": 137.839758,
        "lat": 34.837105
    },
    "9950515": {
        "station_name": "上野部",
        "line_cd": 99505,
        "pref_cd": 22,
        "lon": 137.830058,
        "lat": 34.847442
    },
    "9950516": {
        "station_name": "天竜二俣",
        "line_cd": 99505,
        "pref_cd": 22,
        "lon": 137.820045,
        "lat": 34.859118
    },
    "9950517": {
        "station_name": "二俣本町",
        "line_cd": 99505,
        "pref_cd": 22,
        "lon": 137.813015,
        "lat": 34.859504
    },
    "9950518": {
        "station_name": "西鹿島",
        "line_cd": 99505,
        "pref_cd": 22,
        "lon": 137.807988,
        "lat": 34.846758
    },
    "9950519": {
        "station_name": "岩水寺",
        "line_cd": 99505,
        "pref_cd": 22,
        "lon": 137.792537,
        "lat": 34.837705
    },
    "9950520": {
        "station_name": "宮口",
        "line_cd": 99505,
        "pref_cd": 22,
        "lon": 137.773731,
        "lat": 34.830389
    },
    "9950521": {
        "station_name": "フルーツパーク",
        "line_cd": 99505,
        "pref_cd": 22,
        "lon": 137.731976,
        "lat": 34.834406
    },
    "9950522": {
        "station_name": "都田",
        "line_cd": 99505,
        "pref_cd": 22,
        "lon": 137.718272,
        "lat": 34.828223
    },
    "9950523": {
        "station_name": "常葉大学前",
        "line_cd": 99505,
        "pref_cd": 22,
        "lon": 137.709231,
        "lat": 34.81989
    },
    "9950524": {
        "station_name": "金指",
        "line_cd": 99505,
        "pref_cd": 22,
        "lon": 137.681103,
        "lat": 34.816951
    },
    "9950525": {
        "station_name": "岡地",
        "line_cd": 99505,
        "pref_cd": 22,
        "lon": 137.665686,
        "lat": 34.812295
    },
    "9950526": {
        "station_name": "気賀",
        "line_cd": 99505,
        "pref_cd": 22,
        "lon": 137.651937,
        "lat": 34.80722
    },
    "9950527": {
        "station_name": "西気賀",
        "line_cd": 99505,
        "pref_cd": 22,
        "lon": 137.621523,
        "lat": 34.802323
    },
    "9950528": {
        "station_name": "寸座",
        "line_cd": 99505,
        "pref_cd": 22,
        "lon": 137.612523,
        "lat": 34.790102
    },
    "9950529": {
        "station_name": "浜名湖佐久米",
        "line_cd": 99505,
        "pref_cd": 22,
        "lon": 137.599286,
        "lat": 34.789146
    },
    "9950530": {
        "station_name": "東都筑",
        "line_cd": 99505,
        "pref_cd": 22,
        "lon": 137.586571,
        "lat": 34.790412
    },
    "9950531": {
        "station_name": "都筑",
        "line_cd": 99505,
        "pref_cd": 22,
        "lon": 137.574516,
        "lat": 34.79585
    },
    "9950532": {
        "station_name": "三ヶ日",
        "line_cd": 99505,
        "pref_cd": 22,
        "lon": 137.551705,
        "lat": 34.802565
    },
    "9950533": {
        "station_name": "奥浜名湖",
        "line_cd": 99505,
        "pref_cd": 22,
        "lon": 137.545934,
        "lat": 34.795068
    },
    "9950534": {
        "station_name": "尾奈",
        "line_cd": 99505,
        "pref_cd": 22,
        "lon": 137.541755,
        "lat": 34.783958
    },
    "9950535": {
        "station_name": "知波田",
        "line_cd": 99505,
        "pref_cd": 22,
        "lon": 137.511873,
        "lat": 34.753069
    },
    "9950536": {
        "station_name": "アスモ前",
        "line_cd": 99505,
        "pref_cd": 22,
        "lon": 137.49405,
        "lat": 34.727685
    },
    "9950537": {
        "station_name": "新所原",
        "line_cd": 99505,
        "pref_cd": 22,
        "lon": 137.485002,
        "lat": 34.723343
    },
    "9950538": {
        "station_name": "大森",
        "line_cd": 99505,
        "pref_cd": 22,
        "lon": 137.509636,
        "lat": 34.737865
    },
    "9950539": {
        "station_name": "森町病院前",
        "line_cd": 99505,
        "pref_cd": 22,
        "lon": 137.917944,
        "lat": 34.826389
    },
    "9950601": {
        "station_name": "新浜松",
        "line_cd": 99506,
        "pref_cd": 22,
        "lon": 137.732456,
        "lat": 34.703402
    },
    "9950602": {
        "station_name": "第一通り",
        "line_cd": 99506,
        "pref_cd": 22,
        "lon": 137.732845,
        "lat": 34.707477
    },
    "9950603": {
        "station_name": "遠州病院",
        "line_cd": 99506,
        "pref_cd": 22,
        "lon": 137.73327,
        "lat": 34.710657
    },
    "9950604": {
        "station_name": "八幡",
        "line_cd": 99506,
        "pref_cd": 22,
        "lon": 137.73598,
        "lat": 34.717012
    },
    "9950605": {
        "station_name": "助信",
        "line_cd": 99506,
        "pref_cd": 22,
        "lon": 137.738697,
        "lat": 34.724303
    },
    "9950606": {
        "station_name": "曳馬",
        "line_cd": 99506,
        "pref_cd": 22,
        "lon": 137.741604,
        "lat": 34.733148
    },
    "9950607": {
        "station_name": "上島",
        "line_cd": 99506,
        "pref_cd": 22,
        "lon": 137.745462,
        "lat": 34.741568
    },
    "9950608": {
        "station_name": "自動車学校前",
        "line_cd": 99506,
        "pref_cd": 22,
        "lon": 137.751625,
        "lat": 34.747489
    },
    "9950609": {
        "station_name": "さぎの宮",
        "line_cd": 99506,
        "pref_cd": 22,
        "lon": 137.757327,
        "lat": 34.757275
    },
    "9950610": {
        "station_name": "積志",
        "line_cd": 99506,
        "pref_cd": 22,
        "lon": 137.763409,
        "lat": 34.768082
    },
    "9950611": {
        "station_name": "遠州西ヶ崎",
        "line_cd": 99506,
        "pref_cd": 22,
        "lon": 137.773905,
        "lat": 34.776821
    },
    "9950612": {
        "station_name": "遠州小松",
        "line_cd": 99506,
        "pref_cd": 22,
        "lon": 137.777838,
        "lat": 34.784264
    },
    "9950613": {
        "station_name": "浜北",
        "line_cd": 99506,
        "pref_cd": 22,
        "lon": 137.784356,
        "lat": 34.791358
    },
    "9950614": {
        "station_name": "美薗中央公園",
        "line_cd": 99506,
        "pref_cd": 22,
        "lon": 137.789764,
        "lat": 34.798208
    },
    "9950615": {
        "station_name": "遠州小林",
        "line_cd": 99506,
        "pref_cd": 22,
        "lon": 137.795538,
        "lat": 34.808374
    },
    "9950616": {
        "station_name": "遠州芝本",
        "line_cd": 99506,
        "pref_cd": 22,
        "lon": 137.798718,
        "lat": 34.824024
    },
    "9950617": {
        "station_name": "遠州岩水寺",
        "line_cd": 99506,
        "pref_cd": 22,
        "lon": 137.801131,
        "lat": 34.834373
    },
    "9950618": {
        "station_name": "西鹿島",
        "line_cd": 99506,
        "pref_cd": 22,
        "lon": 137.807988,
        "lat": 34.846758
    },
    "9950701": {
        "station_name": "金谷",
        "line_cd": 99507,
        "pref_cd": 22,
        "lon": 138.12605,
        "lat": 34.819568
    },
    "9950702": {
        "station_name": "新金谷",
        "line_cd": 99507,
        "pref_cd": 22,
        "lon": 138.137645,
        "lat": 34.825737
    },
    "9950703": {
        "station_name": "代官町",
        "line_cd": 99507,
        "pref_cd": 22,
        "lon": 138.126102,
        "lat": 34.835493
    },
    "9950704": {
        "station_name": "日切",
        "line_cd": 99507,
        "pref_cd": 22,
        "lon": 138.122394,
        "lat": 34.839012
    },
    "9950705": {
        "station_name": "合格",
        "line_cd": 99507,
        "pref_cd": 22,
        "lon": 138.120771,
        "lat": 34.844806
    },
    "9950706": {
        "station_name": "神尾",
        "line_cd": 99507,
        "pref_cd": 22,
        "lon": 138.101595,
        "lat": 34.882842
    },
    "9950707": {
        "station_name": "福用",
        "line_cd": 99507,
        "pref_cd": 22,
        "lon": 138.090124,
        "lat": 34.901881
    },
    "9950708": {
        "station_name": "大和田",
        "line_cd": 99507,
        "pref_cd": 22,
        "lon": 138.08215,
        "lat": 34.921104
    },
    "9950709": {
        "station_name": "家山",
        "line_cd": 99507,
        "pref_cd": 22,
        "lon": 138.077764,
        "lat": 34.940071
    },
    "9950710": {
        "station_name": "抜里",
        "line_cd": 99507,
        "pref_cd": 22,
        "lon": 138.087672,
        "lat": 34.953373
    },
    "9950711": {
        "station_name": "川根温泉笹間渡",
        "line_cd": 99507,
        "pref_cd": 22,
        "lon": 138.086114,
        "lat": 34.962291
    },
    "9950712": {
        "station_name": "地名",
        "line_cd": 99507,
        "pref_cd": 22,
        "lon": 138.087252,
        "lat": 34.986019
    },
    "9950713": {
        "station_name": "塩郷",
        "line_cd": 99507,
        "pref_cd": 22,
        "lon": 138.090612,
        "lat": 34.997664
    },
    "9950714": {
        "station_name": "下泉",
        "line_cd": 99507,
        "pref_cd": 22,
        "lon": 138.090078,
        "lat": 35.022064
    },
    "9950715": {
        "station_name": "田野口",
        "line_cd": 99507,
        "pref_cd": 22,
        "lon": 138.095416,
        "lat": 35.0513
    },
    "9950716": {
        "station_name": "駿河徳山",
        "line_cd": 99507,
        "pref_cd": 22,
        "lon": 138.110516,
        "lat": 35.074758
    },
    "9950717": {
        "station_name": "青部",
        "line_cd": 99507,
        "pref_cd": 22,
        "lon": 138.115473,
        "lat": 35.089592
    },
    "9950718": {
        "station_name": "崎平",
        "line_cd": 99507,
        "pref_cd": 22,
        "lon": 138.127411,
        "lat": 35.091803
    },
    "9950719": {
        "station_name": "千頭",
        "line_cd": 99507,
        "pref_cd": 22,
        "lon": 138.13656,
        "lat": 35.107754
    },
    "9950720": {
        "station_name": "門出",
        "line_cd": 99507,
        "pref_cd": 22,
        "lon": 138.119333,
        "lat": 34.849992
    },
    "9950801": {
        "station_name": "千頭",
        "line_cd": 99508,
        "pref_cd": 22,
        "lon": 138.13656,
        "lat": 35.107754
    },
    "9950802": {
        "station_name": "川根両国",
        "line_cd": 99508,
        "pref_cd": 22,
        "lon": 138.140592,
        "lat": 35.116836
    },
    "9950803": {
        "station_name": "沢間",
        "line_cd": 99508,
        "pref_cd": 22,
        "lon": 138.134365,
        "lat": 35.124705
    },
    "9950804": {
        "station_name": "土本",
        "line_cd": 99508,
        "pref_cd": 22,
        "lon": 138.139186,
        "lat": 35.136057
    },
    "9950805": {
        "station_name": "川根小山",
        "line_cd": 99508,
        "pref_cd": 22,
        "lon": 138.14106,
        "lat": 35.141753
    },
    "9950806": {
        "station_name": "奥泉",
        "line_cd": 99508,
        "pref_cd": 22,
        "lon": 138.147796,
        "lat": 35.149739
    },
    "9950807": {
        "station_name": "アプトいちしろ",
        "line_cd": 99508,
        "pref_cd": 22,
        "lon": 138.144825,
        "lat": 35.167514
    },
    "9950808": {
        "station_name": "長島ダム",
        "line_cd": 99508,
        "pref_cd": 22,
        "lon": 138.157124,
        "lat": 35.168787
    },
    "9950809": {
        "station_name": "ひらんだ",
        "line_cd": 99508,
        "pref_cd": 22,
        "lon": 138.167507,
        "lat": 35.164806
    },
    "9950810": {
        "station_name": "奥大井湖上",
        "line_cd": 99508,
        "pref_cd": 22,
        "lon": 138.180792,
        "lat": 35.1682
    },
    "9950811": {
        "station_name": "接岨峡温泉",
        "line_cd": 99508,
        "pref_cd": 22,
        "lon": 138.185177,
        "lat": 35.178821
    },
    "9950812": {
        "station_name": "尾盛",
        "line_cd": 99508,
        "pref_cd": 22,
        "lon": 138.174369,
        "lat": 35.192131
    },
    "9950813": {
        "station_name": "閑蔵",
        "line_cd": 99508,
        "pref_cd": 22,
        "lon": 138.194189,
        "lat": 35.191737
    },
    "9950814": {
        "station_name": "井川",
        "line_cd": 99508,
        "pref_cd": 22,
        "lon": 138.221111,
        "lat": 35.212242
    }
}