{
    "1190401": {
        "station_name": "川内",
        "line_cd": 11904,
        "pref_cd": 46,
        "lon": 130.31213,
        "lat": 31.813726
    },
    "1190402": {
        "station_name": "隈之城",
        "line_cd": 11904,
        "pref_cd": 46,
        "lon": 130.307092,
        "lat": 31.79255
    },
    "1190403": {
        "station_name": "木場茶屋",
        "line_cd": 11904,
        "pref_cd": 46,
        "lon": 130.308046,
        "lat": 31.766138
    },
    "1190404": {
        "station_name": "串木野",
        "line_cd": 11904,
        "pref_cd": 46,
        "lon": 130.274531,
        "lat": 31.721605
    },
    "1190405": {
        "station_name": "市来",
        "line_cd": 11904,
        "pref_cd": 46,
        "lon": 130.302727,
        "lat": 31.68999
    },
    "1190406": {
        "station_name": "湯之元",
        "line_cd": 11904,
        "pref_cd": 46,
        "lon": 130.336753,
        "lat": 31.673961
    },
    "1190407": {
        "station_name": "東市来",
        "line_cd": 11904,
        "pref_cd": 46,
        "lon": 130.347609,
        "lat": 31.655164
    },
    "1190408": {
        "station_name": "伊集院",
        "line_cd": 11904,
        "pref_cd": 46,
        "lon": 130.395703,
        "lat": 31.630148
    },
    "1190409": {
        "station_name": "薩摩松元",
        "line_cd": 11904,
        "pref_cd": 46,
        "lon": 130.439002,
        "lat": 31.605318
    },
    "1190410": {
        "station_name": "上伊集院",
        "line_cd": 11904,
        "pref_cd": 46,
        "lon": 130.459468,
        "lat": 31.593837
    },
    "1190411": {
        "station_name": "鹿児島中央",
        "line_cd": 11904,
        "pref_cd": 46,
        "lon": 130.541789,
        "lat": 31.583727
    },
    "1190412": {
        "station_name": "鹿児島",
        "line_cd": 11904,
        "pref_cd": 46,
        "lon": 130.564112,
        "lat": 31.602098
    },
    "1190413": {
        "station_name": "広木",
        "line_cd": 11904,
        "pref_cd": 46,
        "lon": 130.504328,
        "lat": 31.576712
    },
    "1190414": {
        "station_name": "神村学園前",
        "line_cd": 11904,
        "pref_cd": 46,
        "lon": 130.284129,
        "lat": 31.703731
    },
    "1190742": {
        "station_name": "財部",
        "line_cd": 11907,
        "pref_cd": 46,
        "lon": 130.991374,
        "lat": 31.728796
    },
    "1190743": {
        "station_name": "北俣",
        "line_cd": 11907,
        "pref_cd": 46,
        "lon": 130.960034,
        "lat": 31.745007
    },
    "1190744": {
        "station_name": "大隅大川原",
        "line_cd": 11907,
        "pref_cd": 46,
        "lon": 130.924355,
        "lat": 31.772767
    },
    "1190745": {
        "station_name": "北永野田",
        "line_cd": 11907,
        "pref_cd": 46,
        "lon": 130.87444,
        "lat": 31.782118
    },
    "1190746": {
        "station_name": "霧島神宮",
        "line_cd": 11907,
        "pref_cd": 46,
        "lon": 130.836939,
        "lat": 31.818181
    },
    "1190747": {
        "station_name": "国分",
        "line_cd": 11907,
        "pref_cd": 46,
        "lon": 130.763447,
        "lat": 31.743657
    },
    "1190748": {
        "station_name": "隼人",
        "line_cd": 11907,
        "pref_cd": 46,
        "lon": 130.740316,
        "lat": 31.743893
    },
    "1190749": {
        "station_name": "加治木",
        "line_cd": 11907,
        "pref_cd": 46,
        "lon": 130.670752,
        "lat": 31.739271
    },
    "1190750": {
        "station_name": "錦江",
        "line_cd": 11907,
        "pref_cd": 46,
        "lon": 130.6533,
        "lat": 31.73691
    },
    "1190751": {
        "station_name": "帖佐",
        "line_cd": 11907,
        "pref_cd": 46,
        "lon": 130.632716,
        "lat": 31.72697
    },
    "1190752": {
        "station_name": "姶良",
        "line_cd": 11907,
        "pref_cd": 46,
        "lon": 130.623259,
        "lat": 31.715246
    },
    "1190753": {
        "station_name": "重富",
        "line_cd": 11907,
        "pref_cd": 46,
        "lon": 130.61408,
        "lat": 31.702717
    },
    "1190754": {
        "station_name": "竜ケ水",
        "line_cd": 11907,
        "pref_cd": 46,
        "lon": 130.604239,
        "lat": 31.64743
    },
    "1190755": {
        "station_name": "鹿児島",
        "line_cd": 11907,
        "pref_cd": 46,
        "lon": 130.564112,
        "lat": 31.602098
    },
    "1190756": {
        "station_name": "鹿児島中央",
        "line_cd": 11907,
        "pref_cd": 46,
        "lon": 130.541789,
        "lat": 31.583727
    },
    "1192519": {
        "station_name": "吉松",
        "line_cd": 11925,
        "pref_cd": 46,
        "lon": 130.738104,
        "lat": 32.012026
    },
    "1192601": {
        "station_name": "吉松",
        "line_cd": 11926,
        "pref_cd": 46,
        "lon": 130.738104,
        "lat": 32.012026
    },
    "1192602": {
        "station_name": "栗野",
        "line_cd": 11926,
        "pref_cd": 46,
        "lon": 130.723663,
        "lat": 31.950575
    },
    "1192603": {
        "station_name": "大隅横川",
        "line_cd": 11926,
        "pref_cd": 46,
        "lon": 130.702825,
        "lat": 31.906487
    },
    "1192604": {
        "station_name": "植村",
        "line_cd": 11926,
        "pref_cd": 46,
        "lon": 130.724065,
        "lat": 31.890175
    },
    "1192605": {
        "station_name": "霧島温泉",
        "line_cd": 11926,
        "pref_cd": 46,
        "lon": 130.734329,
        "lat": 31.86815
    },
    "1192606": {
        "station_name": "嘉例川",
        "line_cd": 11926,
        "pref_cd": 46,
        "lon": 130.723021,
        "lat": 31.826939
    },
    "1192607": {
        "station_name": "中福良",
        "line_cd": 11926,
        "pref_cd": 46,
        "lon": 130.733174,
        "lat": 31.813818
    },
    "1192608": {
        "station_name": "表木山",
        "line_cd": 11926,
        "pref_cd": 46,
        "lon": 130.745324,
        "lat": 31.796176
    },
    "1192609": {
        "station_name": "日当山",
        "line_cd": 11926,
        "pref_cd": 46,
        "lon": 130.749836,
        "lat": 31.763402
    },
    "1192610": {
        "station_name": "隼人",
        "line_cd": 11926,
        "pref_cd": 46,
        "lon": 130.740316,
        "lat": 31.743893
    },
    "1192828": {
        "station_name": "大隅夏井",
        "line_cd": 11928,
        "pref_cd": 46,
        "lon": 131.136449,
        "lat": 31.469801
    },
    "1192829": {
        "station_name": "志布志",
        "line_cd": 11928,
        "pref_cd": 46,
        "lon": 131.097864,
        "lat": 31.47285
    },
    "1192916": {
        "station_name": "鶴丸",
        "line_cd": 11929,
        "pref_cd": 46,
        "lon": 130.748524,
        "lat": 32.030394
    },
    "1192917": {
        "station_name": "吉松",
        "line_cd": 11929,
        "pref_cd": 46,
        "lon": 130.738104,
        "lat": 32.012026
    },
    "1193001": {
        "station_name": "鹿児島中央",
        "line_cd": 11930,
        "pref_cd": 46,
        "lon": 130.541789,
        "lat": 31.583727
    },
    "1193002": {
        "station_name": "郡元",
        "line_cd": 11930,
        "pref_cd": 46,
        "lon": 130.541976,
        "lat": 31.565607
    },
    "1193003": {
        "station_name": "南鹿児島",
        "line_cd": 11930,
        "pref_cd": 46,
        "lon": 130.543714,
        "lat": 31.554786
    },
    "1193004": {
        "station_name": "宇宿",
        "line_cd": 11930,
        "pref_cd": 46,
        "lon": 130.536458,
        "lat": 31.544234
    },
    "1193005": {
        "station_name": "谷山",
        "line_cd": 11930,
        "pref_cd": 46,
        "lon": 130.51886,
        "lat": 31.527094
    },
    "1193006": {
        "station_name": "慈眼寺",
        "line_cd": 11930,
        "pref_cd": 46,
        "lon": 130.506212,
        "lat": 31.517286
    },
    "1193007": {
        "station_name": "坂之上",
        "line_cd": 11930,
        "pref_cd": 46,
        "lon": 130.507801,
        "lat": 31.500454
    },
    "1193008": {
        "station_name": "五位野",
        "line_cd": 11930,
        "pref_cd": 46,
        "lon": 130.504096,
        "lat": 31.475201
    },
    "1193009": {
        "station_name": "平川",
        "line_cd": 11930,
        "pref_cd": 46,
        "lon": 130.51367,
        "lat": 31.450132
    },
    "1193010": {
        "station_name": "瀬々串",
        "line_cd": 11930,
        "pref_cd": 46,
        "lon": 130.522894,
        "lat": 31.421839
    },
    "1193011": {
        "station_name": "中名",
        "line_cd": 11930,
        "pref_cd": 46,
        "lon": 130.535086,
        "lat": 31.393591
    },
    "1193012": {
        "station_name": "喜入",
        "line_cd": 11930,
        "pref_cd": 46,
        "lon": 130.538867,
        "lat": 31.371468
    },
    "1193013": {
        "station_name": "前之浜",
        "line_cd": 11930,
        "pref_cd": 46,
        "lon": 130.556995,
        "lat": 31.343433
    },
    "1193014": {
        "station_name": "生見",
        "line_cd": 11930,
        "pref_cd": 46,
        "lon": 130.577878,
        "lat": 31.307292
    },
    "1193015": {
        "station_name": "薩摩今和泉",
        "line_cd": 11930,
        "pref_cd": 46,
        "lon": 130.599002,
        "lat": 31.29068
    },
    "1193016": {
        "station_name": "宮ケ浜",
        "line_cd": 11930,
        "pref_cd": 46,
        "lon": 130.619807,
        "lat": 31.277218
    },
    "1193017": {
        "station_name": "二月田",
        "line_cd": 11930,
        "pref_cd": 46,
        "lon": 130.630082,
        "lat": 31.254339
    },
    "1193018": {
        "station_name": "指宿",
        "line_cd": 11930,
        "pref_cd": 46,
        "lon": 130.642637,
        "lat": 31.236925
    },
    "1193019": {
        "station_name": "山川",
        "line_cd": 11930,
        "pref_cd": 46,
        "lon": 130.630127,
        "lat": 31.211702
    },
    "1193020": {
        "station_name": "大山",
        "line_cd": 11930,
        "pref_cd": 46,
        "lon": 130.5992,
        "lat": 31.195011
    },
    "1193021": {
        "station_name": "西大山",
        "line_cd": 11930,
        "pref_cd": 46,
        "lon": 130.57621,
        "lat": 31.190269
    },
    "1193022": {
        "station_name": "薩摩川尻",
        "line_cd": 11930,
        "pref_cd": 46,
        "lon": 130.565385,
        "lat": 31.194791
    },
    "1193023": {
        "station_name": "東開聞",
        "line_cd": 11930,
        "pref_cd": 46,
        "lon": 130.549897,
        "lat": 31.200924
    },
    "1193024": {
        "station_name": "開聞",
        "line_cd": 11930,
        "pref_cd": 46,
        "lon": 130.534737,
        "lat": 31.203932
    },
    "1193025": {
        "station_name": "入野",
        "line_cd": 11930,
        "pref_cd": 46,
        "lon": 130.518788,
        "lat": 31.204293
    },
    "1193026": {
        "station_name": "頴娃",
        "line_cd": 11930,
        "pref_cd": 46,
        "lon": 130.500378,
        "lat": 31.229085
    },
    "1193027": {
        "station_name": "西頴娃",
        "line_cd": 11930,
        "pref_cd": 46,
        "lon": 130.491351,
        "lat": 31.241025
    },
    "1193028": {
        "station_name": "御領",
        "line_cd": 11930,
        "pref_cd": 46,
        "lon": 130.468747,
        "lat": 31.252032
    },
    "1193029": {
        "station_name": "石垣",
        "line_cd": 11930,
        "pref_cd": 46,
        "lon": 130.445227,
        "lat": 31.259228
    },
    "1193030": {
        "station_name": "水成川",
        "line_cd": 11930,
        "pref_cd": 46,
        "lon": 130.430695,
        "lat": 31.257145
    },
    "1193031": {
        "station_name": "頴娃大川",
        "line_cd": 11930,
        "pref_cd": 46,
        "lon": 130.413394,
        "lat": 31.257875
    },
    "1193032": {
        "station_name": "松ケ浦",
        "line_cd": 11930,
        "pref_cd": 46,
        "lon": 130.394551,
        "lat": 31.258843
    },
    "1193033": {
        "station_name": "薩摩塩屋",
        "line_cd": 11930,
        "pref_cd": 46,
        "lon": 130.376128,
        "lat": 31.257132
    },
    "1193034": {
        "station_name": "白沢",
        "line_cd": 11930,
        "pref_cd": 46,
        "lon": 130.356352,
        "lat": 31.256898
    },
    "1193035": {
        "station_name": "薩摩板敷",
        "line_cd": 11930,
        "pref_cd": 46,
        "lon": 130.330993,
        "lat": 31.262313
    },
    "1193036": {
        "station_name": "枕崎",
        "line_cd": 11930,
        "pref_cd": 46,
        "lon": 130.299439,
        "lat": 31.27215
    },
    "9992115": {
        "station_name": "米ノ津",
        "line_cd": 99921,
        "pref_cd": 46,
        "lon": 130.342139,
        "lat": 32.122269
    },
    "9992116": {
        "station_name": "出水",
        "line_cd": 99921,
        "pref_cd": 46,
        "lon": 130.357803,
        "lat": 32.089275
    },
    "9992117": {
        "station_name": "西出水",
        "line_cd": 99921,
        "pref_cd": 46,
        "lon": 130.339285,
        "lat": 32.075398
    },
    "9992118": {
        "station_name": "高尾野",
        "line_cd": 99921,
        "pref_cd": 46,
        "lon": 130.301632,
        "lat": 32.062536
    },
    "9992119": {
        "station_name": "野田郷",
        "line_cd": 99921,
        "pref_cd": 46,
        "lon": 130.267214,
        "lat": 32.063238
    },
    "9992120": {
        "station_name": "折口",
        "line_cd": 99921,
        "pref_cd": 46,
        "lon": 130.217485,
        "lat": 32.060949
    },
    "9992121": {
        "station_name": "阿久根",
        "line_cd": 99921,
        "pref_cd": 46,
        "lon": 130.196276,
        "lat": 32.022969
    },
    "9992122": {
        "station_name": "牛ノ浜",
        "line_cd": 99921,
        "pref_cd": 46,
        "lon": 130.207038,
        "lat": 31.973962
    },
    "9992123": {
        "station_name": "薩摩大川",
        "line_cd": 99921,
        "pref_cd": 46,
        "lon": 130.219072,
        "lat": 31.949414
    },
    "9992124": {
        "station_name": "西方",
        "line_cd": 99921,
        "pref_cd": 46,
        "lon": 130.223658,
        "lat": 31.916153
    },
    "9992125": {
        "station_name": "薩摩高城",
        "line_cd": 99921,
        "pref_cd": 46,
        "lon": 130.220649,
        "lat": 31.892545
    },
    "9992126": {
        "station_name": "草道",
        "line_cd": 99921,
        "pref_cd": 46,
        "lon": 130.233533,
        "lat": 31.854556
    },
    "9992127": {
        "station_name": "上川内",
        "line_cd": 99921,
        "pref_cd": 46,
        "lon": 130.292406,
        "lat": 31.83537
    },
    "9992128": {
        "station_name": "川内",
        "line_cd": 99921,
        "pref_cd": 46,
        "lon": 130.31213,
        "lat": 31.813726
    },
    "9992501": {
        "station_name": "鹿児島駅前",
        "line_cd": 99925,
        "pref_cd": 46,
        "lon": 130.562414,
        "lat": 31.601264
    },
    "9992502": {
        "station_name": "桜島桟橋通",
        "line_cd": 99925,
        "pref_cd": 46,
        "lon": 130.560976,
        "lat": 31.599976
    },
    "9992503": {
        "station_name": "水族館口",
        "line_cd": 99925,
        "pref_cd": 46,
        "lon": 130.559539,
        "lat": 31.59898
    },
    "9992504": {
        "station_name": "市役所前",
        "line_cd": 99925,
        "pref_cd": 46,
        "lon": 130.558015,
        "lat": 31.597179
    },
    "9992505": {
        "station_name": "朝日通",
        "line_cd": 99925,
        "pref_cd": 46,
        "lon": 130.557286,
        "lat": 31.594374
    },
    "9992506": {
        "station_name": "いづろ通",
        "line_cd": 99925,
        "pref_cd": 46,
        "lon": 130.557672,
        "lat": 31.591824
    },
    "9992507": {
        "station_name": "天文館通",
        "line_cd": 99925,
        "pref_cd": 46,
        "lon": 130.555075,
        "lat": 31.590691
    },
    "9992508": {
        "station_name": "高見馬場",
        "line_cd": 99925,
        "pref_cd": 46,
        "lon": 130.550977,
        "lat": 31.588726
    },
    "9992509": {
        "station_name": "甲東中学校前",
        "line_cd": 99925,
        "pref_cd": 46,
        "lon": 130.553058,
        "lat": 31.585738
    },
    "9992510": {
        "station_name": "新屋敷",
        "line_cd": 99925,
        "pref_cd": 46,
        "lon": 130.553724,
        "lat": 31.583855
    },
    "9992511": {
        "station_name": "武之橋",
        "line_cd": 99925,
        "pref_cd": 46,
        "lon": 130.554088,
        "lat": 31.57976
    },
    "9992512": {
        "station_name": "二中通",
        "line_cd": 99925,
        "pref_cd": 46,
        "lon": 130.553702,
        "lat": 31.57711
    },
    "9992513": {
        "station_name": "荒田八幡",
        "line_cd": 99925,
        "pref_cd": 46,
        "lon": 130.553015,
        "lat": 31.573618
    },
    "9992514": {
        "station_name": "騎射場",
        "line_cd": 99925,
        "pref_cd": 46,
        "lon": 130.5519,
        "lat": 31.569102
    },
    "9992515": {
        "station_name": "鴨池",
        "line_cd": 99925,
        "pref_cd": 46,
        "lon": 130.549968,
        "lat": 31.564129
    },
    "9992516": {
        "station_name": "郡元",
        "line_cd": 99925,
        "pref_cd": 46,
        "lon": 130.549388,
        "lat": 31.562925
    },
    "9992517": {
        "station_name": "涙橋",
        "line_cd": 99925,
        "pref_cd": 46,
        "lon": 130.546707,
        "lat": 31.559266
    },
    "9992518": {
        "station_name": "南鹿児島駅前",
        "line_cd": 99925,
        "pref_cd": 46,
        "lon": 130.544196,
        "lat": 31.555371
    },
    "9992519": {
        "station_name": "二軒茶屋",
        "line_cd": 99925,
        "pref_cd": 46,
        "lon": 130.541192,
        "lat": 31.55005
    },
    "9992520": {
        "station_name": "宇宿一丁目",
        "line_cd": 99925,
        "pref_cd": 46,
        "lon": 130.539068,
        "lat": 31.546439
    },
    "9992521": {
        "station_name": "脇田",
        "line_cd": 99925,
        "pref_cd": 46,
        "lon": 130.53763,
        "lat": 31.54418
    },
    "9992522": {
        "station_name": "笹貫",
        "line_cd": 99925,
        "pref_cd": 46,
        "lon": 130.534047,
        "lat": 31.539636
    },
    "9992523": {
        "station_name": "上塩屋",
        "line_cd": 99925,
        "pref_cd": 46,
        "lon": 130.528811,
        "lat": 31.534762
    },
    "9992524": {
        "station_name": "谷山",
        "line_cd": 99925,
        "pref_cd": 46,
        "lon": 130.523404,
        "lat": 31.530108
    },
    "9992525": {
        "station_name": "郡元南",
        "line_cd": 99925,
        "pref_cd": 46,
        "lon": 130.548841,
        "lat": 31.562169
    },
    "9992601": {
        "station_name": "鹿児島駅前",
        "line_cd": 99926,
        "pref_cd": 46,
        "lon": 130.562414,
        "lat": 31.601264
    },
    "9992602": {
        "station_name": "桜島桟橋通",
        "line_cd": 99926,
        "pref_cd": 46,
        "lon": 130.560976,
        "lat": 31.599976
    },
    "9992603": {
        "station_name": "水族館口",
        "line_cd": 99926,
        "pref_cd": 46,
        "lon": 130.559539,
        "lat": 31.59898
    },
    "9992604": {
        "station_name": "市役所前",
        "line_cd": 99926,
        "pref_cd": 46,
        "lon": 130.558015,
        "lat": 31.597179
    },
    "9992605": {
        "station_name": "朝日通",
        "line_cd": 99926,
        "pref_cd": 46,
        "lon": 130.557286,
        "lat": 31.594374
    },
    "9992606": {
        "station_name": "いづろ通",
        "line_cd": 99926,
        "pref_cd": 46,
        "lon": 130.557672,
        "lat": 31.591824
    },
    "9992607": {
        "station_name": "天文館通",
        "line_cd": 99926,
        "pref_cd": 46,
        "lon": 130.555075,
        "lat": 31.590691
    },
    "9992608": {
        "station_name": "高見馬場",
        "line_cd": 99926,
        "pref_cd": 46,
        "lon": 130.550977,
        "lat": 31.588726
    },
    "9992609": {
        "station_name": "加治屋町",
        "line_cd": 99926,
        "pref_cd": 46,
        "lon": 130.548037,
        "lat": 31.58731
    },
    "9992610": {
        "station_name": "高見橋",
        "line_cd": 99926,
        "pref_cd": 46,
        "lon": 130.545162,
        "lat": 31.58593
    },
    "9992611": {
        "station_name": "鹿児島中央駅前",
        "line_cd": 99926,
        "pref_cd": 46,
        "lon": 130.543703,
        "lat": 31.58412
    },
    "9992612": {
        "station_name": "都通",
        "line_cd": 99926,
        "pref_cd": 46,
        "lon": 130.543038,
        "lat": 31.580601
    },
    "9992613": {
        "station_name": "中洲通",
        "line_cd": 99926,
        "pref_cd": 46,
        "lon": 130.542587,
        "lat": 31.578581
    },
    "9992614": {
        "station_name": "市立病院前",
        "line_cd": 99926,
        "pref_cd": 46,
        "lon": 130.541836,
        "lat": 31.575812
    },
    "9992615": {
        "station_name": "神田（交通局前）",
        "line_cd": 99926,
        "pref_cd": 46,
        "lon": 130.540613,
        "lat": 31.572932
    },
    "9992616": {
        "station_name": "唐湊",
        "line_cd": 99926,
        "pref_cd": 46,
        "lon": 130.541085,
        "lat": 31.570556
    },
    "9992617": {
        "station_name": "工学部前",
        "line_cd": 99926,
        "pref_cd": 46,
        "lon": 130.541857,
        "lat": 31.568408
    },
    "9992618": {
        "station_name": "純心学園前",
        "line_cd": 99926,
        "pref_cd": 46,
        "lon": 130.542694,
        "lat": 31.566872
    },
    "9992619": {
        "station_name": "中郡",
        "line_cd": 99926,
        "pref_cd": 46,
        "lon": 130.545312,
        "lat": 31.56498
    },
    "9992620": {
        "station_name": "郡元",
        "line_cd": 99926,
        "pref_cd": 46,
        "lon": 130.549024,
        "lat": 31.562466
    }
}