{
    "1123101": {
        "station_name": "黒磯",
        "line_cd": 11231,
        "pref_cd": 9,
        "lon": 140.060204,
        "lat": 36.970128
    },
    "1123102": {
        "station_name": "高久",
        "line_cd": 11231,
        "pref_cd": 9,
        "lon": 140.087346,
        "lat": 36.996572
    },
    "1123103": {
        "station_name": "黒田原",
        "line_cd": 11231,
        "pref_cd": 9,
        "lon": 140.119586,
        "lat": 37.022848
    },
    "1123104": {
        "station_name": "豊原",
        "line_cd": 11231,
        "pref_cd": 9,
        "lon": 140.155066,
        "lat": 37.055014
    },
    "1131916": {
        "station_name": "野木",
        "line_cd": 11319,
        "pref_cd": 9,
        "lon": 139.734729,
        "lat": 36.229963
    },
    "1131917": {
        "station_name": "間々田",
        "line_cd": 11319,
        "pref_cd": 9,
        "lon": 139.761039,
        "lat": 36.257907
    },
    "1131918": {
        "station_name": "小山",
        "line_cd": 11319,
        "pref_cd": 9,
        "lon": 139.806241,
        "lat": 36.312747
    },
    "1131919": {
        "station_name": "小金井",
        "line_cd": 11319,
        "pref_cd": 9,
        "lon": 139.842232,
        "lat": 36.374435
    },
    "1131920": {
        "station_name": "自治医大",
        "line_cd": 11319,
        "pref_cd": 9,
        "lon": 139.854524,
        "lat": 36.39543
    },
    "1131921": {
        "station_name": "石橋",
        "line_cd": 11319,
        "pref_cd": 9,
        "lon": 139.866536,
        "lat": 36.43651
    },
    "1131922": {
        "station_name": "雀宮",
        "line_cd": 11319,
        "pref_cd": 9,
        "lon": 139.876811,
        "lat": 36.493845
    },
    "1131923": {
        "station_name": "宇都宮",
        "line_cd": 11319,
        "pref_cd": 9,
        "lon": 139.898389,
        "lat": 36.559246
    },
    "1131924": {
        "station_name": "岡本",
        "line_cd": 11319,
        "pref_cd": 9,
        "lon": 139.944363,
        "lat": 36.598182
    },
    "1131925": {
        "station_name": "宝積寺",
        "line_cd": 11319,
        "pref_cd": 9,
        "lon": 139.979487,
        "lat": 36.631703
    },
    "1131926": {
        "station_name": "氏家",
        "line_cd": 11319,
        "pref_cd": 9,
        "lon": 139.9621,
        "lat": 36.681696
    },
    "1131927": {
        "station_name": "蒲須坂",
        "line_cd": 11319,
        "pref_cd": 9,
        "lon": 139.950461,
        "lat": 36.720727
    },
    "1131928": {
        "station_name": "片岡",
        "line_cd": 11319,
        "pref_cd": 9,
        "lon": 139.945665,
        "lat": 36.754557
    },
    "1131929": {
        "station_name": "矢板",
        "line_cd": 11319,
        "pref_cd": 9,
        "lon": 139.932912,
        "lat": 36.80655
    },
    "1131930": {
        "station_name": "野崎",
        "line_cd": 11319,
        "pref_cd": 9,
        "lon": 139.957752,
        "lat": 36.843722
    },
    "1131931": {
        "station_name": "西那須野",
        "line_cd": 11319,
        "pref_cd": 9,
        "lon": 139.986383,
        "lat": 36.883726
    },
    "1131932": {
        "station_name": "那須塩原",
        "line_cd": 11319,
        "pref_cd": 9,
        "lon": 140.020694,
        "lat": 36.931956
    },
    "1131933": {
        "station_name": "黒磯",
        "line_cd": 11319,
        "pref_cd": 9,
        "lon": 140.060204,
        "lat": 36.970128
    },
    "1133401": {
        "station_name": "宝積寺",
        "line_cd": 11334,
        "pref_cd": 9,
        "lon": 139.979487,
        "lat": 36.631703
    },
    "1133402": {
        "station_name": "下野花岡",
        "line_cd": 11334,
        "pref_cd": 9,
        "lon": 140.008606,
        "lat": 36.649965
    },
    "1133403": {
        "station_name": "仁井田",
        "line_cd": 11334,
        "pref_cd": 9,
        "lon": 140.029573,
        "lat": 36.657271
    },
    "1133404": {
        "station_name": "鴻野山",
        "line_cd": 11334,
        "pref_cd": 9,
        "lon": 140.051656,
        "lat": 36.666495
    },
    "1133405": {
        "station_name": "大金",
        "line_cd": 11334,
        "pref_cd": 9,
        "lon": 140.095656,
        "lat": 36.656275
    },
    "1133406": {
        "station_name": "小塙",
        "line_cd": 11334,
        "pref_cd": 9,
        "lon": 140.11656,
        "lat": 36.643095
    },
    "1133407": {
        "station_name": "滝",
        "line_cd": 11334,
        "pref_cd": 9,
        "lon": 140.138152,
        "lat": 36.648558
    },
    "1133408": {
        "station_name": "烏山",
        "line_cd": 11334,
        "pref_cd": 9,
        "lon": 140.15507,
        "lat": 36.650455
    },
    "1133901": {
        "station_name": "小山",
        "line_cd": 11339,
        "pref_cd": 9,
        "lon": 139.806241,
        "lat": 36.312747
    },
    "1134001": {
        "station_name": "宇都宮",
        "line_cd": 11340,
        "pref_cd": 9,
        "lon": 139.898389,
        "lat": 36.559246
    },
    "1134002": {
        "station_name": "鶴田",
        "line_cd": 11340,
        "pref_cd": 9,
        "lon": 139.858818,
        "lat": 36.538319
    },
    "1134003": {
        "station_name": "鹿沼",
        "line_cd": 11340,
        "pref_cd": 9,
        "lon": 139.762961,
        "lat": 36.571222
    },
    "1134004": {
        "station_name": "文挟",
        "line_cd": 11340,
        "pref_cd": 9,
        "lon": 139.727778,
        "lat": 36.637716
    },
    "1134005": {
        "station_name": "下野大沢",
        "line_cd": 11340,
        "pref_cd": 9,
        "lon": 139.732367,
        "lat": 36.686427
    },
    "1134006": {
        "station_name": "今市",
        "line_cd": 11340,
        "pref_cd": 9,
        "lon": 139.687348,
        "lat": 36.720388
    },
    "1134007": {
        "station_name": "日光",
        "line_cd": 11340,
        "pref_cd": 9,
        "lon": 139.62215,
        "lat": 36.7474
    },
    "1134112": {
        "station_name": "小俣",
        "line_cd": 11341,
        "pref_cd": 9,
        "lon": 139.374416,
        "lat": 36.37496
    },
    "1134113": {
        "station_name": "山前",
        "line_cd": 11341,
        "pref_cd": 9,
        "lon": 139.411322,
        "lat": 36.347369
    },
    "1134114": {
        "station_name": "足利",
        "line_cd": 11341,
        "pref_cd": 9,
        "lon": 139.456295,
        "lat": 36.331888
    },
    "1134115": {
        "station_name": "富田",
        "line_cd": 11341,
        "pref_cd": 9,
        "lon": 139.52865,
        "lat": 36.316209
    },
    "1134116": {
        "station_name": "佐野",
        "line_cd": 11341,
        "pref_cd": 9,
        "lon": 139.578858,
        "lat": 36.316668
    },
    "1134117": {
        "station_name": "岩舟",
        "line_cd": 11341,
        "pref_cd": 9,
        "lon": 139.657955,
        "lat": 36.326561
    },
    "1134118": {
        "station_name": "大平下",
        "line_cd": 11341,
        "pref_cd": 9,
        "lon": 139.697264,
        "lat": 36.344315
    },
    "1134119": {
        "station_name": "栃木",
        "line_cd": 11341,
        "pref_cd": 9,
        "lon": 139.731037,
        "lat": 36.371912
    },
    "1134120": {
        "station_name": "思川",
        "line_cd": 11341,
        "pref_cd": 9,
        "lon": 139.781079,
        "lat": 36.351044
    },
    "1134121": {
        "station_name": "小山",
        "line_cd": 11341,
        "pref_cd": 9,
        "lon": 139.806241,
        "lat": 36.312747
    },
    "1134122": {
        "station_name": "あしかがフラワーパーク",
        "line_cd": 11341,
        "pref_cd": 9,
        "lon": 139.518611,
        "lat": 36.315167
    },
    "2100242": {
        "station_name": "県",
        "line_cd": 21002,
        "pref_cd": 9,
        "lon": 139.472336,
        "lat": 36.290615
    },
    "2100243": {
        "station_name": "福居",
        "line_cd": 21002,
        "pref_cd": 9,
        "lon": 139.458634,
        "lat": 36.305208
    },
    "2100244": {
        "station_name": "東武和泉",
        "line_cd": 21002,
        "pref_cd": 9,
        "lon": 139.45509,
        "lat": 36.315595
    },
    "2100245": {
        "station_name": "足利市",
        "line_cd": 21002,
        "pref_cd": 9,
        "lon": 139.448113,
        "lat": 36.32948
    },
    "2100246": {
        "station_name": "野州山辺",
        "line_cd": 21002,
        "pref_cd": 9,
        "lon": 139.431981,
        "lat": 36.32633
    },
    "2100309": {
        "station_name": "藤岡",
        "line_cd": 21003,
        "pref_cd": 9,
        "lon": 139.64555,
        "lat": 36.255628
    },
    "2100310": {
        "station_name": "静和",
        "line_cd": 21003,
        "pref_cd": 9,
        "lon": 139.684864,
        "lat": 36.31651
    },
    "2100311": {
        "station_name": "新大平下",
        "line_cd": 21003,
        "pref_cd": 9,
        "lon": 139.701886,
        "lat": 36.339024
    },
    "2100312": {
        "station_name": "栃木",
        "line_cd": 21003,
        "pref_cd": 9,
        "lon": 139.731037,
        "lat": 36.371912
    },
    "2100313": {
        "station_name": "新栃木",
        "line_cd": 21003,
        "pref_cd": 9,
        "lon": 139.742308,
        "lat": 36.390149
    },
    "2100314": {
        "station_name": "合戦場",
        "line_cd": 21003,
        "pref_cd": 9,
        "lon": 139.741057,
        "lat": 36.407647
    },
    "2100315": {
        "station_name": "家中",
        "line_cd": 21003,
        "pref_cd": 9,
        "lon": 139.747344,
        "lat": 36.429783
    },
    "2100316": {
        "station_name": "東武金崎",
        "line_cd": 21003,
        "pref_cd": 9,
        "lon": 139.749468,
        "lat": 36.466288
    },
    "2100317": {
        "station_name": "楡木",
        "line_cd": 21003,
        "pref_cd": 9,
        "lon": 139.745164,
        "lat": 36.507497
    },
    "2100318": {
        "station_name": "樅山",
        "line_cd": 21003,
        "pref_cd": 9,
        "lon": 139.741875,
        "lat": 36.532667
    },
    "2100319": {
        "station_name": "新鹿沼",
        "line_cd": 21003,
        "pref_cd": 9,
        "lon": 139.74478,
        "lat": 36.556998
    },
    "2100320": {
        "station_name": "北鹿沼",
        "line_cd": 21003,
        "pref_cd": 9,
        "lon": 139.737646,
        "lat": 36.580811
    },
    "2100321": {
        "station_name": "板荷",
        "line_cd": 21003,
        "pref_cd": 9,
        "lon": 139.707739,
        "lat": 36.619476
    },
    "2100322": {
        "station_name": "下小代",
        "line_cd": 21003,
        "pref_cd": 9,
        "lon": 139.713849,
        "lat": 36.651303
    },
    "2100323": {
        "station_name": "明神",
        "line_cd": 21003,
        "pref_cd": 9,
        "lon": 139.712301,
        "lat": 36.676566
    },
    "2100324": {
        "station_name": "下今市",
        "line_cd": 21003,
        "pref_cd": 9,
        "lon": 139.692666,
        "lat": 36.72563
    },
    "2100325": {
        "station_name": "上今市",
        "line_cd": 21003,
        "pref_cd": 9,
        "lon": 139.681026,
        "lat": 36.727962
    },
    "2100326": {
        "station_name": "東武日光",
        "line_cd": 21003,
        "pref_cd": 9,
        "lon": 139.61975,
        "lat": 36.748233
    },
    "2100801": {
        "station_name": "栃木",
        "line_cd": 21008,
        "pref_cd": 9,
        "lon": 139.731037,
        "lat": 36.371912
    },
    "2100802": {
        "station_name": "新栃木",
        "line_cd": 21008,
        "pref_cd": 9,
        "lon": 139.742308,
        "lat": 36.390149
    },
    "2100803": {
        "station_name": "野州平川",
        "line_cd": 21008,
        "pref_cd": 9,
        "lon": 139.753764,
        "lat": 36.401554
    },
    "2100804": {
        "station_name": "野州大塚",
        "line_cd": 21008,
        "pref_cd": 9,
        "lon": 139.772574,
        "lat": 36.408759
    },
    "2100805": {
        "station_name": "壬生",
        "line_cd": 21008,
        "pref_cd": 9,
        "lon": 139.80496,
        "lat": 36.422472
    },
    "2100806": {
        "station_name": "国谷",
        "line_cd": 21008,
        "pref_cd": 9,
        "lon": 139.823824,
        "lat": 36.451442
    },
    "2100807": {
        "station_name": "おもちゃのまち",
        "line_cd": 21008,
        "pref_cd": 9,
        "lon": 139.829506,
        "lat": 36.466774
    },
    "2100808": {
        "station_name": "安塚",
        "line_cd": 21008,
        "pref_cd": 9,
        "lon": 139.835572,
        "lat": 36.485678
    },
    "2100809": {
        "station_name": "西川田",
        "line_cd": 21008,
        "pref_cd": 9,
        "lon": 139.850247,
        "lat": 36.514227
    },
    "2100810": {
        "station_name": "江曽島",
        "line_cd": 21008,
        "pref_cd": 9,
        "lon": 139.860818,
        "lat": 36.530951
    },
    "2100811": {
        "station_name": "南宇都宮",
        "line_cd": 21008,
        "pref_cd": 9,
        "lon": 139.872017,
        "lat": 36.543783
    },
    "2100812": {
        "station_name": "東武宇都宮",
        "line_cd": 21008,
        "pref_cd": 9,
        "lon": 139.880427,
        "lat": 36.559373
    },
    "2100901": {
        "station_name": "下今市",
        "line_cd": 21009,
        "pref_cd": 9,
        "lon": 139.692666,
        "lat": 36.72563
    },
    "2100902": {
        "station_name": "大谷向",
        "line_cd": 21009,
        "pref_cd": 9,
        "lon": 139.691916,
        "lat": 36.73224
    },
    "2100903": {
        "station_name": "大桑",
        "line_cd": 21009,
        "pref_cd": 9,
        "lon": 139.713546,
        "lat": 36.76079
    },
    "2100904": {
        "station_name": "新高徳",
        "line_cd": 21009,
        "pref_cd": 9,
        "lon": 139.710623,
        "lat": 36.779816
    },
    "2100905": {
        "station_name": "小佐越",
        "line_cd": 21009,
        "pref_cd": 9,
        "lon": 139.706465,
        "lat": 36.802252
    },
    "2100906": {
        "station_name": "鬼怒川温泉",
        "line_cd": 21009,
        "pref_cd": 9,
        "lon": 139.716552,
        "lat": 36.822622
    },
    "2100907": {
        "station_name": "鬼怒川公園",
        "line_cd": 21009,
        "pref_cd": 9,
        "lon": 139.72287,
        "lat": 36.841
    },
    "2100908": {
        "station_name": "新藤原",
        "line_cd": 21009,
        "pref_cd": 9,
        "lon": 139.732963,
        "lat": 36.852505
    },
    "2100909": {
        "station_name": "東武ワールドスクウェア",
        "line_cd": 21009,
        "pref_cd": 9,
        "lon": 139.709083,
        "lat": 36.808333
    },
    "2101003": {
        "station_name": "田島",
        "line_cd": 21010,
        "pref_cd": 9,
        "lon": 139.564943,
        "lat": 36.290229
    },
    "2101004": {
        "station_name": "佐野市",
        "line_cd": 21010,
        "pref_cd": 9,
        "lon": 139.57583,
        "lat": 36.306153
    },
    "2101005": {
        "station_name": "佐野",
        "line_cd": 21010,
        "pref_cd": 9,
        "lon": 139.578826,
        "lat": 36.316884
    },
    "2101006": {
        "station_name": "堀米",
        "line_cd": 21010,
        "pref_cd": 9,
        "lon": 139.580279,
        "lat": 36.328467
    },
    "2101007": {
        "station_name": "吉水",
        "line_cd": 21010,
        "pref_cd": 9,
        "lon": 139.579337,
        "lat": 36.345621
    },
    "2101008": {
        "station_name": "田沼",
        "line_cd": 21010,
        "pref_cd": 9,
        "lon": 139.581919,
        "lat": 36.367094
    },
    "2101009": {
        "station_name": "多田",
        "line_cd": 21010,
        "pref_cd": 9,
        "lon": 139.592984,
        "lat": 36.37809
    },
    "2101010": {
        "station_name": "葛生",
        "line_cd": 21010,
        "pref_cd": 9,
        "lon": 139.609207,
        "lat": 36.397937
    },
    "9931214": {
        "station_name": "原向",
        "line_cd": 99312,
        "pref_cd": 9,
        "lon": 139.420593,
        "lat": 36.617284
    },
    "9931215": {
        "station_name": "通洞",
        "line_cd": 99312,
        "pref_cd": 9,
        "lon": 139.439671,
        "lat": 36.636837
    },
    "9931216": {
        "station_name": "足尾",
        "line_cd": 99312,
        "pref_cd": 9,
        "lon": 139.447773,
        "lat": 36.641853
    },
    "9931217": {
        "station_name": "間藤",
        "line_cd": 99312,
        "pref_cd": 9,
        "lon": 139.450078,
        "lat": 36.653507
    },
    "9933005": {
        "station_name": "久下田",
        "line_cd": 99330,
        "pref_cd": 9,
        "lon": 139.971756,
        "lat": 36.37606
    },
    "9933006": {
        "station_name": "寺内",
        "line_cd": 99330,
        "pref_cd": 9,
        "lon": 139.980077,
        "lat": 36.410876
    },
    "9933007": {
        "station_name": "真岡",
        "line_cd": 99330,
        "pref_cd": 9,
        "lon": 140.002632,
        "lat": 36.439144
    },
    "9933008": {
        "station_name": "北真岡",
        "line_cd": 99330,
        "pref_cd": 9,
        "lon": 140.014061,
        "lat": 36.44909
    },
    "9933009": {
        "station_name": "西田井",
        "line_cd": 99330,
        "pref_cd": 9,
        "lon": 140.04876,
        "lat": 36.453407
    },
    "9933010": {
        "station_name": "北山",
        "line_cd": 99330,
        "pref_cd": 9,
        "lon": 140.067708,
        "lat": 36.455665
    },
    "9933011": {
        "station_name": "益子",
        "line_cd": 99330,
        "pref_cd": 9,
        "lon": 140.088526,
        "lat": 36.462965
    },
    "9933012": {
        "station_name": "七井",
        "line_cd": 99330,
        "pref_cd": 9,
        "lon": 140.09439,
        "lat": 36.491814
    },
    "9933013": {
        "station_name": "多田羅",
        "line_cd": 99330,
        "pref_cd": 9,
        "lon": 140.089795,
        "lat": 36.515922
    },
    "9933014": {
        "station_name": "市塙",
        "line_cd": 99330,
        "pref_cd": 9,
        "lon": 140.110218,
        "lat": 36.538029
    },
    "9933015": {
        "station_name": "笹原田",
        "line_cd": 99330,
        "pref_cd": 9,
        "lon": 140.144837,
        "lat": 36.533911
    },
    "9933016": {
        "station_name": "天矢場",
        "line_cd": 99330,
        "pref_cd": 9,
        "lon": 140.156109,
        "lat": 36.529292
    },
    "9933017": {
        "station_name": "茂木",
        "line_cd": 99330,
        "pref_cd": 9,
        "lon": 140.181382,
        "lat": 36.530851
    },
    "9934101": {
        "station_name": "新藤原",
        "line_cd": 99341,
        "pref_cd": 9,
        "lon": 139.732963,
        "lat": 36.852505
    },
    "9934102": {
        "station_name": "龍王峡",
        "line_cd": 99341,
        "pref_cd": 9,
        "lon": 139.718542,
        "lat": 36.860909
    },
    "9934103": {
        "station_name": "川治温泉",
        "line_cd": 99341,
        "pref_cd": 9,
        "lon": 139.703775,
        "lat": 36.884036
    },
    "9934104": {
        "station_name": "川治湯元",
        "line_cd": 99341,
        "pref_cd": 9,
        "lon": 139.702772,
        "lat": 36.895126
    },
    "9934105": {
        "station_name": "湯西川温泉",
        "line_cd": 99341,
        "pref_cd": 9,
        "lon": 139.68824,
        "lat": 36.929482
    },
    "9934106": {
        "station_name": "中三依温泉",
        "line_cd": 99341,
        "pref_cd": 9,
        "lon": 139.69614,
        "lat": 36.985843
    },
    "9934107": {
        "station_name": "上三依塩原温泉口",
        "line_cd": 99341,
        "pref_cd": 9,
        "lon": 139.727168,
        "lat": 37.014461
    },
    "9934108": {
        "station_name": "男鹿高原",
        "line_cd": 99341,
        "pref_cd": 9,
        "lon": 139.723845,
        "lat": 37.04784
    },
    "9934501": {
        "station_name": "宇都宮駅東口",
        "line_cd": 99345,
        "pref_cd": 9,
        "lon": 139.89954,
        "lat": 36.5591
    },
    "9934502": {
        "station_name": "東宿郷",
        "line_cd": 99345,
        "pref_cd": 9,
        "lon": 139.903972,
        "lat": 36.558278
    },
    "9934503": {
        "station_name": "駅東公園前",
        "line_cd": 99345,
        "pref_cd": 9,
        "lon": 139.908111,
        "lat": 36.557972
    },
    "9934504": {
        "station_name": "峰",
        "line_cd": 99345,
        "pref_cd": 9,
        "lon": 139.915222,
        "lat": 36.5575
    },
    "9934505": {
        "station_name": "陽東3丁目",
        "line_cd": 99345,
        "pref_cd": 9,
        "lon": 139.923194,
        "lat": 36.557306
    },
    "9934506": {
        "station_name": "宇都宮大学陽東キャンパス",
        "line_cd": 99345,
        "pref_cd": 9,
        "lon": 139.930417,
        "lat": 36.557083
    },
    "9934507": {
        "station_name": "平石",
        "line_cd": 99345,
        "pref_cd": 9,
        "lon": 139.939279,
        "lat": 36.55505
    },
    "9934508": {
        "station_name": "平石中央小学校前",
        "line_cd": 99345,
        "pref_cd": 9,
        "lon": 139.944835,
        "lat": 36.55487
    },
    "9934509": {
        "station_name": "飛山城跡",
        "line_cd": 99345,
        "pref_cd": 9,
        "lon": 139.963429,
        "lat": 36.548348
    },
    "9934510": {
        "station_name": "清陵高校前",
        "line_cd": 99345,
        "pref_cd": 9,
        "lon": 139.976308,
        "lat": 36.544947
    },
    "9934511": {
        "station_name": "清原地区市民センター前",
        "line_cd": 99345,
        "pref_cd": 9,
        "lon": 139.984306,
        "lat": 36.547639
    },
    "9934512": {
        "station_name": "グリーンスタジアム前",
        "line_cd": 99345,
        "pref_cd": 9,
        "lon": 139.98325,
        "lat": 36.553616
    },
    "9934513": {
        "station_name": "ゆいの杜西",
        "line_cd": 99345,
        "pref_cd": 9,
        "lon": 139.986757,
        "lat": 36.567297
    },
    "9934514": {
        "station_name": "ゆいの杜中央",
        "line_cd": 99345,
        "pref_cd": 9,
        "lon": 139.992972,
        "lat": 36.56775
    },
    "9934515": {
        "station_name": "ゆいの杜東",
        "line_cd": 99345,
        "pref_cd": 9,
        "lon": 139.99832,
        "lat": 36.56762
    },
    "9934516": {
        "station_name": "芳賀台",
        "line_cd": 99345,
        "pref_cd": 9,
        "lon": 140.005942,
        "lat": 36.56625
    },
    "9934517": {
        "station_name": "芳賀町工業団地管理センター前",
        "line_cd": 99345,
        "pref_cd": 9,
        "lon": 140.010687,
        "lat": 36.56495
    },
    "9934518": {
        "station_name": "かしの森公園前",
        "line_cd": 99345,
        "pref_cd": 9,
        "lon": 140.014631,
        "lat": 36.572445
    },
    "9934519": {
        "station_name": "芳賀・高根沢工業団地",
        "line_cd": 99345,
        "pref_cd": 9,
        "lon": 140.011993,
        "lat": 36.57856
    }
}